name,country,state,county,city,street_address,zip_code,latitude,longitude,email,website,phone_number,type,is_operational,description
Adams Chapel Cemetery,United States,Arkansas,Ouachita County,Good Hope,Good Hope,,33.6115023,-93.054055,,,,human,true,
Antioch Cemetery,United States,Arkansas,Columbia County,Box Springs,Box Springs,,33.2695723,-93.3443373,,,,human,true,
Baker Cemetery,United States,Arkansas,Columbia County,Talley,Talley,,33.1917979,-93.079609,,,,human,true,
Belk Cemetery,United States,Arkansas,Hempstead County,Ozan,Ozan,,33.8323375,-93.7321252,,,,human,true,
Bell Bluff Cemetery,United States,Arkansas,Pike County,Billstown,Billstown,,33.9853867,-93.594625,,,,human,true,
Bethel Cemetery,United States,Arkansas,Columbia County,Atlanta,Atlanta,,33.1273564,-93.0582193,,,,human,true,
Blevins Cemetery,United States,Arkansas,Hempstead County,Blevins,Blevins,,33.8534456,-93.5804564,,,,human,true,
Bradshaw Cemetery,United States,Arkansas,Little River County,Arden,Arden,,33.6773406,-94.3052004,,,,human,true,
Brown Cemetery,United States,Arkansas,Clark County,Gurdon,Gurdon,,33.927603,-93.1571148,,,,human,true,
Buchanan Cemetery,United States,Arkansas,Nevada County,Boughton,Boughton,,33.8401091,-93.3548946,,,,human,true,
Buck Range Cemetery,United States,Arkansas,Howard County,Schooley,Schooley,,33.8301166,-93.861574,,,,human,true,
Christopher Cemetery,United States,Arkansas,Nevada County,Mendenhall,Mendenhall,,33.5509501,-93.1448894,,,,human,true,
Coulter Cemetery,United States,Arkansas,Howard County,Rosedale (historical),Rosedale (historical),,33.9856197,-94.0179819,,,,human,true,
Cummings Cemetery,United States,Arkansas,Lafayette County,Mount Pleasant,Mount Pleasant,,33.4581773,-93.4876761,,,,human,true,
Dickson Cemetery,United States,Arkansas,Columbia County,Waldo,Waldo,,33.3315147,-93.2943361,,,,human,true,
Dowden Cemetery,United States,Arkansas,Little River County,Millwood,Millwood,,33.6609542,-93.9768553,,,,human,true,
Downs Cemetery,United States,Arkansas,Lafayette County,Mount Pleasant,Mount Pleasant,,33.5092869,-93.4923986,,,,human,true,
Elliott Cemetery,United States,Arkansas,Columbia County,Forest Grove,Forest Grove,,33.0740249,-93.1362761,,,,human,true,
Freeman Cemetery,United States,Arkansas,Little River County,Alleene,Alleene,,33.7534511,-94.2724224,,,,human,true,
Fulton Cemetery,United States,Arkansas,Hempstead County,Fulton,Fulton,,33.6198426,-93.8154609,,,,human,true,
Glover Cemetery,United States,Arkansas,Columbia County,Horsehead,Horsehead,,33.0598578,-93.2665568,,,,human,true,
Hartsfield Cemetery,United States,Arkansas,Columbia County,Emon,Emon,,33.3248482,-93.2426678,,,,human,true,
Hatch Cemetery,United States,Arkansas,Hempstead County,Alton (historical),Alton (historical),,33.5584529,-93.5787889,,,,human,true,
Hemphill Cemetery,United States,Arkansas,Little River County,Wades Chapel,Wades Chapel,,33.6517862,-94.2565875,,,,human,true,
Hickory Ridge Cemetery,United States,Arkansas,Nevada County,Mendenhall,Mendenhall,,33.5956701,-93.0904442,,,,human,true,
High Hill Cemetery,United States,Arkansas,Howard County,Saratoga,Saratoga,,33.7612295,-93.8776857,,,,human,true,
Jameson Cemetery,United States,Arkansas,Columbia County,Lydesdale,Lydesdale,,33.2976266,-93.0998878,,,,human,true,
Jenkins Cemetery,United States,Arkansas,Clark County,Kansas,Kansas,,33.8161129,-93.0135932,,,,human,true,
Jerusalem Cemetery,United States,Arkansas,Columbia County,Brister,Brister,,33.1348554,-93.2059999,,,,human,true,
Lewis Randolph Grave,United States,Arkansas,Clark County,Kansas,Kansas,,33.8659367,-93.0190571,,,,human,true,
Martin Cemetery,United States,Arkansas,Nevada County,Irma,Irma,,33.5448405,-93.2687803,,,,human,true,
Maxwell Cemetery,United States,Arkansas,Hempstead County,Blevins,Blevins,,33.8748341,-93.5918457,,,,human,true,
McClendon Cemetery,United States,Arkansas,Columbia County,Noxobe,Noxobe,,33.1362446,-93.1129426,,,,human,true,
McClendon Cemetery,United States,Arkansas,Lafayette County,Lerch,Lerch,,33.2131848,-93.5557314,,,,human,true,
McKenzie Cemetery,United States,Arkansas,Miller County,Rocky Mound,Rocky Mound,,33.3098489,-93.8037913,,,,human,true,
Mount Moriah Cemetery,United States,Arkansas,Nevada County,Foss (historical),Foss (historical),,33.6653898,-93.1126666,,,,human,true,
Mount Zion Cemetery,United States,Arkansas,Hempstead County,De Ann,De Ann,,33.7628925,-93.5751771,,,,human,true,
New Home Cemetery,United States,Arkansas,Hempstead County,Arcadia,Arcadia,,33.8464992,-93.4426754,,,,human,true,
Norwoodville Cemetery,United States,Arkansas,Sevier County,Norwoodville,Norwoodville,,33.9512262,-94.3215928,,,,human,true,
Oak Grove Cemetery,United States,Arkansas,Hempstead County,Jakajones (historical),Jakajones (historical),,33.836224,-93.5918452,,,,human,true,
Old Bethel-Saint John Cemetery,United States,Arkansas,Columbia County,Warnock Springs,Warnock Springs,,33.2829051,-93.1212769,,,,human,true,
Owen Cemetery,United States,Arkansas,Columbia County,Kerlin,Kerlin,,33.1526323,-93.2407229,,,,human,true,
Paup Cemetery,United States,Arkansas,Miller County,Clear Lake Junction,Clear Lake Junction,,33.5354005,-93.9201859,,,,human,true,
Polk Cemetery,United States,Arkansas,Miller County,Wona (historical),Wona (historical),,33.3995699,-93.9379623,,,,human,true,
Providence Cemetery,United States,Arkansas,Columbia County,Forest Grove,Forest Grove,,33.0754137,-93.1423873,,,,human,true,
Ross Cemetery,United States,Arkansas,Hempstead County,Centerville,Centerville,,33.6120619,-93.496287,,,,human,true,
Saint Marks Cemetery,United States,Arkansas,Columbia County,Tide Water,Tide Water,,33.196242,-93.1126652,,,,human,true,
Section Sixteen Cemetery,United States,Arkansas,Hempstead County,Columbus,Columbus,,33.7970613,-93.7990718,,,,human,true,
Serepta Spring Cemetery,United States,Arkansas,Nevada County,Serepta Springs (historical),Serepta Springs (historical),,33.6656698,-93.2868355,,,,human,true,
Shiloh Cemetery,United States,Arkansas,Howard County,Mount Olive (historical),Mount Olive (historical),,33.9448365,-93.9043533,,,,human,true,
Smyrna Cemetery,United States,Arkansas,Nevada County,Iron Springs,Iron Springs,,33.8567758,-93.3904517,,,,human,true,
Snell Cemetery,United States,Arkansas,Nevada County,Emmet,Emmet,,33.7181698,-93.4576739,,,,human,true,
Spring Hill Cemetery,United States,Arkansas,Little River County,Red Bluff,Red Bluff,,33.6465099,-93.9501876,,,,human,true,
Stricklin Cemetery,United States,Arkansas,Lafayette County,Old Town,Old Town,,33.3876241,-93.5871218,,,,human,true,
Turner Cemetery,United States,Arkansas,Hempstead County,Spring Hill,Spring Hill,,33.5892861,-93.6418456,,,,human,true,
Wise Cemetery,United States,Arkansas,Hempstead County,Sardis (historical),Sardis (historical),,33.5620636,-93.5432327,,,,human,true,
Peytonville Cemetery,United States,Arkansas,Little River County,Peytonville,Peytonville,,33.69512,-94.0696366,,,,human,true,
Saint Lukes Cemetery,United States,Arkansas,Little River County,Richmond,Richmond,,33.6012318,-94.1915847,,,,human,true,
Shirley Cemetery,United States,Arkansas,Howard County,Allbrook,Allbrook,,33.799562,-93.8924085,,,,human,true,
Boggy Springs Cemetery,United States,Arkansas,Sevier County,Wade,Wade,,33.9662256,-94.3674278,,,,human,true,
French Cemetery,United States,Arkansas,Little River County,Foreman,Foreman,,33.7340053,-94.4085375,,,,human,true,
Hopson Cemetery,United States,Arkansas,Little River County,Rocky Comfort,Rocky Comfort,,33.7059494,-94.4496495,,,,human,true,
New Home Cemetery,United States,Arkansas,Little River County,Arkinda,Arkinda,,33.7931712,-94.4293723,,,,human,true,
Hawkins Cemetery,United States,Arkansas,Little River County,Rocky Comfort,Rocky Comfort,,33.702061,-94.416593,,,,human,true,
Green Cemetery,United States,Arkansas,Columbia County,McNeil,McNeil,,33.3745685,-93.2182233,,,,human,true,
Rose Hill Cemetery,United States,Arkansas,Hempstead County,Magnolia Addition,Magnolia Addition,,33.6785327,-93.5907296,,,,human,true,
Frazier Cemetery,United States,Arkansas,Columbia County,Box Springs,Box Springs,,33.2748255,-93.353959,,,,human,true,
Rudd Cemetery,United States,Arkansas,Columbia County,Dodson,Dodson,,33.2802767,-93.3284122,,,,human,true,
Strong Cemetery,United States,Arkansas,Columbia County,Waldo,Waldo,,33.3306823,-93.3196469,,,,human,true,
Waldo Cemetery,United States,Arkansas,Columbia County,Waldo,Waldo,,33.3252118,-93.2978755,,,,human,true,
Cleveland Cemetery,United States,Arkansas,Miller County,Mandeville,Mandeville,,33.4717372,-93.9807205,,,,human,true,
Ashdown Cemetery,United States,Arkansas,Little River County,Ashdown,Ashdown,,33.6828649,-94.1270344,,,,human,true,
Harmony Grove Cemetery,United States,Arkansas,Miller County,Pleasant Hill,Pleasant Hill,,33.3499175,-94.0151671,,,,human,true,
Sand Hill Cemetery,United States,Arkansas,Little River County,Arkinda,Arkinda,,33.7256936,-94.4985811,,,,human,true,
Saint Mark Cemetery,United States,Arkansas,Hempstead County,Park Addition,Park Addition,,33.665123,-93.6381907,,,,human,true,
Calvary Cemetery,United States,Arkansas,Miller County,Texarkana,Texarkana,,33.4543324,-94.014122,,,,human,true,
Holy Cross Cemetery,United States,Arkansas,Miller County,Texarkana,Texarkana,,33.4615998,-94.051878,,,,human,true,
State Line Cemetery,United States,Arkansas,Miller County,Texarkana,Texarkana,,33.4517911,-94.0417605,,,,human,true,
Woodlawn Cemetery,United States,Arkansas,Miller County,Texarkana,Texarkana,,33.4517661,-94.0393156,,,,human,true,
Wooten Spring Cemetery,United States,Arkansas,Miller County,Texarkana,Texarkana,,33.4613281,-94.0526439,,,,human,true,
Gibson Cemetery,United States,Arkansas,Miller County,Mount Pleasant,Mount Pleasant,,33.3512831,-93.9976799,,,,human,true,
Nashville Cemetery,United States,Arkansas,Howard County,Nashville,Nashville,,33.9497632,-93.8454233,,,,human,true,
Magnolia Cemetery,United States,Arkansas,Columbia County,Magnolia,Magnolia,,33.260138,-93.2417473,,,,human,true,
Magnolia Memorial Park,United States,Arkansas,Columbia County,Johnston,Johnston,,33.2648151,-93.2004616,,,,human,true,
DeAnn Cemetery,United States,Arkansas,Nevada County,Prescott,Prescott,,33.8082883,-93.3921067,,,,human,true,
Mount Oba Cemetery,United States,Arkansas,Miller County,Genoa,Genoa,,33.3853018,-93.9266048,,,,human,true,
Old Washington Cemetery,United States,Arkansas,Hempstead County,Washington,Washington,,33.7765299,-93.6907504,,,,human,true,
New Hope Church Cemetery,United States,Arkansas,Miller County,Hammons,Hammons,,33.1011026,-94.0537794,,,,human,true,
Teague Cemetery,United States,Arkansas,Columbia County,Owens,Owens,,32.995096,-93.0706914,,,,human,true,
Fair Haven Cemetery,United States,Arkansas,Miller County,Texarkana,Texarkana,,33.4550177,-94.01087,,,,human,true,
Mt Zion Cemetery,United States,Arkansas,Miller County,Doddridge,Doddridge,,33.0933969,-93.9094879,,,,human,true,
Fouke Cemetery,United States,Arkansas,Miller County,Fouke,Fouke,,33.2678828,-93.8736267,,,,human,true,
Wilson Cemetery,United States,Arkansas,Lafayette County,Old Town,Old Town,,33.3764858,-93.5722999,,,,human,true,
Old Lewisville Cemetery,United States,Arkansas,Lafayette County,Old Town,Old Town,,33.3878331,-93.578838,,,,human,true,
Lakeside Cemetery,United States,Arkansas,Lafayette County,Stamps,Stamps,,33.3496232,-93.4901734,,,,human,true,
Dollarhide Cemetery,United States,Arkansas,Little River County,Rocky Comfort,Rocky Comfort,,33.7115761,-94.4112422,,,,human,true,
Catholic Cemetery,United States,Arkansas,Little River County,Rocky Comfort,Rocky Comfort,,33.7017952,-94.4078608,,,,human,true,
Wilton Cemetery,United States,Arkansas,Little River County,Wilton,Wilton,,33.74924,-94.1509547,,,,human,true,
Alleene Cemetery,United States,Arkansas,Little River County,Alleene,Alleene,,33.7706656,-94.2707293,,,,human,true,
Camp Grounds Cemetery,United States,Arkansas,Little River County,Cross Roads,Cross Roads,,33.8266711,-94.3778784,,,,human,true,
Crofton Cemetery,United States,Arkansas,Howard County,Tollette,Tollette,,33.8272597,-93.9063909,,,,human,true,
Ben Lomond Cemetery,United States,Arkansas,Sevier County,Ben Lomond,Ben Lomond,,33.8247014,-94.1160451,,,,human,true,
Shiloh Cemetery,United States,Arkansas,Howard County,Shiloh,Shiloh,,33.8752566,-93.9703282,,,,human,true,
Lockesburg Cemetery,United States,Arkansas,Sevier County,Lockesburg,Lockesburg,,33.9750541,-94.1691284,,,,human,true,
Horatio Cemetery,United States,Arkansas,Sevier County,Horatio,Horatio,,33.9411787,-94.3457652,,,,human,true,
Mays Cemetery,United States,Arkansas,Lafayette County,Kress City,Kress City,,33.2802137,-93.6650465,,,,human,true,
Hopson Cemetery,United States,Arkansas,Sevier County,Paraclifta (historical),Paraclifta (historical),,33.8534194,-94.1724667,,,,human,true,
Turner Cemetery,United States,Arkansas,Ouachita County,Reader,Reader,,33.7427436,-93.0993306,,,,human,true,
Springhill Cemetery,United States,Arkansas,Clark County,Sycamore,Sycamore,,33.8460715,-93.1530606,,,,human,true,
Rose Hill Cemetery,United States,Arkansas,Clark County,Sycamore,Sycamore,,33.8513732,-93.1608919,,,,human,true,
Brown Cemetery,United States,Arkansas,Clark County,Beirne,Beirne,,33.8743656,-93.2043724,,,,human,true,
Rose Hedge Cemetery,United States,Arkansas,Clark County,Gurdon,Gurdon,,33.9241729,-93.1410914,,,,human,true,
Greenville Cemetery,United States,Arkansas,Clark County,Smithton (historical),Smithton (historical),,33.9413304,-93.1386866,,,,human,true,
Bethel Springs Cemetery,United States,Arkansas,Clark County,Red Springs,Red Springs,,33.8864805,-93.0704771,,,,human,true,
Bethlehem Cemetery,United States,Arkansas,Clark County,Whelen Springs,Whelen Springs,,33.843799,-93.0719544,,,,human,true,
Bluff City Cemetery,United States,Arkansas,Nevada County,Bluff City,Bluff City,,33.719282,-93.1255509,,,,human,true,
Okolona Cemetery,United States,Arkansas,Clark County,Okolona,Okolona,,33.9840062,-93.3369893,,,,human,true,
Sylverino Cemetery,United States,Arkansas,Miller County,Sylverino,Sylverino,,33.3167483,-93.9388955,,,,human,true,
Chalybeate Springs Cemetery,United States,Arkansas,Columbia County,Ware,Ware,,33.0436347,-93.0834517,,,,human,true,
Temperanceville Cemetery,United States,Arkansas,Howard County,Temperanceville,Temperanceville,,33.9666094,-93.8795351,,,,human,true,
French Cemetery,United States,Arkansas,Little River County,Rocky Comfort,Rocky Comfort,,33.677166,-94.4200495,,,,human,true,
Patmos Cemetery,United States,Arkansas,Hempstead County,Patmos,Patmos,,33.5079718,-93.5727876,,,,human,true,
Macedonia Cemetery,United States,Arkansas,Hempstead County,Sardis (historical),Sardis (historical),,33.565127,-93.5610267,,,,human,true,
Clark Cemetery,United States,Arkansas,Lafayette County,Mount Pleasant,Mount Pleasant,,33.4747072,-93.4806879,,,,human,true,
Washington Hill Cemetery,United States,Arkansas,Nevada County,Boughton,Boughton,,33.851801,-93.3584999,,,,human,true,
Rhodes Cemetery,United States,Arkansas,Little River County,Richmond,Richmond,,33.6480029,-94.1726206,,,,human,true,
Elizabeth Cemetery,United States,Arkansas,Hempstead County,Deanyville,Deanyville,,33.9133787,-93.4969407,,,,human,true,
Ayers Cemetery,United States,Arkansas,Hempstead County,Centerville,Centerville,,33.6442653,-93.5034867,,,,human,true,
Mills Cemetery,United States,Arkansas,Little River County,Wilton,Wilton,,33.770942,-94.1511944,,,,human,true,
Purifoy Cemetery,United States,Arkansas,Ouachita County,Good Hope,Good Hope,,33.6267786,-93.0295229,,,,human,true,
Harrison Chapel Cemetery,United States,Arkansas,Miller County,Mandeville,Mandeville,,33.4576876,-93.94118,,,,human,true,
Giles Cemetery,United States,Arkansas,Hempstead County,Coler,Coler,,33.5944232,-93.565713,,,,human,true,
Phylaw Cemetery,United States,Arkansas,Miller County,Rocky Mound,Rocky Mound,,33.2885807,-93.8274586,,,,human,true,
Kingree Chapel Cemetery,United States,Arkansas,Sevier County,Milford,Milford,,33.9588347,-94.1046438,,,,human,true,
Craven Cemetery,United States,Arkansas,Nevada County,Redland,Redland,,33.7724364,-93.3279625,,,,human,true,
Betts Cemetery,United States,Arkansas,Hempstead County,Evening Shade,Evening Shade,,33.5573501,-93.6188648,,,,human,true,
Holleman Cemetery,United States,Arkansas,Nevada County,Foss (historical),Foss (historical),,33.6701193,-93.0963554,,,,human,true,
Rome Cemetery,United States,Arkansas,Clark County,Native (historical),Native (historical),,33.9473673,-93.2986799,,,,human,true,
Copeland Ridge Cemetery,United States,Arkansas,Clark County,Shakertown,Shakertown,,33.9561346,-93.0313209,,,,human,true,
Rawles Hill Cemetery,United States,Arkansas,Clark County,Red Springs,Red Springs,,33.9002237,-93.1055521,,,,human,true,
Old Rome Cemetery,United States,Arkansas,Clark County,Native (historical),Native (historical),,33.941226,-93.2974742,,,,human,true,
New Bethel Cemetery,United States,Arkansas,Columbia County,Magnesia Springs,Magnesia Springs,,33.3433572,-93.173418,,,,human,true,
Columbia Cemetery,United States,Arkansas,Columbia County,Lamartine,Lamartine,,33.384658,-93.2906815,,,,human,true,
Forest Grove Cemetery,United States,Arkansas,Columbia County,Forest Grove,Forest Grove,,33.0418947,-93.1464799,,,,human,true,
Anderson Cemetery,United States,Arkansas,Columbia County,Forest Grove,Forest Grove,,33.0211179,-93.1842408,,,,human,true,
Barlow Cemetery,United States,Arkansas,Columbia County,Box Springs,Box Springs,,33.2813374,-93.3368612,,,,human,true,
Memorial Gardens,United States,Arkansas,Columbia County,Calhoun,Calhoun,,33.2111086,-93.188775,,,,human,true,
Macedonia Cemetery,United States,Arkansas,Columbia County,Laughlin,Laughlin,,33.3368376,-93.1010373,,,,human,true,
Miller Cemetery,United States,Arkansas,Columbia County,Ebenezer,Ebenezer,,33.3017245,-93.0697309,,,,human,true,
Stewart-Walkerville Cemetery,United States,Arkansas,Columbia County,Walkerville,Walkerville,,33.0830739,-93.3233777,,,,human,true,
Sharman Cemetery,United States,Arkansas,Columbia County,Sharman,Sharman,,33.1715964,-93.4165563,,,,human,true,
Miner Cemetery,United States,Arkansas,Columbia County,Saint Matthews,Saint Matthews,,33.4074035,-93.1632344,,,,human,true,
Rocky Mount Cemetery,United States,Arkansas,Columbia County,Smithland,Smithland,,33.230841,-93.3796692,,,,human,true,
Saint Matthews Cemetery,United States,Arkansas,Columbia County,McNeil,McNeil,,33.3312409,-93.2119996,,,,human,true,
Scott Cemetery,United States,Arkansas,Columbia County,Dodson,Dodson,,33.2653001,-93.3008384,,,,human,true,
Gatlin Cemetery,United States,Arkansas,Columbia County,Milner (historical),Milner (historical),,33.4229326,-93.1342269,,,,human,true,
Free Hope Cemetery,United States,Arkansas,Columbia County,Free Hope,Free Hope,,33.2981966,-93.158112,,,,human,true,
Shiloh Cemetery,United States,Arkansas,Columbia County,Shiloh,Shiloh,,33.3914112,-93.2715171,,,,human,true,
Patterson Cemetery,United States,Arkansas,Lafayette County,Lerch,Lerch,,33.2580996,-93.4647918,,,,human,true,
Friendship Cemetery,United States,Arkansas,Columbia County,Friendship,Friendship,,33.2148343,-93.4362665,,,,human,true,
Kings Hill Cemetery,United States,Arkansas,Columbia County,Kerlin,Kerlin,,33.1822213,-93.2480666,,,,human,true,
New Hope Cemetery,United States,Arkansas,Columbia County,McNeil,McNeil,,33.3225476,-93.2222423,,,,human,true,
Macedonia Cemetery,United States,Arkansas,Columbia County,Macedonia,Macedonia,,33.1634239,-93.3167472,,,,human,true,
Ebenezer Cemetery,United States,Arkansas,Hempstead County,Deanyville,Deanyville,,33.8878704,-93.4897632,,,,human,true,
Harmony Cemetery,United States,Arkansas,Howard County,Saratoga,Saratoga,,33.7243145,-93.9056719,,,,human,true,
Huckabee Cemetery,United States,Arkansas,Hempstead County,Evening Shade,Evening Shade,,33.5733934,-93.6136168,,,,human,true,
Evening Shade Cemetery,United States,Arkansas,Hempstead County,Evening Shade,Evening Shade,,33.5737788,-93.6127431,,,,human,true,
Flowers Hill Cemetery,United States,Arkansas,Hempstead County,Sheppard,Sheppard,,33.6287217,-93.7420719,,,,human,true,
Young Cemetery,United States,Arkansas,Hempstead County,Westbrook (historical),Westbrook (historical),,33.9316438,-93.6654398,,,,human,true,
Smith Cemetery,United States,Arkansas,Hempstead County,Thrasher (historical),Thrasher (historical),,33.6823036,-93.8004783,,,,human,true,
Church Hill Cemetery,United States,Arkansas,Hempstead County,Thrasher (historical),Thrasher (historical),,33.6809768,-93.8004273,,,,human,true,
Bright Star Cemetery,United States,Arkansas,Hempstead County,Crossroads,Crossroads,,33.712849,-93.70563,,,,human,true,
Shorter Cemetery,United States,Arkansas,Hempstead County,Blevins,Blevins,,33.8421799,-93.5693591,,,,human,true,
Bethany Cemetery,United States,Arkansas,Hempstead County,Spring Hill,Spring Hill,,33.5673291,-93.6451408,,,,human,true,
Cummings Cemetery,United States,Arkansas,Hempstead County,Bellair,Bellair,,33.9071928,-93.7766173,,,,human,true,
Cummings Cemetery,United States,Arkansas,Hempstead County,Bellair,Bellair,,33.9073614,-93.7757074,,,,human,true,
Foster Cemetery,United States,Arkansas,Hempstead County,Battlefield,Battlefield,,33.5986274,-93.6708753,,,,human,true,
Hervey Cemetery,United States,Arkansas,Hempstead County,Spring Hill,Spring Hill,,33.6109749,-93.6385231,,,,human,true,
Rocky Mound Cemetery,United States,Arkansas,Hempstead County,Rocky Mound,Rocky Mound,,33.6721706,-93.5419194,,,,human,true,
Phillips Cemetery,United States,Arkansas,Hempstead County,Perrytown,Perrytown,,33.7119253,-93.5543829,,,,human,true,
Mounds Cemetery,United States,Arkansas,Hempstead County,Columbus,Columbus,,33.779941,-93.8231785,,,,human,true,
Harris Cemetery,United States,Arkansas,Hempstead County,Dotson,Dotson,,33.9301132,-93.5835372,,,,human,true,
Robinson Cemetery,United States,Arkansas,Hempstead County,Frisco Addition,Frisco Addition,,33.6795449,-93.6193373,,,,human,true,
Saint Peter Cemetery,United States,Arkansas,Hempstead County,Ozan,Ozan,,33.8750433,-93.7340574,,,,human,true,
Beards Chapel Cemetery,United States,Arkansas,Hempstead County,Garlandville,Garlandville,,33.7963572,-93.4938045,,,,human,true,
Holly Spring Cemetery,United States,Arkansas,Hempstead County,Spring Hill,Spring Hill,,33.5383006,-93.6476467,,,,human,true,
Wilson Cemetery,United States,Arkansas,Hempstead County,Guernsey,Guernsey,,33.6629768,-93.6821419,,,,human,true,
Sullivan Cemetery,United States,Arkansas,Hempstead County,Spring Hill,Spring Hill,,33.5968747,-93.649816,,,,human,true,
Macedonia Cemetery,United States,Arkansas,Hempstead County,Columbus,Columbus,,33.7780003,-93.7807493,,,,human,true,
Gamble Cemetery,United States,Arkansas,Hempstead County,Yancy,Yancy,,33.8321587,-93.7676118,,,,human,true,
Red Hill Cemetery,United States,Arkansas,Hempstead County,Fulton,Fulton,,33.6099317,-93.8041824,,,,human,true,
Providence Cemetery,United States,Arkansas,Hempstead County,Evening Shade,Evening Shade,,33.5259582,-93.6286499,,,,human,true,
Westmorland Cemetery,United States,Arkansas,Hempstead County,Crossroads,Crossroads,,33.7096762,-93.7444362,,,,human,true,
Phillips Cemetery,United States,Arkansas,Hempstead County,Spring Hill,Spring Hill,,33.5394911,-93.6692459,,,,human,true,
Bluff Springs Cemetery,United States,Arkansas,Howard County,Shiloh,Shiloh,,33.9211614,-93.98854,,,,human,true,
Hickory Grove Cemetery,United States,Arkansas,Howard County,Shiloh,Shiloh,,33.9140199,-94.0019054,,,,human,true,
Mount Carmen Cemetery,United States,Arkansas,Howard County,Rosedale (historical),Rosedale (historical),,33.9970522,-94.0276507,,,,human,true,
Graves Cemetery,United States,Arkansas,Howard County,Blue Bayou,Blue Bayou,,33.9552224,-94.0001916,,,,human,true,
County Line Cemetery,United States,Arkansas,Howard County,Forgy (historical),Forgy (historical),,33.9491813,-93.929048,,,,human,true,
Union Hill Cemetery,United States,Arkansas,Lafayette County,Grants,Grants,,33.1712141,-93.6808263,,,,human,true,
Mars Hill Cemetery,United States,Arkansas,Lafayette County,McKamie,McKamie,,33.2621591,-93.5420327,,,,human,true,
Sewell Cemetery,United States,Arkansas,Lafayette County,Piney Grove,Piney Grove,,33.4361923,-93.6105404,,,,human,true,
Boyd Hill Cemetery,United States,Arkansas,Lafayette County,Boyd Hill,Boyd Hill,,33.447552,-93.6537051,,,,human,true,
Mount Zion Cemetery,United States,Arkansas,Lafayette County,McKamie,McKamie,,33.2805111,-93.4991992,,,,human,true,
Primitive Cemetery,United States,Arkansas,Lafayette County,Canfield,Canfield,,33.2058679,-93.5792282,,,,human,true,
Demoss Cemetery,United States,Arkansas,Lafayette County,Kress City,Kress City,,33.2478401,-93.5704372,,,,human,true,
Oak Grove Cemetery,United States,Arkansas,Lafayette County,McKamie,McKamie,,33.2740473,-93.4766498,,,,human,true,
Bradley Cemetery,United States,Arkansas,Lafayette County,Walnut Hill,Walnut Hill,,33.1018919,-93.6831524,,,,human,true,
Buckner Cemetery,United States,Arkansas,Lafayette County,Buckner,Buckner,,33.3706423,-93.4421003,,,,human,true,
Wright Cemetery,United States,Arkansas,Lafayette County,Kress City,Kress City,,33.3157866,-93.665205,,,,human,true,
Saint Mary Cemetery,United States,Arkansas,Lafayette County,Walnut Hill,Walnut Hill,,33.1180921,-93.6896146,,,,human,true,
Walnut Hill Cemetery,United States,Arkansas,Lafayette County,Walnut Hill,Walnut Hill,,33.1197837,-93.6900531,,,,human,true,
Strawn Cemetery,United States,Arkansas,Little River County,Oak Grove,Oak Grove,,33.8647487,-94.4099459,,,,human,true,
Hicks Cemetery,United States,Arkansas,Little River County,Hicks,Hicks,,33.717938,-94.1254675,,,,human,true,
Oak Hill Cemetery,United States,Arkansas,Little River County,Oak Grove,Oak Grove,,33.7146338,-94.2142848,,,,human,true,
Blackland Cemetery,United States,Arkansas,Little River County,Arkinda,Arkinda,,33.7386114,-94.4670917,,,,human,true,
Gravelly Cemetery,United States,Arkansas,Little River County,Foreman,Foreman,,33.7372096,-94.3700065,,,,human,true,
Cerrogordo Cemetery,United States,Arkansas,Little River County,Cerrogordo,Cerrogordo,,33.9217901,-94.4740695,,,,human,true,
Cook Cemetery,United States,Arkansas,Little River County,Hicks,Hicks,,33.7293974,-94.1140386,,,,human,true,
Arden Cemetery,United States,Arkansas,Little River County,Arden,Arden,,33.6873739,-94.2855699,,,,human,true,
Pine Grove Cemetery,United States,Arkansas,Little River County,Pankov,Pankov,,33.6952523,-94.3480365,,,,human,true,
Pauley Cemetery,United States,Arkansas,Little River County,Jewell,Jewell,,33.881265,-94.4534641,,,,human,true,
Pauley Cemetery,United States,Arkansas,Little River County,Jewell,Jewell,,33.8803793,-94.4534588,,,,human,true,
Green Cemetery,United States,Arkansas,Little River County,Cross Roads,Cross Roads,,33.810378,-94.3875112,,,,human,true,
Richmond Cemetery,United States,Arkansas,Little River County,Richmond,Richmond,,33.6380073,-94.18333,,,,human,true,
Newsom Cometery,United States,Arkansas,Little River County,Fomby,Fomby,,33.6869013,-94.0084366,,,,human,true,
Rocky Mound Cemetery,United States,Arkansas,Miller County,Rocky Mound,Rocky Mound,,33.2673741,-93.8306846,,,,human,true,
New Hope Cemetery,United States,Arkansas,Miller County,Spring Bank (historical),Spring Bank (historical),,33.086287,-93.8828147,,,,human,true,
New Hope Cemetery,United States,Arkansas,Miller County,Spring Bank (historical),Spring Bank (historical),,33.08661,-93.8815052,,,,human,true,
Sulphur Fork Cemetery,United States,Arkansas,Miller County,Kiblah,Kiblah,,33.0688385,-93.9027141,,,,human,true,
Old Rondo Cemetery,United States,Arkansas,Miller County,Rondo,Rondo,,33.4459362,-93.967671,,,,human,true,
Rondo Memorial Park Cemetery,United States,Arkansas,Miller County,Rondo,Rondo,,33.4450018,-93.9673439,,,,human,true,
Rock Springs Cemetery,United States,Arkansas,Miller County,Artex,Artex,,33.3981406,-93.8311976,,,,human,true,
Laneburg Cemetery,United States,Arkansas,Nevada County,Laneburg,Laneburg,,33.6852805,-93.3653234,,,,human,true,
Falcon Cemetery,United States,Arkansas,Nevada County,Falcon,Falcon,,33.4672292,-93.4194685,,,,human,true,
Falcon Cemetery,United States,Arkansas,Nevada County,Falcon,Falcon,,33.4664327,-93.4200177,,,,human,true,
McKinney Cemetery,United States,Arkansas,Nevada County,Waterloo,Waterloo,,33.5362828,-93.2675374,,,,human,true,
Saint Johns Cemetery,United States,Arkansas,Nevada County,Foss (historical),Foss (historical),,33.6579269,-93.1411504,,,,human,true,
Artesian Cemetery,United States,Arkansas,Nevada County,Midway,Midway,,33.773946,-93.4507383,,,,human,true,
Saint Peters Cemetery,United States,Arkansas,Nevada County,Willisville,Willisville,,33.507245,-93.281829,,,,human,true,
White Church Cemetery,United States,Arkansas,Nevada County,Caney (historical),Caney (historical),,33.5994646,-93.127339,,,,human,true,
Corinth Cemetery,United States,Arkansas,Nevada County,Sanders,Sanders,,33.5230123,-93.3767483,,,,human,true,
Tick Hill Cemetery,United States,Arkansas,Nevada County,Glenville,Glenville,,33.4613706,-93.1691452,,,,human,true,
Ebenezer Cemetery,United States,Arkansas,Nevada County,Register (historical),Register (historical),,33.5538052,-93.4768188,,,,human,true,
Watts Cemetery,United States,Arkansas,Nevada County,Davidson,Davidson,,33.456959,-93.2379908,,,,human,true,
Lebanon Cemetery,United States,Arkansas,Nevada County,Nevark,Nevark,,33.556141,-93.1842132,,,,human,true,
Providence Cemetery,United States,Arkansas,Nevada County,Boughton,Boughton,,33.8720658,-93.3425166,,,,human,true,
Waldrep Cemetery,United States,Arkansas,Nevada County,Stockton,Stockton,,33.4684537,-93.3146585,,,,human,true,
Rocky Mound Cemetery,United States,Arkansas,Nevada County,Oak Grove,Oak Grove,,33.5843436,-93.2334988,,,,human,true,
Gulley Cemetery,United States,Arkansas,Nevada County,Foss (historical),Foss (historical),,33.6678183,-93.1436683,,,,human,true,
Dunn Cemetery,United States,Arkansas,Nevada County,Bodcaw,Bodcaw,,33.5342651,-93.4038252,,,,human,true,
Snell Cemetery,United States,Arkansas,Nevada County,Emmet,Emmet,,33.7176475,-93.457171,,,,human,true,
Round Oak Cemetery,United States,Arkansas,Nevada County,Woodlawn (historical),Woodlawn (historical),,33.5023369,-93.1228007,,,,human,true,
Westmoreland Cemetery,United States,Arkansas,Nevada County,Morris,Morris,,33.7074762,-93.2549049,,,,human,true,
Union Cemetery,United States,Arkansas,Nevada County,Brisbane (historical),Brisbane (historical),,33.5742348,-93.3709171,,,,human,true,
Bluff Springs Cemetery,United States,Arkansas,Nevada County,Mount Moriah,Mount Moriah,,33.6332675,-93.3370503,,,,human,true,
Holly Springs Cemetery,United States,Arkansas,Nevada County,Brisbane (historical),Brisbane (historical),,33.5491512,-93.3294884,,,,human,true,
Barksdale Cemetery,United States,Arkansas,Nevada County,Oak Grove,Oak Grove,,33.5973539,-93.2292288,,,,human,true,
Sweet Home Cemetery,United States,Arkansas,Nevada County,Lackland (historical),Lackland (historical),,33.7621084,-93.2362381,,,,human,true,
Zion Hill Cemetery,United States,Arkansas,Ouachita County,Lufra (historical),Lufra (historical),,33.5534822,-93.0233498,,,,human,true,
Billstown Cemetery,United States,Arkansas,Pike County,Billstown,Billstown,,33.9874034,-93.5793865,,,,human,true,
Nash Cemetery,United States,Arkansas,Pike County,Billstown,Billstown,,33.996698,-93.5749608,,,,human,true,
Millwee Cemetery,United States,Arkansas,Sevier County,Walnut Springs,Walnut Springs,,33.9474174,-94.2712328,,,,human,true,
Brownstown Cemetery,United States,Arkansas,Sevier County,White Cliffs,White Cliffs,,33.8051941,-94.0659325,,,,human,true,
Wrights Chapel Cemetery,United States,Arkansas,Sevier County,Cowlingsville,Cowlingsville,,33.8749073,-94.0877362,,,,human,true,
Bellville Cemetery,United States,Arkansas,Sevier County,Bellville,Bellville,,33.9379237,-94.1696991,,,,human,true,
Mount Ida Cemetery,United States,Arkansas,Sevier County,Geneva,Geneva,,33.9928637,-94.249995,,,,human,true,
Old Union Cemetery,United States,Arkansas,Sevier County,Lockesburg,Lockesburg,,33.9839056,-94.1405958,,,,human,true,
Falls Chapel Cemetery,United States,Arkansas,Sevier County,Pennys,Pennys,,33.858391,-94.1605823,,,,human,true,
Clear Creek Cemetery,United States,Arkansas,Sevier County,Williamson,Williamson,,33.9355738,-94.3180803,,,,human,true,
Sunset Acres Cemetery,United States,Arkansas,Sevier County,Horatio,Horatio,,33.9518262,-94.3565418,,,,human,true,
West Otis Cemetery,United States,Arkansas,Sevier County,West Otis,West Otis,,33.9529909,-94.4518635,,,,human,true,
Central Church of Christ Cemetary,United States,Arkansas,Hempstead County,Alton (historical),Alton (historical),,33.5277121,-93.6165426,,,,human,true,
Harts Cemetary,United States,Arkansas,Clark County,Curtis,Curtis,,33.9738779,-93.0586126,,,,human,true,
Shady Grove Cemetery,United States,Arkansas,Clark County,Beirne,Beirne,,33.8691804,-93.2237891,,,,human,true,
Pioneer Cemetery,United States,Arkansas,Hempstead County,Washington,Washington,,33.7795556,-93.6811956,,,,human,true,
Sand Field Cemetery,United States,Arkansas,Sevier County,Lockesburg,Lockesburg,,33.9608571,-94.1408928,,,,human,true,
Scotts Memorial Garden Cemetery,United States,Arkansas,Hempstead County,Perrytown,Perrytown,,33.6955681,-93.5414265,,,,human,true,
Anderson Cemetery,United States,Arkansas,Hempstead County,Battlefield,Battlefield,,33.5529585,-93.6770451,,,,human,true,
Armstrong Cemetery,United States,Arkansas,Little River County,Temple,Temple,,33.5830023,-94.0101418,,,,human,true,
Anderson Cemetery,United States,Arkansas,Chicot County,Bellaire,Bellaire,,33.5062239,-91.3528952,,,,human,true,
Antioch Cemetery,United States,Arkansas,Lincoln County,Glendale,Glendale,,33.955101,-91.9523594,,,,human,true,
Austin Cemetery,United States,Arkansas,Desha County,McGehee,McGehee,,33.6387204,-91.4609552,,,,human,true,
Austin Cemetery,United States,Arkansas,Desha County,Reed,Reed,,33.6503868,-91.4609553,,,,human,true,
Barnett Cemetery,United States,Arkansas,Desha County,Red Fork,Red Fork,,33.9451031,-91.2859506,,,,human,true,
Bethel Cemetery,United States,Arkansas,Ashley County,Kimball,Kimball,,33.0215149,-91.6276218,,,,human,true,
Beulah Grove Cemetery,United States,Arkansas,Union County,Wesson,Wesson,,33.1065243,-92.7698819,,,,human,true,
Big Hickory Cemetery,United States,Arkansas,Columbia County,Damascus,Damascus,,33.2615169,-92.9909971,,,,human,true,
Bird Cemetery,United States,Arkansas,Union County,Ritchie,Ritchie,,33.3065138,-92.5493186,,,,human,true,
Blankenship Cemetery,United States,Arkansas,Cleveland County,Rye,Rye,,33.7570496,-91.9976383,,,,human,true,
Bowden Cemetery,United States,Arkansas,Drew County,Collins,Collins,,33.5639998,-91.5484575,,,,human,true,
Bragg Cemetery,United States,Arkansas,Ouachita County,Wyloe (historical),Wyloe (historical),,33.7295524,-92.9484983,,,,human,true,
Broach Cemetery,United States,Arkansas,Cleveland County,Como (historical),Como (historical),,33.909825,-92.3793184,,,,human,true,
Brockman Cemetery,United States,Arkansas,Lincoln County,Calhoun,Calhoun,,33.8831585,-91.7881871,,,,human,true,
Broughton Cemetery,United States,Arkansas,Ouachita County,Vanduzer,Vanduzer,,33.6706661,-92.7676617,,,,human,true,
Bush Cemetery,United States,Arkansas,Lincoln County,Branchville,Branchville,,33.8884359,-91.8590228,,,,human,true,
Cherry Cemetery,United States,Arkansas,Cleveland County,Mount Elba,Mount Elba,,33.8831583,-92.1579216,,,,human,true,
Coker Cemetery,United States,Arkansas,Bradley County,Carmel,Carmel,,33.5692764,-92.0734718,,,,human,true,
Coose Cemetery,United States,Arkansas,Arkansas County,Osotouy (historical),Osotouy (historical),,33.9867691,-91.2534499,,,,human,true,
Cotham Cemetery,United States,Arkansas,Drew County,Jordan (historical),Jordan (historical),,33.471224,-91.6942939,,,,human,true,
Courtney Cemetery,United States,Arkansas,Drew County,Carpenter,Carpenter,,33.3903926,-91.8556865,,,,human,true,
Cullendale Cemetery,United States,Arkansas,Ouachita County,Herbert,Herbert,,33.5501151,-92.834607,,,,human,true,
Curtis Grove Cemetery,United States,Arkansas,Union County,Trull,Trull,,33.1370784,-92.8343274,,,,human,true,
Cypress Grove Cemetery,United States,Arkansas,Drew County,Winchester,Winchester,,33.7678837,-91.5473471,,,,human,true,
Dabney Cemetery,United States,Arkansas,Drew County,Selma,Selma,,33.6548308,-91.5423466,,,,human,true,
Davis Cemetery,United States,Arkansas,Union County,Dumas City,Dumas City,,33.2679058,-92.7901613,,,,human,true,
Dishongh Cemetery,United States,Arkansas,Drew County,Selma,Selma,,33.6631639,-91.5692918,,,,human,true,
Dixon Cemetery,United States,Arkansas,Drew County,Winchester,Winchester,,33.7670505,-91.4929013,,,,human,true,
Double Springs Cemetery,United States,Arkansas,Calhoun County,Hopeville,Hopeville,,33.7976059,-92.5312676,,,,human,true,
Duckworth Cemetery,United States,Arkansas,Ashley County,Old Milo,Old Milo,,33.270674,-91.9079094,,,,human,true,
Evergreen Cemetery,United States,Arkansas,Ashley County,Bovine,Bovine,,33.2073426,-91.8681857,,,,human,true,
Gentry Cemetery,United States,Arkansas,Desha County,Red Fork,Red Fork,,33.9542695,-91.2951176,,,,human,true,
Goodwin Cemetery,United States,Arkansas,Union County,Dumas City,Dumas City,,33.2273521,-92.7593274,,,,human,true,
Grace Cemetery,United States,Arkansas,Cleveland County,Trigg (historical),Trigg (historical),,33.9534351,-92.3465396,,,,human,true,
Grant Cemetery,United States,Arkansas,Ashley County,Kimball,Kimball,,33.0320701,-91.6301219,,,,human,true,
Green Cemetery,United States,Arkansas,Ouachita County,Van Wagoner (historical),Van Wagoner (historical),,33.7051089,-92.9515539,,,,human,true,
Hales Cemetery,United States,Arkansas,Drew County,Moody (historical),Moody (historical),,33.4631678,-91.9668008,,,,human,true,
Harlow Cemetery,United States,Arkansas,Calhoun County,Harlow,Harlow,,33.7495516,-92.5709906,,,,human,true,
Harris Cemetery,United States,Arkansas,Union County,Trull,Trull,,33.1965202,-92.8032165,,,,human,true,
Hughes Cemetery,United States,Arkansas,Ouachita County,Louann,Louann,,33.3976219,-92.762939,,,,human,true,
Irby Cemetery,United States,Arkansas,Desha County,Pea Ridge,Pea Ridge,,33.9167702,-91.3148402,,,,human,true,
Johnson Cemetery,United States,Arkansas,Cleveland County,Como (historical),Como (historical),,33.900103,-92.3759848,,,,human,true,
Judkins Cemetery,United States,Arkansas,Ashley County,Mount Olive,Mount Olive,,33.4056704,-91.6923489,,,,human,true,
Kansas Cemetery,United States,Arkansas,Clark County,Trace,Trace,,33.8287156,-92.9707224,,,,human,true,
Kirkpatrick Cemetery,United States,Arkansas,Ashley County,Fountain Hill,Fountain Hill,,33.3581715,-91.852075,,,,human,true,
Little Bay Cemetery,United States,Arkansas,Calhoun County,Little Bay (historical),Little Bay (historical),,33.4351194,-92.6193238,,,,human,true,
Lyns Cemetery,United States,Arkansas,Bradley County,Pirlte (historical),Pirlte (historical),,33.3684504,-92.2068068,,,,human,true,
Mackwee Cemetery,United States,Arkansas,Lincoln County,Avery,Avery,,33.9051026,-91.6640168,,,,human,true,
Madden Cemetery,United States,Arkansas,Lincoln County,Mills,Mills,,33.8987139,-91.5970705,,,,human,true,
Marks Cemetery,United States,Arkansas,Cleveland County,New Edinburg,New Edinburg,,33.7853825,-92.2434793,,,,human,true,
Maxwell Cemetery,United States,Arkansas,Lincoln County,Garnett,Garnett,,33.8639922,-91.7570749,,,,human,true,
McGill Cemetery,United States,Arkansas,Ouachita County,Tates Bluff,Tates Bluff,,33.791217,-92.9298875,,,,human,true,
McKenney Cemetery,United States,Arkansas,Bradley County,Sturgis (historical),Sturgis (historical),,33.294008,-92.1468041,,,,human,true,
McLeod Cemetery,United States,Arkansas,Bradley County,Banks,Banks,,33.5745553,-92.2979245,,,,human,true,
Menard Cemetery,United States,Arkansas,Arkansas County,Osotouy (historical),Osotouy (historical),,33.9839914,-91.2565056,,,,human,true,
Moore Cemetery,United States,Arkansas,Drew County,Deane,Deane,,33.5281668,-91.7154058,,,,human,true,
Mount Olive Cemetery,United States,Arkansas,Drew County,Collins,Collins,,33.564833,-91.5506798,,,,human,true,
Mount Pisgah Cemetery,United States,Arkansas,Ouachita County,Cross Roads,Cross Roads,,33.4415087,-92.7509944,,,,human,true,
Mount Zion Cemetery,United States,Arkansas,Chicot County,McMillan Corner,McMillan Corner,,33.3653938,-91.3190042,,,,human,true,
Oak Grove Cemetery,United States,Arkansas,Lincoln County,Garrett Bridge,Garrett Bridge,,33.8642702,-91.6565166,,,,human,true,
Old Liberty Cemetery,United States,Arkansas,Ouachita County,Rendezvous,Rendezvous,,33.4984505,-92.845996,,,,human,true,
Pate Cemetery,United States,Arkansas,Union County,Dumas City,Dumas City,,33.215686,-92.7890498,,,,human,true,
Pleasant Green Cemetery,United States,Arkansas,Chicot County,Dewey,Dewey,,33.4822068,-91.2638282,,,,human,true,
Pleasant Grove Cemetery,United States,Arkansas,Ashley County,Hamburg,Hamburg,,33.1620667,-91.7684604,,,,human,true,
Poley Bridge Cemetery,United States,Arkansas,Ashley County,Matoka (historical),Matoka (historical),,33.0890132,-91.686513,,,,human,true,
Powell Cemetery,United States,Arkansas,Ouachita County,Cullendale,Cullendale,,33.5251161,-92.8009954,,,,human,true,
Primm Cemetery,United States,Arkansas,Calhoun County,Delhi (historical),Delhi (historical),,33.49095,-92.5815459,,,,human,true,
Saint Paul Cemetery,United States,Arkansas,Ouachita County,Harmony Grove,Harmony Grove,,33.6726104,-92.7782175,,,,human,true,
Seay Cemetery,United States,Arkansas,Cleveland County,Scoby (historical),Scoby (historical),,33.6856625,-92.076251,,,,human,true,
Seymore Cemetery,United States,Arkansas,Cleveland County,Kingsland,Kingsland,,33.9081583,-92.3148716,,,,human,true,
Smith Cemetery,United States,Arkansas,Ouachita County,Pace City,Pace City,,33.399844,-92.9162745,,,,human,true,
Smith Cemetery,United States,Arkansas,Bradley County,Lanark,Lanark,,33.5517779,-92.2676453,,,,human,true,
Solomon Allen Cemetery,United States,Arkansas,Drew County,Baxter,Baxter,,33.5814995,-91.5140123,,,,human,true,
Spring Hill Cemetery,United States,Arkansas,Ashley County,Old Milo,Old Milo,,33.2656743,-91.8731863,,,,human,true,
Spring Hill Cemetery,United States,Arkansas,Drew County,Plantersville,Plantersville,,33.7512165,-91.867634,,,,human,true,
Stevenson Cemetery,United States,Arkansas,Dallas County,Eagletie,Eagletie,,33.8709374,-92.5926583,,,,human,true,
Stroud Cemetery,United States,Arkansas,Calhoun County,Chambersville,Chambersville,,33.7662174,-92.4398755,,,,human,true,
Tate Cemetery,United States,Arkansas,Columbia County,Medlock,Medlock,,33.3834558,-92.9934977,,,,human,true,
Townsend Cemetery,United States,Arkansas,Drew County,Jerome,Jerome,,33.418448,-91.511789,,,,human,true,
Vetter-Kauffman Cemetery,United States,Arkansas,Dallas County,Princeton,Princeton,,33.9895455,-92.5609911,,,,human,true,
Walker Cemetery,United States,Arkansas,Ashley County,Crossroad,Crossroad,,33.2573409,-91.9151318,,,,human,true,
Yellow Bayou Cemetery,United States,Arkansas,Chicot County,Yellow Bayou,Yellow Bayou,,33.4106707,-91.2540022,,,,human,true,
York Cemetery,United States,Arkansas,Bradley County,Sturgis (historical),Sturgis (historical),,33.3351175,-92.1312487,,,,human,true,
Zachary Cemetery,United States,Arkansas,Lincoln County,Glendale,Glendale,,33.9934334,-91.9643043,,,,human,true,
Beulah Springs Cemetery,United States,Arkansas,Union County,Old Union,Old Union,,33.2348498,-92.5098708,,,,human,true,
Cobb Cemetery,United States,Arkansas,Union County,New Caledonia,New Caledonia,,33.0668029,-92.692101,,,,human,true,
Hines Cemetery,United States,Arkansas,Bradley County,Jersey,Jersey,,33.4073395,-92.326812,,,,human,true,
Belin Cemetery,United States,Arkansas,Bradley County,Lanark,Lanark,,33.4867802,-92.2868122,,,,human,true,
Anderson Cemetery,United States,Arkansas,Union County,Lisbon,Lisbon,,33.3292918,-92.8062727,,,,human,true,
Andrews Chapel Cemetery,United States,Arkansas,Union County,Three Creeks,Three Creeks,,33.100969,-92.8415493,,,,human,true,
Brock Cemetery,United States,Arkansas,Union County,Nick Springs,Nick Springs,,33.1759637,-92.588208,,,,human,true,
Carroll Cemetery,United States,Arkansas,Union County,Trull,Trull,,33.1723546,-92.803494,,,,human,true,
Cathey Cemetery,United States,Arkansas,Union County,Lawson,Lawson,,33.2292932,-92.4409792,,,,human,true,
Cossart Cemetery,United States,Arkansas,Union County,Champagnolle,Champagnolle,,33.3062358,-92.5223729,,,,human,true,
Coulter Cemetery,United States,Arkansas,Union County,Lisbon,Lisbon,,33.2926268,-92.8548844,,,,human,true,
Cummings Cemetery,United States,Arkansas,Union County,Foster Hill,Foster Hill,,33.0990239,-92.7034906,,,,human,true,
Daniels Cemetery,United States,Arkansas,Union County,Calion,Calion,,33.3134579,-92.554319,,,,human,true,
Hammond Cemetery,United States,Arkansas,Union County,Parkers Chapel,Parkers Chapel,,33.1990197,-92.7073804,,,,human,true,
Hardin Cemetery,United States,Arkansas,Union County,Dumas City,Dumas City,,33.2362403,-92.7154367,,,,human,true,
Ingram-Reeves Cemetery,United States,Arkansas,Union County,Nugulf,Nugulf,,33.2531837,-92.6571005,,,,human,true,
Jones Cemetery,United States,Arkansas,Union County,Three Creeks,Three Creeks,,33.0698593,-92.8621047,,,,human,true,
Knowles Cemetery,United States,Arkansas,Union County,Sandy Bend,Sandy Bend,,33.1390176,-92.4079225,,,,human,true,
Langford Cemetery,United States,Arkansas,Union County,Champagnolle,Champagnolle,,33.3167909,-92.519873,,,,human,true,
Masondia Cemetery,United States,Arkansas,Union County,Three Creeks,Three Creeks,,33.0306945,-92.832104,,,,human,true,
Meek Cemetery,United States,Arkansas,Union County,Crain City,Crain City,,33.2576268,-92.5193159,,,,human,true,
Miller Cemetery,United States,Arkansas,Union County,Crain City,Crain City,,33.2659584,-92.4357017,,,,human,true,
Morgan-Wade Cemetery,United States,Arkansas,Union County,Caledonia,Caledonia,,33.0562471,-92.6534883,,,,human,true,
Newton Cemetery,United States,Arkansas,Union County,Smithville,Smithville,,33.1902886,-92.6116645,,,,human,true,
Newton-Dunaway Cemetery,United States,Arkansas,Union County,Quinn,Quinn,,33.2679047,-92.5862639,,,,human,true,
Poole Cemetery,United States,Arkansas,Union County,Sawmill,Sawmill,,33.1729028,-92.2737506,,,,human,true,
Scott-Young Cemetery,United States,Arkansas,Union County,Lisbon,Lisbon,,33.3098482,-92.8598845,,,,human,true,
Suggs Cemetery,United States,Arkansas,Union County,Perdue City,Perdue City,,33.2529049,-92.5318164,,,,human,true,
Tatum Cemetery,United States,Arkansas,Union County,Pigeon Hill,Pigeon Hill,,33.2590141,-92.4279234,,,,human,true,
Wooley Cemetery,United States,Arkansas,Union County,Caledonia,Caledonia,,33.0618025,-92.6587663,,,,human,true,
Shady Grove Cemetery,United States,Arkansas,Ashley County,Montrose,Montrose,,33.3309502,-91.4751203,,,,human,true,
Boyd-Hedge Cemetery,United States,Arkansas,Ashley County,Venice,Venice,,33.047069,-92.0067985,,,,human,true,
Corinth-O'Neil Cemetery,United States,Arkansas,Bradley County,Corinth,Corinth,,33.5670539,-91.9854134,,,,human,true,
Hicks Cemetery,United States,Arkansas,Union County,Norphlet,Norphlet,,33.3415129,-92.6679354,,,,human,true,
Macedonian Cemetery,United States,Arkansas,Ashley County,Sulphur Springs,Sulphur Springs,,33.100401,-92.0204105,,,,human,true,
Mount Renia Cemetery,United States,Arkansas,Union County,Cairo,Cairo,,33.1837429,-92.8646059,,,,human,true,
Watson Cemetery,United States,Arkansas,Ouachita County,Pace City,Pace City,,33.3606792,-92.8846072,,,,human,true,
Golden Cemetery,United States,Arkansas,Union County,Pleasant Grove,Pleasant Grove,,33.0884662,-92.5451504,,,,human,true,
Duncan Cemetery,United States,Arkansas,Desha County,Masonville,Masonville,,33.5956659,-91.4706777,,,,human,true,
Green Hill Cemetery,United States,Arkansas,Drew County,Green Hill,Green Hill,,33.564832,-91.8973553,,,,human,true,
New Hope Cemetery,United States,Arkansas,Drew County,New Hope,New Hope,,33.5251107,-91.8951326,,,,human,true,
Youngs Cemetery,United States,Arkansas,Drew County,Leavits (historical),Leavits (historical),,33.5689999,-91.4706776,,,,human,true,
Erby Cemetery,United States,Arkansas,Dallas County,New Hope,New Hope,,33.9328799,-92.7865526,,,,human,true,
Central Cemetery,United States,Arkansas,Ashley County,Berea,Berea,,33.331506,-91.6895707,,,,human,true,
Griswould Cemetery,United States,Arkansas,Ashley County,Berea,Berea,,33.3348392,-91.693182,,,,human,true,
Memorial Park Cemetery,United States,Arkansas,Ouachita County,Camden,Camden,,33.595137,-92.8406504,,,,human,true,
Greenwood Cemetery,United States,Arkansas,Ouachita County,Camden,Camden,,33.5945896,-92.8366184,,,,human,true,
Oak Grove Cemetery,United States,Arkansas,Dallas County,Oakhurst (historical),Oakhurst (historical),,33.8710496,-92.7074071,,,,human,true,
Parkers Chapel Cemetery,United States,Arkansas,Union County,Parkers Chapel,Parkers Chapel,,33.1722304,-92.7218012,,,,human,true,
Presbyterian Cemetery,United States,Arkansas,Union County,El Dorado,El Dorado,,33.2088853,-92.6633019,,,,human,true,
Oakland Cemetery,United States,Arkansas,Drew County,Monticello,Monticello,,33.6351854,-91.7981636,,,,human,true,
Beasley Cemetery,United States,Arkansas,Desha County,Trippe Junction,Trippe Junction,,33.5999807,-91.3544031,,,,human,true,
Holly Grove Cemetery,United States,Arkansas,Desha County,Trippe Junction,Trippe Junction,,33.6017979,-91.3480298,,,,human,true,
Arlington Cemetery,United States,Arkansas,Union County,El Dorado,El Dorado,,33.2194417,-92.6504368,,,,human,true,
Friendship Cemetery,United States,Arkansas,Union County,El Dorado,El Dorado,,33.1935798,-92.6817401,,,,human,true,
Confederate Cemetery,United States,Arkansas,Ouachita County,Camden,Camden,,33.5932939,-92.8333452,,,,human,true,
Jewish Rest Cemetery,United States,Arkansas,Ouachita County,Camden,Camden,,33.5943593,-92.8350909,,,,human,true,
Bayou Macon Cemetery,United States,Arkansas,Chicot County,Bayou Macon (historical),Bayou Macon (historical),,33.3506393,-91.3194529,,,,human,true,
Davies Cemetery,United States,Arkansas,Chicot County,Lakehall,Lakehall,,33.3427065,-91.265223,,,,human,true,
Greenland Cemetery,United States,Arkansas,Chicot County,Lakehall,Lakehall,,33.356837,-91.2547864,,,,human,true,
Liberty Cemetery,United States,Arkansas,Chicot County,Myrtle Grove,Myrtle Grove,,33.3139576,-91.2714188,,,,human,true,
Saint Luke Cemetery,United States,Arkansas,Chicot County,Lake Village,Lake Village,,33.3584168,-91.2931655,,,,human,true,
Woodson Temple Cemetery,United States,Arkansas,Chicot County,Chanticleer,Chanticleer,,33.3031316,-91.2865072,,,,human,true,
Davis Cemetery,United States,Arkansas,Drew County,Leavits (historical),Leavits (historical),,33.5210791,-91.4539251,,,,human,true,
McDermott Cemetery,United States,Arkansas,Chicot County,Dermott,Dermott,,33.5207611,-91.4443583,,,,human,true,
Bates Cemetery,United States,Arkansas,Desha County,McGehee,McGehee,,33.6183604,-91.38121,,,,human,true,
Palestine Missionary Baptist Church and Cemetery,United States,Arkansas,Desha County,Bogota (historical),Bogota (historical),,33.6474637,-91.3565894,,,,human,true,
McGehee Cemetery,United States,Arkansas,Desha County,Trippe Junction,Trippe Junction,,33.6073374,-91.3678671,,,,human,true,
Rough and Ready Cemetery,United States,Arkansas,Drew County,Rough and Ready (historical),Rough and Ready (historical),,33.6084803,-91.7892327,,,,human,true,
Oakland Cemetery,United States,Arkansas,Bradley County,Warren,Warren,,33.6063177,-92.056504,,,,human,true,
Union Cemetery,United States,Arkansas,Bradley County,Warren,Warren,,33.6238884,-92.0667536,,,,human,true,
Greenville Cemetery,United States,Arkansas,Dallas County,Fordyce,Fordyce,,33.7971466,-92.4066501,,,,human,true,
Oakland Cemetery,United States,Arkansas,Dallas County,North Fordyce,North Fordyce,,33.8214554,-92.403749,,,,human,true,
Evans Cemetery,United States,Arkansas,Calhoun County,Smead (historical),Smead (historical),,33.6396109,-92.6336203,,,,human,true,
Kingsland Cemetery,United States,Arkansas,Cleveland County,Kingsland,Kingsland,,33.8670636,-92.3018192,,,,human,true,
Gum Grove Cemetery,United States,Arkansas,Cleveland County,Meek (historical),Meek (historical),,33.8997228,-92.3386905,,,,human,true,
Smeed Cemetery,United States,Arkansas,Union County,Mount Holly,Mount Holly,,33.3423808,-92.9253549,,,,human,true,
Morgan Cemetery,United States,Arkansas,Desha County,Watson,Watson,,33.8885406,-91.263767,,,,human,true,
Rohwer Memorial Cemetery,United States,Arkansas,Desha County,Rohwer,Rohwer,,33.7664144,-91.2799546,,,,human,true,
McCool Cemetery,United States,Arkansas,Desha County,McGehee,McGehee,,33.6569743,-91.412854,,,,human,true,
New Hope Cemetery,United States,Arkansas,Desha County,Masonville,Masonville,,33.6073064,-91.4366464,,,,human,true,
Seven Star Missionary Baptist Cemetery,United States,Arkansas,Desha County,Reed,Reed,,33.6977854,-91.4469992,,,,human,true,
Saint Paul Cemetery,United States,Arkansas,Desha County,Reed,Reed,,33.7036326,-91.431427,,,,human,true,
Bogue Pilgrim Cemetery,United States,Arkansas,Drew County,Tillar,Tillar,,33.7379911,-91.430379,,,,human,true,
Hopkins Cemetery,United States,Arkansas,Desha County,Hopedale (historical),Hopedale (historical),,33.7681571,-91.429226,,,,human,true,
Scott Cemetery,United States,Arkansas,Desha County,Hopedale (historical),Hopedale (historical),,33.7736722,-91.432347,,,,human,true,
Jefferson Cemetery,United States,Arkansas,Desha County,Hopedale (historical),Hopedale (historical),,33.7849379,-91.4290225,,,,human,true,
Oak Grove Cemetery,United States,Arkansas,Desha County,Hopedale (historical),Hopedale (historical),,33.7790361,-91.459007,,,,human,true,
Newton Cemetery,United States,Arkansas,Desha County,Hopedale (historical),Hopedale (historical),,33.7799114,-91.4466213,,,,human,true,
Warrington Cemetery,United States,Arkansas,Desha County,McArthur,McArthur,,33.6954483,-91.3332654,,,,human,true,
Mount Zion Missionary Baptist Church and Cemetery,United States,Arkansas,Desha County,Bogota (historical),Bogota (historical),,33.6439301,-91.3397691,,,,human,true,
McArthur Cemetery,United States,Arkansas,Desha County,McArthur,McArthur,,33.6934877,-91.3294157,,,,human,true,
Holly Grove Cemetery,United States,Arkansas,Union County,Tubal,Tubal,,33.014824,-92.8608918,,,,human,true,
Leek Cemetery,United States,Arkansas,Lincoln County,Star City,Star City,,33.9457697,-91.868396,,,,human,true,
Heflin Cemetery,United States,Arkansas,Lincoln County,Star City,Star City,,33.9461886,-91.8672213,,,,human,true,
Mount Zion Cemetery,United States,Arkansas,Lincoln County,Relfs Bluff,Relfs Bluff,,33.7922581,-91.8381082,,,,human,true,
Beulah Cemetery,United States,Arkansas,Drew County,Beulah,Beulah,,33.48948,-91.8546416,,,,human,true,
Bethel Cemetery,United States,Arkansas,Ashley County,Crossroad,Crossroad,,33.2157107,-91.9218914,,,,human,true,
Western Cemetery,United States,Arkansas,Ashley County,Cremer,Cremer,,33.1249481,-91.9828002,,,,human,true,
Center Point Cemetery,United States,Arkansas,Union County,Payne,Payne,,33.1308231,-92.4268084,,,,human,true,
Crossroad Cemetery,United States,Arkansas,Ashley County,Pugh,Pugh,,33.2336723,-91.9478055,,,,human,true,
Marysville Cemetery,United States,Arkansas,Union County,Marysville,Marysville,,33.213254,-92.9545076,,,,human,true,
Strong Cemetery,United States,Arkansas,Union County,Gardner,Gardner,,33.0964741,-92.3590746,,,,human,true,
Huttig Cemetery,United States,Arkansas,Union County,Huttig,Huttig,,33.048947,-92.1889671,,,,human,true,
Wilmot Cemetery,United States,Arkansas,Ashley County,Wilmot,Wilmot,,33.0559473,-91.581676,,,,human,true,
Mount Carmel Cemetery,United States,Arkansas,Chicot County,Hanna,Hanna,,33.0985202,-91.2649631,,,,human,true,
Hill Cemetery,United States,Arkansas,Chicot County,Hanna,Hanna,,33.0833147,-91.2730552,,,,human,true,
Masons Cemetery,United States,Arkansas,Chicot County,Hanna,Hanna,,33.0818395,-91.2788513,,,,human,true,
Roselawn Cemetery,United States,Arkansas,Union County,Junction City,Junction City,,33.025405,-92.7235647,,,,human,true,
Princeton Cemetery,United States,Arkansas,Dallas County,Princeton,Princeton,,33.9760479,-92.6174501,,,,human,true,
Extra Cemetery,United States,Arkansas,Ashley County,Berlin,Berlin,,33.0330347,-91.7692943,,,,human,true,
Thomas Cemetery,United States,Arkansas,Lincoln County,Flynn,Flynn,,33.9580597,-91.5765558,,,,human,true,
Easley Cemetery,United States,Arkansas,Clark County,Kansas,Kansas,,33.8623459,-92.9916204,,,,human,true,
Plunkett Cemetery,United States,Arkansas,Calhoun County,Delhi (historical),Delhi (historical),,33.5096494,-92.6499861,,,,human,true,
Union Cemetery,United States,Arkansas,Ashley County,Montrose,Montrose,,33.3311221,-91.4942429,,,,human,true,
Evergreen Cemetery,United States,Arkansas,Ashley County,Boydell,Boydell,,33.3747328,-91.4930458,,,,human,true,
Silver Mound Cemetery,United States,Arkansas,Drew County,Jerome,Jerome,,33.4157578,-91.4667787,,,,human,true,
Rolling Water Cemetery,United States,Arkansas,Desha County,Kelso,Kelso,,33.806553,-91.3525922,,,,human,true,
Ebenezer Cemetery,United States,Arkansas,Union County,Dumas City,Dumas City,,33.2522699,-92.7169806,,,,human,true,
Norphlet Cemetery,United States,Arkansas,Union County,Norphlet,Norphlet,,33.309331,-92.6640879,,,,human,true,
Morning Star Cemetery,United States,Arkansas,Union County,El Dorado,El Dorado,,33.2435094,-92.6704089,,,,human,true,
Rest Haven Memorial Gardens,United States,Arkansas,Union County,Norphlet,Norphlet,,33.2815237,-92.6863575,,,,human,true,
Rehobeth Cemetery,United States,Arkansas,Union County,Norphlet,Norphlet,,33.285641,-92.6812983,,,,human,true,
Sycamore Grove Cemetery,United States,Arkansas,Union County,Quinn,Quinn,,33.2953387,-92.6327504,,,,human,true,
Samckover Cemetery,United States,Arkansas,Union County,Smackover,Smackover,,33.3547046,-92.7257551,,,,human,true,
Primm Cemetery,United States,Arkansas,Union County,Sandy Land,Sandy Land,,33.3385627,-92.69421,,,,human,true,
Hicks Cemetery,United States,Arkansas,Union County,Smackover,Smackover,,33.3342392,-92.7521053,,,,human,true,
Salem Cemetery,United States,Arkansas,Union County,Dumas City,Dumas City,,33.3122283,-92.7732873,,,,human,true,
Lone Oak Cemetery,United States,Arkansas,Ouachita County,Louann,Louann,,33.3351999,-92.7990575,,,,human,true,
United Cemetery,United States,Arkansas,Ashley County,Unity,Unity,,33.135069,-91.8956405,,,,human,true,
Carter Cemetery,United States,Arkansas,Ashley County,Bovine,Bovine,,33.1699115,-91.8373417,,,,human,true,
Pinewood Memorial Park,United States,Arkansas,Ashley County,Bovine,Bovine,,33.17204,-91.8649571,,,,human,true,
Flat Creek Cemetery,United States,Arkansas,Ashley County,Fountain Hill,Fountain Hill,,33.3551739,-91.836146,,,,human,true,
Norris Hill Cemetery,United States,Arkansas,Ashley County,Roark,Roark,,33.3567672,-91.8257816,,,,human,true,
Bowie Cemetery,United States,Arkansas,Desha County,Halley,Halley,,33.5387812,-91.3259107,,,,human,true,
Mound Cemetery,United States,Arkansas,Desha County,Arkansas City,Arkansas City,,33.6198815,-91.2007969,,,,human,true,
Moss Hill Cemetery,United States,Arkansas,Ouachita County,Bests (historical),Bests (historical),,33.7490423,-92.6171361,,,,human,true,
Moss Cemetery,United States,Arkansas,Ouachita County,Bests (historical),Bests (historical),,33.7487439,-92.6162193,,,,human,true,
Humble Hope Cemetery,United States,Arkansas,Cleveland County,Dwight (historical),Dwight (historical),,33.9201954,-92.1937133,,,,human,true,
Rash Cemetery,United States,Arkansas,Drew County,Cominto,Cominto,,33.5567417,-91.6373746,,,,human,true,
Centerpoint Cemetery,United States,Arkansas,Drew County,Jordan (historical),Jordan (historical),,33.4962219,-91.6297175,,,,human,true,
Roper Cometery,United States,Arkansas,Drew County,Collins,Collins,,33.4853752,-91.5826848,,,,human,true,
Collins Cemetery,United States,Arkansas,Drew County,Collins,Collins,,33.5295919,-91.5612396,,,,human,true,
Jordan Cemetery,United States,Arkansas,Drew County,Jordan (historical),Jordan (historical),,33.4953558,-91.6631646,,,,human,true,
Baker Cemetery,United States,Arkansas,Drew County,Paradise (historical),Paradise (historical),,33.5319857,-91.7687833,,,,human,true,
Hopewell Cemetery,United States,Arkansas,Union County,Trull,Trull,,33.1441718,-92.8620237,,,,human,true,
Oakd Grove Cemetery,United States,Arkansas,Union County,Pigeon Hill,Pigeon Hill,,33.2740522,-92.3551499,,,,human,true,
Mount Tabor Cemetery,United States,Arkansas,Dallas County,North Fordyce,North Fordyce,,33.8216947,-92.4015329,,,,human,true,
Cleveland Cemetery,United States,Arkansas,Ashley County,Wallace,Wallace,,33.188793,-91.7138997,,,,human,true,
Arkadelphia Cemetery,United States,Arkansas,Ashley County,West Crossett,West Crossett,,33.1707392,-92.0343133,,,,human,true,
Shiloh Cemetery,United States,Arkansas,Union County,Carnie (historical),Carnie (historical),,33.1249431,-92.9298333,,,,human,true,
Sparkman Cemetery,United States,Arkansas,Dallas County,Sparkman,Sparkman,,33.9314908,-92.8430504,,,,human,true,
Sparkman Cemetery,United States,Arkansas,Dallas County,Sparkman,Sparkman,,33.9151575,-92.8224453,,,,human,true,
Wheeler Springs Cemetery,United States,Arkansas,Cleveland County,Orlando,Orlando,,33.7027462,-92.134984,,,,human,true,
Jennie Cemetery,United States,Arkansas,Chicot County,Jennie,Jennie,,33.2587274,-91.2928596,,,,human,true,
Liberty Cemetery,United States,Arkansas,Union County,Lawson,Lawson,,33.1660929,-92.486802,,,,human,true,
Newton Chapel Cemetery,United States,Arkansas,Lincoln County,Rest (historical),Rest (historical),,33.8557804,-91.8985641,,,,human,true,
Friendship Cemetery,United States,Arkansas,Drew County,New Hope,New Hope,,33.5297079,-91.8736676,,,,human,true,
Jerusalem Cemetery,United States,Arkansas,Union County,Quinn,Quinn,,33.2766764,-92.6056336,,,,human,true,
Gardener Cemetery,United States,Arkansas,Arkansas County,Osotouy (historical),Osotouy (historical),,33.9900714,-91.2513684,,,,human,true,
Mount Olive Cemetery,United States,Arkansas,Ouachita County,Fairview,Fairview,,33.5266744,-92.8794707,,,,human,true,
Old Saline Cemetery,United States,Arkansas,Drew County,Allis,Allis,,33.6197398,-91.908644,,,,human,true,
Hogue Cemetery,United States,Arkansas,Ashley County,Mount Pleasant,Mount Pleasant,,33.1683213,-91.6499982,,,,human,true,
Powell Cemetery,United States,Arkansas,Ashley County,Berea,Berea,,33.3245489,-91.6760223,,,,human,true,
Howard Cemetery,United States,Arkansas,Union County,Lisbon,Lisbon,,33.3218651,-92.8258021,,,,human,true,
Simms Cemetery,United States,Arkansas,Ashley County,North Crossett,North Crossett,,33.1774402,-91.9393152,,,,human,true,
Whitefield Cemetery,United States,Arkansas,Ouachita County,Buena Vista,Buena Vista,,33.4558236,-92.9663705,,,,human,true,
Brazeale Cemetery,United States,Arkansas,Dallas County,Pine Grove,Pine Grove,,33.8589665,-92.7747904,,,,human,true,
Champagnole-Castleberry Cemetery,United States,Arkansas,Union County,Champagnolle,Champagnolle,,33.3129501,-92.5214629,,,,human,true,
Free Hope Cemetery,United States,Arkansas,Union County,Aurelle,Aurelle,,33.0390996,-92.3908344,,,,human,true,
Sixteenth Section Cemetery,United States,Arkansas,Drew County,Moody (historical),Moody (historical),,33.4935522,-91.9382018,,,,human,true,
Ozment Cemetery,United States,Arkansas,Drew County,Moody (historical),Moody (historical),,33.4637209,-91.9511203,,,,human,true,
Antioch Cemetery,United States,Arkansas,Ashley County,Rolfe Junction,Rolfe Junction,,33.1376152,-91.8197849,,,,human,true,
Hamburg Cemetery,United States,Arkansas,Ashley County,Hamburg,Hamburg,,33.2234996,-91.8155282,,,,human,true,
Portland Cemetery,United States,Arkansas,Ashley County,Portland,Portland,,33.2346393,-91.5270219,,,,human,true,
Promise Land Cemetery,United States,Arkansas,Ashley County,Promised Land,Promised Land,,33.2822449,-91.7384234,,,,human,true,
New Texas Cemetery,United States,Arkansas,Ashley County,Wallace,Wallace,,33.24814,-91.7210917,,,,human,true,
Parkdale Cemeteries,United States,Arkansas,Ashley County,Parkdale,Parkdale,,33.1165376,-91.5545466,,,,human,true,
Millers Chapel Cemetery,United States,Arkansas,Ashley County,Millers Chapel,Millers Chapel,,33.0536318,-91.496566,,,,human,true,
Holly Grove Cemetery,United States,Arkansas,Ashley County,Sunshine,Sunshine,,33.2118369,-91.5636393,,,,human,true,
Mount Olive Cemetery,United States,Arkansas,Ashley County,Mount Olive,Mount Olive,,33.3719375,-91.6828481,,,,human,true,
Egypy Cemetery,United States,Arkansas,Ashley County,Old Milo,Old Milo,,33.2737132,-91.9081383,,,,human,true,
Hickory Grove Cemetery,United States,Arkansas,Ashley County,Meridian,Meridian,,33.0369452,-91.9412286,,,,human,true,
Smith Cemetery,United States,Arkansas,Ashley County,Wilmot,Wilmot,,33.0822817,-91.5796119,,,,human,true,
Judson Cemetery,United States,Arkansas,Ashley County,Old Milo,Old Milo,,33.2900863,-91.8548239,,,,human,true,
Wonner Grove Cemetery,United States,Arkansas,Ashley County,Parkdale,Parkdale,,33.0801871,-91.5288323,,,,human,true,
Pugh Cemetery,United States,Arkansas,Ashley County,Pugh,Pugh,,33.2410049,-91.9691753,,,,human,true,
Snyder Cemetery,United States,Arkansas,Ashley County,Snyder,Snyder,,33.2954065,-91.6259162,,,,human,true,
Zion Cemetery,United States,Arkansas,Ashley County,Old Milo,Old Milo,,33.3199713,-91.8929247,,,,human,true,
Mount Pleasant Cemetery,United States,Arkansas,Ashley County,Mount Pleasant,Mount Pleasant,,33.2473325,-91.6199751,,,,human,true,
Carlock Cemetery,United States,Arkansas,Ashley County,Pugh,Pugh,,33.252942,-91.9509195,,,,human,true,
Green Grove Cemetery,United States,Arkansas,Ashley County,Millers Chapel,Millers Chapel,,33.1120023,-91.4867317,,,,human,true,
Beech Creek Cemetery,United States,Arkansas,Ashley County,Mount Pleasant,Mount Pleasant,,33.1549266,-91.6534008,,,,human,true,
Harris Cemetery,United States,Arkansas,Ashley County,Kimball,Kimball,,33.0499443,-91.6324515,,,,human,true,
Saint Marion Cemetery,United States,Arkansas,Ashley County,Sunshine,Sunshine,,33.1696442,-91.546891,,,,human,true,
Dalley Cemetery,United States,Arkansas,Ashley County,Old Milo,Old Milo,,33.2565868,-91.8897913,,,,human,true,
Calvary Presbyterian Cemetery,United States,Arkansas,Bradley County,Johnsville,Johnsville,,33.370653,-92.0178547,,,,human,true,
Williams Cemetery,United States,Arkansas,Bradley County,Wagnon,Wagnon,,33.6642203,-92.3091399,,,,human,true,
Pattsville Cemetery,United States,Arkansas,Bradley County,Simpson,Simpson,,33.4544247,-92.1068296,,,,human,true,
Hickory Springs Cemetery,United States,Arkansas,Bradley County,Sandtuck (historical),Sandtuck (historical),,33.493395,-92.1172808,,,,human,true,
Neal Cemetery,United States,Arkansas,Bradley County,Pirlte (historical),Pirlte (historical),,33.3967058,-92.2224582,,,,human,true,
Union Hill Cemetery,United States,Arkansas,Bradley County,Ingalls,Ingalls,,33.3911493,-92.1298168,,,,human,true,
Saint Paul Cemetery,United States,Arkansas,Cleveland County,Scoby (historical),Scoby (historical),,33.693731,-92.0921673,,,,human,true,
Parnell Cemetery,United States,Arkansas,Bradley County,Gin (historical),Gin (historical),,33.5686159,-92.1844393,,,,human,true,
Palestine Cemetery,United States,Arkansas,Bradley County,Johnsville,Johnsville,,33.3480664,-92.0187901,,,,human,true,
McKinney Cemetery,United States,Arkansas,Bradley County,McKinney,McKinney,,33.6366345,-92.1715869,,,,human,true,
Shady Grove Cemetery,United States,Arkansas,Bradley County,Jersey,Jersey,,33.4336237,-92.3036904,,,,human,true,
Hampton Chapel Cemetery,United States,Arkansas,Bradley County,Broad,Broad,,33.2943327,-92.0631002,,,,human,true,
Garrison Cemetery,United States,Arkansas,Bradley County,McKinney,McKinney,,33.6260879,-92.1674884,,,,human,true,
Holly Springs Cemetery,United States,Arkansas,Bradley County,Greenville,Greenville,,33.4547951,-92.1467731,,,,human,true,
Beard Cemetery,United States,Arkansas,Cleveland County,Orlando,Orlando,,33.6834307,-92.1247829,,,,human,true,
McFarland Cemetery,United States,Arkansas,Bradley County,Banks,Banks,,33.5871025,-92.2695444,,,,human,true,
Ebenezer Cemetery,United States,Arkansas,Bradley County,Gin (historical),Gin (historical),,33.595289,-92.1518705,,,,human,true,
Pleasant Valley Cemetery,United States,Arkansas,Bradley County,Gin (historical),Gin (historical),,33.5570301,-92.1924725,,,,human,true,
Adams/Singer Cemetery,United States,Arkansas,Bradley County,Carmel,Carmel,,33.5360335,-92.0762631,,,,human,true,
Gravelridge Cemetery,United States,Arkansas,Bradley County,Gravelridge,Gravelridge,,33.4476673,-92.2204962,,,,human,true,
Hilo Cemetery,United States,Arkansas,Bradley County,Hilo,Hilo,,33.3568081,-92.2667724,,,,human,true,
Mount Olive Cemetery,United States,Arkansas,Bradley County,Mount Olive,Mount Olive,,33.4293965,-92.0588986,,,,human,true,
Saline Cemetery,United States,Arkansas,Bradley County,Sumpter,Sumpter,,33.5046198,-92.0494384,,,,human,true,
Mount Zion Cemetery,United States,Arkansas,Bradley County,Jersey,Jersey,,33.429828,-92.2924727,,,,human,true,
Smearny Cemetery,United States,Arkansas,Bradley County,Smearny,Smearny,,33.3977454,-92.0155634,,,,human,true,
Craney Cemetery,United States,Arkansas,Bradley County,Craney,Craney,,33.5117603,-92.2404237,,,,human,true,
Childs Cemetery,United States,Arkansas,Bradley County,Lanark,Lanark,,33.5113191,-92.2713563,,,,human,true,
Weary Rest Cemetery,United States,Arkansas,Bradley County,Marsden,Marsden,,33.3599205,-92.1996112,,,,human,true,
Willoughby Cemetery,United States,Arkansas,Bradley County,Cloquet (historical),Cloquet (historical),,33.6261589,-92.1097719,,,,human,true,
Marsden Cemetery,United States,Arkansas,Bradley County,Marsden,Marsden,,33.3262657,-92.2230591,,,,human,true,
Reaves Cemetery,United States,Arkansas,Bradley County,McKinney,McKinney,,33.6509197,-92.1764047,,,,human,true,
Parker Cemetery,United States,Arkansas,Bradley County,Sandtuck (historical),Sandtuck (historical),,33.5265222,-92.1346139,,,,human,true,
Lavilliam Cemetery,United States,Arkansas,Bradley County,Jersey,Jersey,,33.451099,-92.2904808,,,,human,true,
Macedonia Cemetery,United States,Arkansas,Calhoun County,Hampton,Hampton,,33.5526568,-92.4338311,,,,human,true,
Saint Paul Cemetery,United States,Arkansas,Calhoun County,Delhi (historical),Delhi (historical),,33.4674792,-92.5710074,,,,human,true,
Newton Cemetery,United States,Arkansas,Calhoun County,Watson,Watson,,33.6375607,-92.4004369,,,,human,true,
Mount Zion Cemetery,United States,Arkansas,Calhoun County,Thornton,Thornton,,33.793352,-92.4879352,,,,human,true,
Clemons Cemetery,United States,Arkansas,Calhoun County,Hopeville,Hopeville,,33.7956646,-92.5290797,,,,human,true,
Ricks Cemetery,United States,Arkansas,Calhoun County,Summerville,Summerville,,33.487932,-92.345748,,,,human,true,
Friendship Cemetery,United States,Arkansas,Calhoun County,Artesian,Artesian,,33.4124507,-92.4453559,,,,human,true,
Moses Chapel Cemetery,United States,Arkansas,Calhoun County,Delhi (historical),Delhi (historical),,33.4908523,-92.5506211,,,,human,true,
Pickett Cemetery,United States,Arkansas,Calhoun County,Artesian,Artesian,,33.4587928,-92.5034519,,,,human,true,
Means Cemetery,United States,Arkansas,Calhoun County,Hampton,Hampton,,33.5699619,-92.4796164,,,,human,true,
Faustina Cemetery,United States,Arkansas,Calhoun County,Unco,Unco,,33.4215744,-92.3920021,,,,human,true,
Oak Grove Cemetery,United States,Arkansas,Calhoun County,Ellisville,Ellisville,,33.7167807,-92.3912752,,,,human,true,
Furr Cemetery,United States,Arkansas,Calhoun County,Locust Bayou,Locust Bayou,,33.5287342,-92.6775674,,,,human,true,
Earnest Cemetery,United States,Arkansas,Calhoun County,Cram,Cram,,33.5908652,-92.3925418,,,,human,true,
Calaway Cemetery,United States,Arkansas,Calhoun County,Green Hall (historical),Green Hall (historical),,33.7196765,-92.4940984,,,,human,true,
Dunn Cemetery,United States,Arkansas,Calhoun County,Delhi (historical),Delhi (historical),,33.5384068,-92.5708511,,,,human,true,
Tolliver Cemetery,United States,Arkansas,Chicot County,Panther Forest,Panther Forest,,33.3791018,-91.2700488,,,,human,true,
Holly Grove Cemetery Number 2,United States,Arkansas,Chicot County,Chicot,Chicot,,33.2092668,-91.2780759,,,,human,true,
Old Lakeport Cemetery,United States,Arkansas,Chicot County,Shives,Shives,,33.267852,-91.1606767,,,,human,true,
Holly Grove Cemetery,United States,Arkansas,Chicot County,Elmwood,Elmwood,,33.4958175,-91.2994163,,,,human,true,
Old Grange Cemetery,United States,Arkansas,Desha County,Halley,Halley,,33.5218297,-91.3322572,,,,human,true,
Lakeport Cemetery,United States,Arkansas,Chicot County,Eminence,Eminence,,33.2362058,-91.1604463,,,,human,true,
Pleasant Grove Cemetery,United States,Arkansas,Chicot County,Decker (historical),Decker (historical),,33.4828964,-91.450198,,,,human,true,
Saint John Cemetery,United States,Arkansas,Chicot County,Jennie,Jennie,,33.2562935,-91.2940928,,,,human,true,
North Star Cemetery,United States,Arkansas,Chicot County,Scaife (historical),Scaife (historical),,33.1548752,-91.2265776,,,,human,true,
Red Leaf Cemetery,United States,Arkansas,Chicot County,Red Leaf,Red Leaf,,33.2699199,-91.2154772,,,,human,true,
Holly Grove Cemetery Number 1,United States,Arkansas,Chicot County,Gum Corner,Gum Corner,,33.1795959,-91.2860535,,,,human,true,
Coleman Cemetery,United States,Arkansas,Chicot County,Dermott,Dermott,,33.5443825,-91.4375862,,,,human,true,
Pleasant Hope Cemetery,United States,Arkansas,Chicot County,Jennie,Jennie,,33.2705917,-91.2862024,,,,human,true,
Vaden Cemetery,United States,Arkansas,Clark County,Vaden,Vaden,,33.8722351,-92.9451793,,,,human,true,
Friendship Cemetery,United States,Arkansas,Cleveland County,Friendship,Friendship,,33.9817204,-92.0298341,,,,human,true,
Liberty Hill Cemetery,United States,Arkansas,Cleveland County,Toledo,Toledo,,33.8935859,-92.1500654,,,,human,true,
Moseley Cemetery,United States,Arkansas,Cleveland County,Mason (historical),Mason (historical),,33.7609851,-92.1930291,,,,human,true,
Shady Grove Cemetery,United States,Arkansas,Cleveland County,Orlando,Orlando,,33.7277762,-92.1679974,,,,human,true,
Carter Cemetery,United States,Arkansas,Cleveland County,Scoby (historical),Scoby (historical),,33.7191646,-92.1118151,,,,human,true,
Greenwood Cemetery,United States,Arkansas,Cleveland County,Rison,Rison,,33.9448163,-92.1901792,,,,human,true,
Moores Cemetery,United States,Arkansas,Cleveland County,Unionville (historical),Unionville (historical),,33.9845544,-92.2165594,,,,human,true,
McCoy Cemetery,United States,Arkansas,Cleveland County,Tipton,Tipton,,33.7601706,-92.3007499,,,,human,true,
Union Cemetery,United States,Arkansas,Cleveland County,Rye,Rye,,33.7437859,-91.9927968,,,,human,true,
Morgan Cemetery,United States,Arkansas,Cleveland County,Tipton,Tipton,,33.7872751,-92.2809659,,,,human,true,
Saint John Cemetery,United States,Arkansas,Cleveland County,Mason (historical),Mason (historical),,33.7434118,-92.1847384,,,,human,true,
Kingsland Cemetery,United States,Arkansas,Cleveland County,Kingsland,Kingsland,,33.869106,-92.2886083,,,,human,true,
Garner Cemetery,United States,Arkansas,Cleveland County,Trigg (historical),Trigg (historical),,33.9571869,-92.4139365,,,,human,true,
Harlow Cemetery,United States,Arkansas,Cleveland County,Toledo,Toledo,,33.9110148,-92.1765684,,,,human,true,
Tolson Cemetery,United States,Arkansas,Cleveland County,Trigg (historical),Trigg (historical),,33.9471598,-92.3992245,,,,human,true,
Prosperity Cemetery,United States,Arkansas,Cleveland County,Herbine,Herbine,,33.8182212,-92.0337742,,,,human,true,
Searcy Cemetery,United States,Arkansas,Cleveland County,Annover (historical),Annover (historical),,33.7735636,-91.9928571,,,,human,true,
Varnell Cemetery,United States,Arkansas,Cleveland County,Toledo,Toledo,,33.9139865,-92.1846606,,,,human,true,
Camp Springs Cemetery,United States,Arkansas,Cleveland County,Meek (historical),Meek (historical),,33.8773502,-92.3388963,,,,human,true,
Crain Cemetery,United States,Arkansas,Cleveland County,New Edinburg,New Edinburg,,33.7585924,-92.2704303,,,,human,true,
Macedonia Cemetery,United States,Arkansas,Cleveland County,Mount Elba,Mount Elba,,33.8688788,-92.1247896,,,,human,true,
Enon Cemetery,United States,Arkansas,Cleveland County,Annover (historical),Annover (historical),,33.7607382,-91.9975638,,,,human,true,
Bethel Cemetery,United States,Arkansas,Cleveland County,New Edinburg,New Edinburg,,33.7462103,-92.2250507,,,,human,true,
New Cemetery,United States,Arkansas,Cleveland County,Rison,Rison,,33.9385824,-92.1906848,,,,human,true,
Williams Cemetery,United States,Arkansas,Dallas County,New Hope,New Hope,,33.9369902,-92.7848705,,,,human,true,
Herring Cemetery,United States,Arkansas,Dallas County,Jacinto,Jacinto,,33.9201754,-92.6254575,,,,human,true,
Taylor Cemetery,United States,Arkansas,Dallas County,Jacinto,Jacinto,,33.8977748,-92.6557356,,,,human,true,
Dedman Cemetery,United States,Arkansas,Dallas County,Forrest Bonner,Forrest Bonner,,33.8316591,-92.593727,,,,human,true,
Dixon Cemetery,United States,Arkansas,Dallas County,Ivan,Ivan,,33.8943462,-92.4610407,,,,human,true,
McDonald Cemetery,United States,Arkansas,Dallas County,Ramsey,Ramsey,,33.8612742,-92.5398528,,,,human,true,
Harmony Church Cemetery,United States,Arkansas,Dallas County,New Hope,New Hope,,33.9342754,-92.7826692,,,,human,true,
Centerpoint Cemetery,United States,Arkansas,Dallas County,Fairview,Fairview,,33.975527,-92.8846984,,,,human,true,
Bryant Cemetery,United States,Arkansas,Cleveland County,Como (historical),Como (historical),,33.8705135,-92.413164,,,,human,true,
Mount Carmel Cemetery,United States,Arkansas,Dallas County,Pine Grove,Pine Grove,,33.8827847,-92.7780484,,,,human,true,
Holeman Cemetery,United States,Arkansas,Dallas County,Fairview,Fairview,,33.9984197,-92.8434581,,,,human,true,
Tanyard Cemetery,United States,Arkansas,Dallas County,Eagletie,Eagletie,,33.9269291,-92.5935325,,,,human,true,
Benton Cemetery,United States,Arkansas,Dallas County,Eagletie,Eagletie,,33.8914184,-92.6218861,,,,human,true,
Henderson Cemetery,United States,Arkansas,Dallas County,Welchs Shop (historical),Welchs Shop (historical),,33.9898337,-92.6700593,,,,human,true,
Wheelers Cemetery,United States,Arkansas,Dallas County,Forrest Bonner,Forrest Bonner,,33.8422544,-92.579475,,,,human,true,
Liberty Cemetery,United States,Arkansas,Dallas County,Ramsey,Ramsey,,33.921991,-92.523893,,,,human,true,
Thomas Cemetery,United States,Arkansas,Dallas County,Forrest Bonner,Forrest Bonner,,33.8277103,-92.5431888,,,,human,true,
Old New Hope Cemetery,United States,Arkansas,Dallas County,New Hope,New Hope,,33.9241947,-92.7719819,,,,human,true,
Barnes Cemetery,United States,Arkansas,Dallas County,Bucksnort,Bucksnort,,33.8614724,-92.4504715,,,,human,true,
Curtis Hall Cemetery,United States,Arkansas,Desha County,Pickens,Pickens,,33.8577683,-91.5011975,,,,human,true,
Jones Cemetery,United States,Arkansas,Desha County,Pea Ridge,Pea Ridge,,33.9247447,-91.3419474,,,,human,true,
Banks Cemetery,United States,Arkansas,Desha County,Mitchellville,Mitchellville,,33.9052683,-91.5092106,,,,human,true,
Kelso Cemetery,United States,Arkansas,Desha County,Duce,Duce,,33.7825538,-91.2692119,,,,human,true,
Jerusalem Cemetery,United States,Arkansas,Desha County,Back Gate,Back Gate,,33.9377847,-91.3819948,,,,human,true,
Leach Cemetery,United States,Arkansas,Desha County,Oaklawn,Oaklawn,,33.9480187,-91.4579282,,,,human,true,
Porter Cemetery,United States,Arkansas,Desha County,Lacy (historical),Lacy (historical),,33.9241949,-91.2511968,,,,human,true,
Walnut Lake Cemetery,United States,Arkansas,Desha County,Pickens,Pickens,,33.8590436,-91.4982766,,,,human,true,
Pleasant Springs Cemetery,United States,Arkansas,Drew County,Coleman,Coleman,,33.7842626,-91.7557707,,,,human,true,
Rock Springs Cemetery,United States,Arkansas,Drew County,Rock Springs,Rock Springs,,33.7617884,-91.9061674,,,,human,true,
Taylor Cemetery,United States,Arkansas,Drew County,Selma,Selma,,33.7692682,-91.5512288,,,,human,true,
Green Mount Cemetery,United States,Arkansas,Drew County,Coleman,Coleman,,33.7745746,-91.7299095,,,,human,true,
Bethel Cemetery,United States,Arkansas,Drew County,Barkada,Barkada,,33.6755696,-91.9118102,,,,human,true,
Rose Hill Cemetery,United States,Arkansas,Drew County,Rose Hill,Rose Hill,,33.6751528,-91.7830212,,,,human,true,
Torian Cemetery,United States,Arkansas,Drew County,Barkada,Barkada,,33.676093,-91.892788,,,,human,true,
Bond Cemetery,United States,Arkansas,Drew County,Green Hill,Green Hill,,33.5764634,-91.9299902,,,,human,true,
Lawson Cemetery,United States,Arkansas,Drew County,Rose Hill,Rose Hill,,33.6592245,-91.8112126,,,,human,true,
Mount Pleasant Cemetery,United States,Arkansas,Drew County,Montongo,Montongo,,33.729287,-91.8224927,,,,human,true,
Andrews Chapel Cemetery,United States,Arkansas,Drew County,Barkada,Barkada,,33.6717939,-91.9023688,,,,human,true,
Turner Hills Cemetery,United States,Arkansas,Drew County,Wilmar,Wilmar,,33.6210242,-91.9379081,,,,human,true,
Wilmar Cemetery,United States,Arkansas,Drew County,Wilmar,Wilmar,,33.6226133,-91.9390686,,,,human,true,
Turner Hills Cemetery,United States,Arkansas,Drew County,Wilmar,Wilmar,,33.6213502,-91.9390709,,,,human,true,
Union Ridge Cemetery,United States,Arkansas,Drew County,Scrouge Out (historical),Scrouge Out (historical),,33.5775846,-91.7809318,,,,human,true,
Tillar Cemetery,United States,Arkansas,Drew County,Tillar,Tillar,,33.6943697,-91.4784028,,,,human,true,
Mount Zion Cemetery,United States,Arkansas,Drew County,Old Union (historical),Old Union (historical),,33.6893055,-91.7367679,,,,human,true,
Shady Grove Cemetery,United States,Arkansas,Drew County,Killin,Killin,,33.6461577,-91.7315711,,,,human,true,
Old Union Cemetery,United States,Arkansas,Drew County,Old Union (historical),Old Union (historical),,33.7212605,-91.6964603,,,,human,true,
Enon Cemetery,United States,Arkansas,Drew County,Enon,Enon,,33.5885548,-91.6789556,,,,human,true,
Selma Cemetery,United States,Arkansas,Drew County,Selma,Selma,,33.7046703,-91.575012,,,,human,true,
Selma Cemetery,United States,Arkansas,Drew County,Selma,Selma,,33.704291,-91.5735206,,,,human,true,
Mount Tabor Cemetery,United States,Arkansas,Drew County,Florence,Florence,,33.7302997,-91.6260141,,,,human,true,
Sixteen Section Cemetery,United States,Arkansas,Drew County,Sixteenth Section,Sixteenth Section,,33.6567286,-91.6138074,,,,human,true,
Piney Cemetery,United States,Arkansas,Drew County,Old Piney (historical),Old Piney (historical),,33.6450391,-91.6463841,,,,human,true,
Loggy Bayou Cemetery,United States,Arkansas,Drew County,Tillar,Tillar,,33.7160227,-91.4794166,,,,human,true,
Lone Sassafras Cemetery,United States,Arkansas,Drew County,Lewis,Lewis,,33.4772184,-91.7561911,,,,human,true,
Old Troy Cemetery,United States,Arkansas,Drew County,Troy (historical),Troy (historical),,33.4222336,-91.5835681,,,,human,true,
New Troy Cemetery,United States,Arkansas,Drew County,Troy (historical),Troy (historical),,33.4272251,-91.5847993,,,,human,true,
Shiloh Cemetery,United States,Arkansas,Drew County,Shiloh,Shiloh,,33.5064432,-91.9814659,,,,human,true,
Deal Cemetery,United States,Arkansas,Drew County,Ladelle,Ladelle,,33.4569836,-91.8164081,,,,human,true,
Prairie Chapel Cemetery,United States,Arkansas,Bradley County,Longview,Longview,,33.4027484,-91.9213635,,,,human,true,
Prairie Grove Cemetery,United States,Arkansas,Drew County,Prairie Grove,Prairie Grove,,33.4223439,-91.7594955,,,,human,true,
Mount Peter Cemetery,United States,Arkansas,Drew County,Negro Bend (historical),Negro Bend (historical),,33.404955,-91.9642481,,,,human,true,
Lacey Cemetery,United States,Arkansas,Drew County,Lacey,Lacey,,33.460169,-91.8534909,,,,human,true,
Beulah Cemetery,United States,Arkansas,Drew County,Beulah,Beulah,,33.4891557,-91.8536237,,,,human,true,
O'Neel Cemetery,United States,Arkansas,Lincoln County,Calhoun,Calhoun,,33.8785895,-91.7644785,,,,human,true,
Green Mount Cemetery,United States,Arkansas,Drew County,Coleman,Coleman,,33.8071955,-91.7445825,,,,human,true,
Mount Nebo Cemetery,United States,Arkansas,Lincoln County,Nebo,Nebo,,33.9988523,-91.8196474,,,,human,true,
Trinity Cemetery,United States,Arkansas,Lincoln County,Crigler,Crigler,,33.9600653,-91.7640625,,,,human,true,
Cornerville Cemetery,United States,Arkansas,Lincoln County,Cornerville,Cornerville,,33.8436769,-91.9375889,,,,human,true,
Bulter Cemetery,United States,Arkansas,Lincoln County,Calhoun,Calhoun,,33.8971041,-91.7881657,,,,human,true,
Best Cemetery,United States,Arkansas,Lincoln County,Star City,Star City,,33.945439,-91.8669778,,,,human,true,
Jones Cemetery,United States,Arkansas,Lincoln County,Branchville,Branchville,,33.9107644,-91.885149,,,,human,true,
Hickory Grove Cemetery,United States,Arkansas,Lincoln County,Rest (historical),Rest (historical),,33.8846295,-91.8962145,,,,human,true,
Tyro Cemetery,United States,Arkansas,Lincoln County,Tyro,Tyro,,33.832509,-91.7210495,,,,human,true,
Holly Springs Cemetery,United States,Arkansas,Lincoln County,Little Garnett,Little Garnett,,33.8685103,-91.8142408,,,,human,true,
Pleasant Hill Cemetery,United States,Arkansas,Ouachita County,Fairview,Fairview,,33.538988,-92.8973919,,,,human,true,
Rumph Cemetery,United States,Arkansas,Ouachita County,Velie,Velie,,33.7004535,-92.7927753,,,,human,true,
Eternal Rest Cemetery,United States,Arkansas,Ouachita County,Lester Junction,Lester Junction,,33.6068859,-92.9275292,,,,human,true,
Good Hope Cemetery,United States,Arkansas,Ouachita County,Buena Vista,Buena Vista,,33.4616917,-92.9333644,,,,human,true,
Patton Cemetery,United States,Arkansas,Ouachita County,Rendezvous,Rendezvous,,33.497234,-92.8089756,,,,human,true,
Ebenezer Cemetery,United States,Arkansas,Ouachita County,Louann,Louann,,33.4015152,-92.7724063,,,,human,true,
Jones Cemetery,United States,Arkansas,Ouachita County,Kirkland,Kirkland,,33.4385156,-92.7969445,,,,human,true,
Harmony Grove Cemetery,United States,Arkansas,Ouachita County,Vanduzer,Vanduzer,,33.6670844,-92.7741793,,,,human,true,
Elliott Cemetery,United States,Arkansas,Columbia County,Medlock,Medlock,,33.3841148,-92.985245,,,,human,true,
Mount Horeb Cemetery,United States,Arkansas,Ouachita County,Frenchport,Frenchport,,33.4707699,-92.8006956,,,,human,true,
Holly Springs Cemetery,United States,Arkansas,Dallas County,Holly Springs,Holly Springs,,33.8016414,-92.7063247,,,,human,true,
Martin Cemetery,United States,Arkansas,Ouachita County,Harmony Grove,Harmony Grove,,33.6675521,-92.7768535,,,,human,true,
Toney Cemetery,United States,Arkansas,Ouachita County,Velie,Velie,,33.6992334,-92.8238458,,,,human,true,
Hawkins Cemetery,United States,Arkansas,Ouachita County,Lester Junction,Lester Junction,,33.604122,-92.9009003,,,,human,true,
Pleasant Ridge Cemetery,United States,Arkansas,Ouachita County,Buena Vista,Buena Vista,,33.4853595,-92.9138218,,,,human,true,
Tate Cemetery,United States,Arkansas,Ouachita County,Lunet,Lunet,,33.7459816,-92.908975,,,,human,true,
Babbs Cemetery,United States,Arkansas,Union County,Carnie (historical),Carnie (historical),,33.155913,-92.9785341,,,,human,true,
Lisbon Cemetery,United States,Arkansas,Union County,Lisbon,Lisbon,,33.2717157,-92.8290747,,,,human,true,
Brown Cemetery,United States,Arkansas,Union County,Three Creeks,Three Creeks,,33.076976,-92.8668952,,,,human,true,
Fredonia Cemetery,United States,Arkansas,Union County,Shuler,Shuler,,33.1796396,-92.9018746,,,,human,true,
Yocum Cemetery,United States,Arkansas,Union County,Lisbon,Lisbon,,33.3056687,-92.8456568,,,,human,true,
Mount Zion Cemetery,United States,Arkansas,Union County,Lisbon,Lisbon,,33.2430755,-92.8395179,,,,human,true,
Silver Hill Cemetery,United States,Arkansas,Ouachita County,Pace City,Pace City,,33.3585842,-92.8760623,,,,human,true,
Union Arkansas Cemetery,United States,Arkansas,Union County,Dodge City,Dodge City,,33.0256889,-92.958823,,,,human,true,
Mount Willie Cemetery,United States,Arkansas,Union County,Trull,Trull,,33.1495108,-92.8343567,,,,human,true,
Sweet Canaan Cemetery,United States,Arkansas,Union County,Lisbon,Lisbon,,33.3177333,-92.8371053,,,,human,true,
Jolly Chapel Cemetery,United States,Arkansas,Union County,Tubal,Tubal,,33.0554213,-92.9091843,,,,human,true,
El Bethel Cemetery,United States,Arkansas,Union County,Three Creeks,Three Creeks,,33.0892933,-92.8583551,,,,human,true,
Beech Hill Cemetery,United States,Arkansas,Union County,Marysville,Marysville,,33.2573376,-92.9124331,,,,human,true,
Salem Cemetery,United States,Arkansas,Union County,Carnie (historical),Carnie (historical),,33.102125,-92.9597318,,,,human,true,
New Hope Cemetery,United States,Arkansas,Union County,New Hope,New Hope,,33.0643266,-92.9252118,,,,human,true,
Friendship Cemetery,United States,Arkansas,Union County,Cairo,Cairo,,33.1982243,-92.8717286,,,,human,true,
New Hope Cemetery,United States,Arkansas,Union County,Mount Holly,Mount Holly,,33.2976563,-92.9415009,,,,human,true,
Bethel Cemetery,United States,Arkansas,Union County,Marysville,Marysville,,33.2583273,-92.9548998,,,,human,true,
Mount Holly Cemetery,United States,Arkansas,Union County,Mount Holly,Mount Holly,,33.3003084,-92.9486234,,,,human,true,
Pleasant Grove Cemetery,United States,Arkansas,Union County,Trull,Trull,,33.1165769,-92.8188012,,,,human,true,
Bethel Cemetery,United States,Arkansas,Union County,Quinn,Quinn,,33.2943921,-92.6069757,,,,human,true,
Bethel Cemetery,United States,Arkansas,Union County,Quinn,Quinn,,33.2938618,-92.6072641,,,,human,true,
Old Union Cemetery,United States,Arkansas,Union County,Old Union,Old Union,,33.2377947,-92.5310518,,,,human,true,
Shady Grove Cemetery,United States,Arkansas,Union County,Smithville,Smithville,,33.239664,-92.5771596,,,,human,true,
Adams Cemetery,United States,Arkansas,Union County,Crain City,Crain City,,33.2890247,-92.5081229,,,,human,true,
Ebenezer Cemetery,United States,Arkansas,Union County,Ritchie,Ritchie,,33.273476,-92.5342785,,,,human,true,
Saint Paul Cemetery,United States,Arkansas,Union County,Old Union,Old Union,,33.2297472,-92.5475139,,,,human,true,
Green Grove Cemetery,United States,Arkansas,Union County,Pigeon Hill,Pigeon Hill,,33.2225848,-92.3935101,,,,human,true,
Poole Cemetery,United States,Arkansas,Union County,Careyville Landing,Careyville Landing,,33.2459558,-92.321641,,,,human,true,
Philadelphia Cemetery,United States,Arkansas,Union County,Lawson,Lawson,,33.2323329,-92.4386832,,,,human,true,
Wallace Cemetery,United States,Arkansas,Union County,New London,New London,,33.1963738,-92.3275848,,,,human,true,
Old Lapile Cemetery,United States,Arkansas,Union County,Old Lapile,Old Lapile,,33.0655808,-92.2443813,,,,human,true,
New London Cemetery,United States,Arkansas,Union County,New London,New London,,33.1886042,-92.3413445,,,,human,true,
Gill Cemetery,United States,Arkansas,Union County,Strong,Strong,,33.1408549,-92.3392906,,,,human,true,
Sweet Home Cemetery,United States,Arkansas,Union County,Union,Union,,33.0571039,-92.3387817,,,,human,true,
Urbana Cemetery,United States,Arkansas,Union County,Urbana,Urbana,,33.1506307,-92.4484411,,,,human,true,
Pilgrims Rest Cemetery,United States,Arkansas,Union County,Gardner,Gardner,,33.1027575,-92.3741714,,,,human,true,
Ward Chapel Cemetery,United States,Arkansas,Union County,Sawmill,Sawmill,,33.1376376,-92.2697395,,,,human,true,
Mount Zion Cemetery,United States,Arkansas,Union County,Lawson,Lawson,,33.1985778,-92.4449475,,,,human,true,
Pleasant Grove Cemetery,United States,Arkansas,Union County,Payne,Payne,,33.1159905,-92.4467285,,,,human,true,
Norris Cemetery,United States,Arkansas,Union County,Sandy Bend,Sandy Bend,,33.1482964,-92.3707885,,,,human,true,
Ebenezer Cemetery,United States,Arkansas,Union County,Sawmill,Sawmill,,33.1611499,-92.2806408,,,,human,true,
Teel Cemetery,United States,Arkansas,Union County,Victoria,Victoria,,33.0760405,-92.3170759,,,,human,true,
Cane Creek Cemetery,United States,Arkansas,Union County,Aurelle,Aurelle,,33.0786572,-92.4426287,,,,human,true,
Ebenezer Cemetery,United States,Arkansas,Union County,New London,New London,,33.1723132,-92.3383082,,,,human,true,
George Cemetery,United States,Arkansas,Union County,McGlendon Mill,McGlendon Mill,,33.1585193,-92.313687,,,,human,true,
Forest Hill Cemetery,United States,Arkansas,Union County,Aurelle,Aurelle,,33.0622191,-92.377268,,,,human,true,
Batts Cemetery,United States,Arkansas,Union County,Old Lapile,Old Lapile,,33.0723365,-92.2632667,,,,human,true,
Pine Grove Cemetery,United States,Arkansas,Union County,Aurelle,Aurelle,,33.0801478,-92.4036254,,,,human,true,
Smyrna Cemetery,United States,Arkansas,Union County,Smith,Smith,,33.1146865,-92.6344925,,,,human,true,
Craig Cemetery,United States,Arkansas,Union County,Pleasant Grove,Pleasant Grove,,33.1444197,-92.5620165,,,,human,true,
Bethlehem Cemetery,United States,Arkansas,Union County,Hillsboro,Hillsboro,,33.101861,-92.500728,,,,human,true,
Stamps Cemetery,United States,Arkansas,Union County,Cargile,Cargile,,33.1488916,-92.6538561,,,,human,true,
Saint Marks Cemetery,United States,Arkansas,Union County,Catesville,Catesville,,33.100519,-92.6638439,,,,human,true,
Wesley Cemetery,United States,Arkansas,Union County,Smithville,Smithville,,33.2228613,-92.5799552,,,,human,true,
Wesson Cemetery,United States,Arkansas,Union County,Wesson,Wesson,,33.1073949,-92.7644751,,,,human,true,
Rhodes Chapel Cemetery,United States,Arkansas,Union County,Lawson,Lawson,,33.2080992,-92.4698814,,,,human,true,
Free Union Cemetery,United States,Arkansas,Union County,Nick Springs,Nick Springs,,33.1611185,-92.5538868,,,,human,true,
Hillsboro Cemetery,United States,Arkansas,Union County,Hillsboro,Hillsboro,,33.1221256,-92.5017554,,,,human,true,
Caledonia Cemetery,United States,Arkansas,Union County,Caledonia,Caledonia,,33.0628103,-92.6596195,,,,human,true,
Old Parkers Chapel Cemetery,United States,Arkansas,Union County,Pickering,Pickering,,33.1468996,-92.7261114,,,,human,true,
Zion Watch Cemetery,United States,Arkansas,Union County,Smithville,Smithville,,33.2216339,-92.596729,,,,human,true,
Pleasant Hill Cemetery,United States,Arkansas,Union County,Wesson,Wesson,,33.1023907,-92.7947411,,,,human,true,
Shady Grove Cemetery,United States,Arkansas,Union County,Pickering,Pickering,,33.134984,-92.7092959,,,,human,true,
Beulah Grove Cemetery,United States,Arkansas,Union County,Parkers Chapel,Parkers Chapel,,33.1953913,-92.7135312,,,,human,true,
Parnell Cemetery,United States,Arkansas,Union County,Newell,Newell,,33.1957958,-92.7440942,,,,human,true,
Bethel Cemetery,United States,Arkansas,Union County,Cargile,Cargile,,33.1565232,-92.6260362,,,,human,true,
Ebenezer Cemetery,United States,Arkansas,Union County,Caledonia,Caledonia,,33.0513993,-92.6509345,,,,human,true,
Galilee Cemetery,United States,Arkansas,Union County,Cargile,Cargile,,33.1718718,-92.6841902,,,,human,true,
Scotland Cemetery,United States,Arkansas,Union County,Scotland,Scotland,,33.0476639,-92.7509849,,,,human,true,
Centre Point Cemetery,United States,Arkansas,Union County,Dumas City,Dumas City,,33.2199431,-92.7298156,,,,human,true,
Community Cemetery,United States,Arkansas,Union County,Junction City,Junction City,,33.0262871,-92.7219165,,,,human,true,
Harper Springs Cemetery,United States,Arkansas,Union County,Huttig,Huttig,,33.0397823,-92.2212378,,,,human,true,
Smith Cemetery,United States,Arkansas,Dallas County,Ramsey,Ramsey,,33.9218718,-92.5246899,,,,human,true,
Hughes Cemetery,United States,Arkansas,Union County,Gardner,Gardner,,33.0777579,-92.3722173,,,,human,true,
Watkins Cemetery,United States,Arkansas,Columbia County,Medlock,Medlock,,33.3831819,-92.9858875,,,,human,true,
Lindsey Cemetery,United States,Arkansas,Cleveland County,Toledo,Toledo,,33.924364,-92.1567479,,,,human,true,
Brooks Cemetery,United States,Arkansas,Bradley County,Longview,Longview,,33.3986376,-91.9416082,,,,human,true,
Reaves Cemetery,United States,AR,Cleveland County,New Edinburg,20 Reaves Cemetery Road,71660,33.7508792,-92.1609474,,,,human,true,
Newman Cemetery,United States,Arkansas,Lincoln County,Feenyville,Feenyville,,33.9581106,-91.9020387,,,,human,true,
Sanders Cemetery,United States,Arkansas,Lincoln County,Branchville,Branchville,,33.9198644,-91.9019802,,,,human,true,
Gray Cemetery,United States,Arkansas,Drew County,Carpenter,Carpenter,,33.410049,-91.8546138,,,,human,true,
Morton Cemetery,United States,Arkansas,Crawford County,Barcelona,Barcelona,,35.6495299,-94.4774384,,,,human,true,
Antioch Cemetery,United States,Arkansas,Pike County,Grandfield,Grandfield,,34.2103868,-93.9399142,,,,human,true,
Bercham Cemetery,United States,Arkansas,Franklin County,Meg,Meg,,35.405365,-93.8815877,,,,human,true,
Blakeley Cemetery,United States,Arkansas,Johnson County,Lamar,Lamar,,35.4439723,-93.3949041,,,,human,true,
Callan Cemetery,United States,Arkansas,Yell County,Bethel,Bethel,,35.2467517,-93.1921205,,,,human,true,
Callaway Cemetery,United States,Arkansas,Clark County,Hollywood,Hollywood,,34.1339865,-93.247397,,,,human,true,
Cane Creek Cemetery,United States,Arkansas,Sevier County,Cheatham,Cheatham,,34.0828899,-94.4513213,,,,human,true,
Cove Cemetery,United States,Arkansas,Pope County,Pisgah (historical),Pisgah (historical),,35.269528,-93.0676727,,,,human,true,
Cummings Cemetery,United States,Arkansas,Pike County,Kirby,Kirby,,34.2406594,-93.6685207,,,,human,true,
Davis Cemetery,United States,Arkansas,Pope County,Baker Creek (historical),Baker Creek (historical),,35.3536943,-93.1646196,,,,human,true,
Dawson Cemetery,United States,Arkansas,Howard County,Briar,Briar,,34.087889,-93.907133,,,,human,true,
Ebenezer Cemetery,United States,Arkansas,Hempstead County,North Bingen,North Bingen,,34.0012226,-93.7876824,,,,human,true,
Ebenezer Cemetery,United States,Arkansas,Clark County,Boswell,Boswell,,34.0545454,-93.3021196,,,,human,true,
Lewis Johnson Family Cemetery,United States,Arkansas,Johnson County,Garrett,Garrett,,35.4123058,-93.3587919,,,,human,true,
Hardgraves Cemetery,United States,Arkansas,Johnson County,Smeadley (historical),Smeadley (historical),,35.4878618,-93.6268565,,,,human,true,
Henry Cemetery,United States,Arkansas,Howard County,Euclid,Euclid,,34.1734437,-93.9890814,,,,human,true,
Hickey Cemetery,United States,Arkansas,Johnson County,Hagarville,Hagarville,,35.4859158,-93.3626806,,,,human,true,
Holly Creek Cemetery,United States,Arkansas,Howard County,Green Plains,Green Plains,,34.1145555,-93.9440791,,,,human,true,
Hudson Cemetery,United States,Arkansas,Yell County,Bethel,Bethel,,35.2198079,-93.2135102,,,,human,true,
Jackson Creek Cemetery,United States,Arkansas,Madison County,Venquin (historical),Venquin (historical),,35.9625776,-93.741025,,,,human,true,
Jordan Cemetery,United States,Arkansas,Clark County,Alpine,Alpine,,34.2292638,-93.3662913,,,,human,true,
Kesterson Cemetery,United States,Arkansas,Howard County,Muddy Fork,Muddy Fork,,34.1281658,-93.8971336,,,,human,true,
Kings Cemetery,United States,Arkansas,Washington County,Black Oak,Black Oak,,35.9939687,-94.0779793,,,,human,true,
Lamb Cemetery,United States,Arkansas,Pike County,Antoine,Antoine,,34.0353827,-93.458791,,,,human,true,
Lee Cemetery,United States,Arkansas,Clark County,Hearn (historical),Hearn (historical),,34.1012432,-93.1939432,,,,human,true,
Lee Cemetery,United States,Arkansas,Pike County,Anderson (historical),Anderson (historical),,34.1456576,-93.4824048,,,,human,true,
Little Cemetery,United States,Arkansas,Polk County,Rich Mountain,Rich Mountain,,34.714826,-94.3721623,,,,human,true,
Love Cemetery,United States,Arkansas,Johnson County,Garrett,Garrett,,35.4148058,-93.3690701,,,,human,true,
Macedonia Cemetery,United States,Arkansas,Johnson County,Ludwig,Ludwig,,35.4931381,-93.3801812,,,,human,true,
McGill Cemetery,United States,Arkansas,Garland County,Bonanza Springs (historical),Bonanza Springs (historical),,34.588146,-93.0774027,,,,human,true,
New Home Cemetery,United States,Arkansas,Howard County,Briar,Briar,,34.0695557,-93.8874098,,,,human,true,
Nunley Cemetery,United States,Arkansas,Yell County,Bethel,Bethel,,35.2298078,-93.2237882,,,,human,true,
Oakland Cemetery,United States,Arkansas,Yell County,Ola,Ola,,35.0245341,-93.1924003,,,,human,true,
Ozark Cemetery,United States,Arkansas,Garland County,Ozark Lithia,Ozark Lithia,,34.5934236,-93.0068443,,,,human,true,
Parks Cemetery,United States,Arkansas,Washington County,Hubbard,Hubbard,,35.8989705,-94.2907649,,,,human,true,
Peeples Cemetery,United States,Arkansas,Clark County,Smyrna,Smyrna,,34.0564909,-93.3518436,,,,human,true,
Petillo Hill Cemetery,United States,Arkansas,Yell County,Petit Jean,Petit Jean,,35.0989769,-93.1787882,,,,human,true,
