name,country,state,county,city,street_address,zip_code,latitude,longitude,email,website,phone_number,type,is_operational,description
Lone Rock Cemetery,United States,Minnesota,Pipestone County,Airlie,Airlie,,43.9775118,-96.4822485,,,,human,true,
Messiah Cemetery,United States,Minnesota,Pipestone County,Jasper,Jasper,,43.8914671,-96.51838,,,,human,true,
Oslo Cemetery,United States,Minnesota,Pipestone County,Jasper,Jasper,,43.9049852,-96.5157268,,,,human,true,
Wilson Township Cemetery,United States,Minnesota,Nobles County,Bigelow,Bigelow,,43.4511145,-95.7039913,,,,human,true,
Zion Cemetery,United States,Minnesota,Nobles County,Ellsworth,Ellsworth,,43.4324658,-95.9973665,,,,human,true,
St. Ann's Cemetery,United States,Minnesota,Murray County,Slayton,Slayton,,43.9935588,-95.7441515,,,,human,true,
Saint Catherine's Cemetery,United States,Minnesota,Rock County,Luverne,Luverne,,43.6696387,-96.2139097,,,,human,true,
Blue Mound Cemetery,United States,Minnesota,Rock County,Hardwick,Hardwick,,43.7316416,-96.1720006,,,,human,true,
Dutch Reform Church Cemetery,United States,Minnesota,Rock County,Hills,Hills,,43.5297989,-96.357297,,,,human,true,
Bethlehem Cemetery,United States,Minnesota,Rock County,Hills,Hills,,43.5297975,-96.3579136,,,,human,true,
Nerison Cemetery,United States,Minnesota,Rock County,Bruce,Bruce,,43.500489,-96.4020412,,,,human,true,
Maplewood Cemetery,United States,Minnesota,Rock County,Luverne,Luverne,,43.6545463,-96.2324514,,,,human,true,
St. Mary’s Catholic Cemetery,United States,Minnesota,Nobles County,Sungold Heights Mobile Home Park,Sungold Heights Mobile Home Park,,43.6242685,-95.5752063,,,,human,true,
Norwegian Cemetery,United States,Minnesota,Rock County,Luverne,Luverne,,43.670047,-96.2154692,,,,human,true,
Worthington Cemetery,United States,Minnesota,Nobles County,Sungold Heights Mobile Home Park,Sungold Heights Mobile Home Park,,43.6147179,-95.5755743,,,,human,true,
Jasper Cemetery,United States,Minnesota,Pipestone County,Jasper,Jasper,,43.8550407,-96.4061466,,,,human,true,
Saint Adrian Cemetery,United States,Minnesota,Nobles County,Adrian,Adrian,,43.6294558,-95.9147598,,,,human,true,
Adrian Cemetery,United States,Minnesota,Nobles County,Adrian,Adrian,,43.632015,-95.9182046,,,,human,true,
Flowerfield Cemetery,United States,Minnesota,Rock County,Hills,Hills,,43.5285805,-96.3130735,,,,human,true,
St. Joseph Cemetery,United States,MN,Pipestone County,Jasper,142 MN Highway 269,56144,43.8502448,-96.4384743,,,,human,true,
Westside Cemetery,United States,Minnesota,Rock County,Magnolia,Magnolia,,43.643904,-96.0517283,,,,human,true,
Memory Garden,United States,MN,Nobles County,Worthington,29600 County Road 35,56187,43.6321189,-95.6627583,,,,human,true,
Slayton Memorial Gardens,United States,Minnesota,Murray County,Slayton,Slayton,,43.977667,-95.7325379,,,,human,true,
Restlawn Memorial Gardens,United States,Minnesota,Rock County,Luverne,Luverne,,43.6738976,-96.2338179,,,,human,true,
Trosky Cemetery,United States,Minnesota,Pipestone County,Trosky,Trosky,,43.891631,-96.2416928,,,,human,true,
Union State Line Cemetery,United States,Minnesota,Jackson County,Petersburg,Petersburg,,43.4930215,-94.9157111,,,,human,true,
St. Mary's Cemetary,United States,Minnesota,Freeborn County,Maple Island,Maple Island,,43.7947137,-93.1537134,,,,human,true,
Red Oak Grove Cemetary,United States,Minnesota,Mower County,Corning,Corning,,43.7927595,-93.048934,,,,human,true,
Graceland Cemetery,United States,Minnesota,Freeborn County,Albert Lea,Albert Lea,,43.648653,-93.3933087,,,,human,true,
Rose Hill Cemetery,United States,Minnesota,Faribault County,Prime Village of Wells Mobile Home Park,Prime Village of Wells Mobile Home Park,,43.7472707,-93.7393685,,,,human,true,
Riverside Cemetery,United States,Minnesota,Faribault County,Hillcrest Park Mobile Home Park,Hillcrest Park Mobile Home Park,,43.631884,-94.0882944,,,,human,true,
Mount Hope Cemetery,United States,Minnesota,Watonwan County,Saint James,Saint James,,43.9637893,-94.6219075,,,,human,true,
Saint John's Lutheran Cemetery,United States,Minnesota,Martin County,Truman,Truman,,43.8631519,-94.4284679,,,,human,true,
Dunbar Memorial Cemetery,United States,Minnesota,Faribault County,Minnesota Lake,Minnesota Lake,,43.8302437,-93.7684352,,,,human,true,
St. Paul's Cemetery,United States,Minnesota,Faribault County,Minnesota Lake,Minnesota Lake,,43.8185302,-93.7770832,,,,human,true,
St. Casimir Cemetery,United States,Minnesota,Faribault County,Wells,Wells,,43.7453534,-93.7382353,,,,human,true,
Peace Cemetery,United States,Minnesota,Faribault County,Minnesota Lake,Minnesota Lake,,43.8490127,-93.8282552,,,,human,true,
Medo Lutheran Cemetery,United States,Minnesota,Blue Earth County,Pemberton,Pemberton,,43.9628566,-93.787333,,,,human,true,
First Lutheran Church Cemetery,United States,Minnesota,Waseca County,Waldorf,Waldorf,,43.9283245,-93.6983652,,,,human,true,
First Lutheran Cemetery,United States,Minnesota,Steele County,Bass Mobile Home Park,Bass Mobile Home Park,,43.8564183,-93.0146488,,,,human,true,
Walnut Lake Cemetery,United States,Minnesota,Faribault County,Brush Creek,Brush Creek,,43.7223801,-93.8270713,,,,human,true,
St. Paul's Evangelical Church Cemetery,United States,Minnesota,Waseca County,Waldorf,Waldorf,,43.8691676,-93.7271295,,,,human,true,
American Lutheran Church Cemetery,United States,Minnesota,Faribault County,Kiester,Kiester,,43.5354852,-93.7035453,,,,human,true,
Stateline Cemetery,United States,Minnesota,Freeborn County,Gordonsville,Gordonsville,,43.4874947,-93.2417152,,,,human,true,
Conger Community Cemetery,United States,Minnesota,Freeborn County,Conger,Conger,,43.6156379,-93.5186384,,,,human,true,
Our Lady of Mt. Carmel Cemetery,United States,Minnesota,Faribault County,Easton,Easton,,43.7190977,-93.923806,,,,human,true,
Dell Lutheran Cemetery,United States,Minnesota,Faribault County,Dell,Dell,,43.6252216,-93.914752,,,,human,true,
Emerald Cemetery,United States,Minnesota,Faribault County,Frost,Frost,,43.5900225,-93.9329293,,,,human,true,
Bethany Lutheran Cemetery,United States,Minnesota,Faribault County,Frost,Frost,,43.5428983,-93.9044315,,,,human,true,
St. Peter's Evangelical Lutheran Cemetery,United States,Minnesota,Faribault County,Easton,Easton,,43.7708876,-93.9071382,,,,human,true,
Lura Cemetery,United States,Minnesota,Faribault County,Easton,Easton,,43.7904156,-93.9482384,,,,human,true,
Chase Cemetery,United States,Minnesota,Blue Earth County,Mapleton,Mapleton,,43.8994215,-93.9889173,,,,human,true,
West Lutheran Cemetery,United States,Minnesota,Blue Earth County,Sterling Center,Sterling Center,,43.8408135,-94.043998,,,,human,true,
Freedom Lutheran Cemetery,United States,Minnesota,Waseca County,Alma City,Alma City,,43.9971806,-93.697123,,,,human,true,
Rice Lake Cemetery,United States,Minnesota,Faribault County,Walters,Walters,,43.6287133,-93.7276811,,,,human,true,
Jackson Lake Cemetery,United States,Minnesota,Blue Earth County,Amboy,Amboy,,43.8703742,-94.1173257,,,,human,true,
North Blue Earth Lutheran Cemetery,United States,Minnesota,Faribault County,Brush Creek,Brush Creek,,43.6300427,-93.8494992,,,,human,true,
Freeborn Cemetery,United States,Minnesota,Freeborn County,Freeborn,Freeborn,,43.7712121,-93.5647283,,,,human,true,
East Lutheran Cemetery,United States,MN,Faribault County,Delavan,42278 235th Street,56023,43.825366,-94.0165232,,,,human,true,
Immanuel Cemetery,United States,Minnesota,Faribault County,Marna,Marna,,43.6654983,-94.0074348,,,,human,true,
Immanuel United Methodist Cemetery,United States,Minnesota,Faribault County,Marna,Marna,,43.6377357,-94.0139477,,,,human,true,
Fairview Cemetery,United States,MN,Faribault County,Kiester,5015 State Highway 22,56051,43.5583582,-93.7086081,,,,human,true,
Bricelyn Cemetery,United States,Minnesota,Faribault County,Bricelyn,Bricelyn,,43.5570917,-93.8292681,,,,human,true,
Bohemian National Cemetery,United States,Minnesota,Freeborn County,Myrtle,Myrtle,,43.6152118,-93.1704088,,,,human,true,
Czech National Cemetary,United States,Minnesota,Steele County,Summit,Summit,,43.8852771,-93.1663942,,,,human,true,
Saint Paul's Lutheran Cemetery,United States,Minnesota,Freeborn County,Lerdal,Lerdal,,43.738997,-93.2485136,,,,human,true,
Fawcett Farm Cemetery,United States,Minnesota,Houston County,Newhouse,Newhouse,,43.4833023,-91.7168155,,,,human,true,
West Waterloo Ridge Cemetery,United States,Minnesota,Houston County,Bee,Bee,,43.4916371,-91.6001443,,,,human,true,
Portland Prairie Cemetery,United States,Minnesota,Houston County,Eitzen,Eitzen,,43.4944163,-91.4584725,,,,human,true,
Le Roy Lutheran Cemetery,United States,Minnesota,Mower County,Le Roy Parkside Mobile Home Park,Le Roy Parkside Mobile Home Park,,43.5215611,-92.5196052,,,,human,true,
Saint Patricks Cemetery,United States,Minnesota,Mower County,Le Roy Parkside Mobile Home Park,Le Roy Parkside Mobile Home Park,,43.5215527,-92.5214546,,,,human,true,
Le Roy Cemetery,United States,Minnesota,Mower County,Le Roy Parkside Mobile Home Park,Le Roy Parkside Mobile Home Park,,43.5215443,-92.5236461,,,,human,true,
Oakwood Cemetery,United States,Minnesota,Mower County,Mapleview,Mapleview,,43.6834625,-92.9776221,,,,human,true,
Evergreen Cemetery,United States,Minnesota,Olmsted County,Pleasant Grove,Pleasant Grove,,43.8695609,-92.3793537,,,,human,true,
Saint Bernard Cemetery,United States,Minnesota,Olmsted County,Stewartville,Stewartville,,43.8622913,-92.4942841,,,,human,true,
Woodlawn Cemetery,United States,Minnesota,Olmsted County,Stewartville,Stewartville,,43.8564106,-92.4969533,,,,human,true,
Saint Bridget's Cemetery,United States,Minnesota,Olmsted County,Simpson,Simpson,,43.9234725,-92.4344186,,,,human,true,
Oak Grove Cemetery,United States,Minnesota,Olmsted County,Eyota,Eyota,,43.9835502,-92.2585253,,,,human,true,
Holy Redeemer Cemetery,United States,Minnesota,Olmsted County,Eyota,Eyota,,43.9855056,-92.2602117,,,,human,true,
Orion Center Cemetery,United States,Minnesota,Olmsted County,Cummingsville,Cummingsville,,43.8835837,-92.2574262,,,,human,true,
Saint Mary's Cemetery,United States,Minnesota,Fillmore County,Chatfield,Chatfield,,43.8338816,-92.1757558,,,,human,true,
Chatfield Cemetery,United States,Minnesota,Fillmore County,Chatfield,Chatfield,,43.832388,-92.1702626,,,,human,true,
Saratoga Cemetery,United States,Minnesota,Winona County,Saratoga,Saratoga,,43.8867348,-92.0680335,,,,human,true,
Hillside Cemetery,United States,Minnesota,Winona County,Saint Charles,Saint Charles,,43.9731132,-92.0571872,,,,human,true,
Prospect Hill Cemetery,United States,Minnesota,Houston County,Shepardson's Park,Shepardson's Park,,43.8321886,-91.313456,,,,human,true,
Holy Cross Cemetery,United States,Minnesota,Winona County,Dakota,Dakota,,43.9097018,-91.3633997,,,,human,true,
Holy Cross Cemetery,United States,Minnesota,Winona County,Dakota,Dakota,,43.9118171,-91.3633473,,,,human,true,
Mount Hope Cemetery,United States,Minnesota,Houston County,Eitzen,Eitzen,,43.4387715,-91.4234972,,,,human,true,
Waterloo Ridge Cemetery,United States,Minnesota,Houston County,Bee,Bee,,43.4853198,-91.6003436,,,,human,true,
Wheatland Cemetery,United States,Minnesota,Houston County,Eitzen,Eitzen,,43.4937313,-91.3879319,,,,human,true,
Calvary Cemetery,United States,Minnesota,Mower County,Austin Mobile Home Park,Austin Mobile Home Park,,43.6497708,-92.982085,,,,human,true,
Crown Hill Cemetery,United States,Minnesota,Fillmore County,New Horizons Mobile Home Park,New Horizons Mobile Home Park,,43.667191,-92.0879415,,,,human,true,
United Methodist Cemetery,United States,Minnesota,Fillmore County,New Horizons Mobile Home Park,New Horizons Mobile Home Park,,43.6526621,-92.0800965,,,,human,true,
"South Fork Cemetery, section A",United States,Minnesota,Fillmore County,Choice,Choice,,43.6520301,-91.7489934,,,,human,true,
Choice Cemetery,United States,Minnesota,Fillmore County,Choice,Choice,,43.6448867,-91.7886867,,,,human,true,
East Saint Olaf Cemetery,United States,Minnesota,Olmsted County,Rock Dell,Rock Dell,,43.9331945,-92.6390383,,,,human,true,
Marion Cemetery,United States,Minnesota,Olmsted County,Marion,Marion,,43.9473593,-92.349678,,,,human,true,
Oakland Cemetery,United States,Minnesota,Winona County,Dresbach,Dresbach,,43.8869827,-91.3393723,,,,human,true,
Hiler Cemetery,United States,Minnesota,Winona County,Nodine,Nodine,,43.9117346,-91.4354728,,,,human,true,
Minnesota State Veterans Cemetary,United States,Minnesota,Fillmore County,New Horizons Mobile Home Park,New Horizons Mobile Home Park,,43.6762973,-92.0586209,,,,human,true,
"South Fork Cemetery, section B & C",United States,Minnesota,Fillmore County,Choice,Choice,,43.6532738,-91.7497377,,,,human,true,
High Forest Cemetery,United States,MN,Olmsted County,Stewartville,120th Street SW,55976,43.8474258,-92.5414279,,,,human,true,
Grand Meadow Cemetery,United States,Minnesota,Mower County,Grand Meadow,Grand Meadow,,43.70925,-92.5805077,,,,human,true,
Catholic Cemetery of Grand Meadow,United States,MN,Mower County,Grand Meadow,730th Avenue,55936,43.7255093,-92.5892026,,,,human,true,
Menard Cemetery,United States,Minnesota,Winona County,Dresbach,Dresbach,,43.8949393,-91.3455239,,,,human,true,
Evanger Lutheran Cemetery,United States,MN,Dodge County,Sargeant,33551 660th Avenue,55973,43.8416866,-92.7302703,,,,human,true,
Bear Creek Cemetery,United States,MN,Mower County,Grand Meadow,74427 265th Street,55936,43.7389195,-92.5551645,,,,human,true,
BEACH EMMONS MANFULL CEMETERY,United States,Minnesota,Winona County,New Hartford,New Hartford,,43.8489152,-91.493353,,,,human,true,
Cedar Hill Cemetery,United States,Minnesota,Fillmore County,Granger,Granger,,43.479508,-92.159198,,,,human,true,
Union Presbyterian Cemetery,United States,Minnesota,Mower County,Johnsburg,Johnsburg,,43.4795954,-92.8094382,,,,human,true,
Highland Cemetery,United States,Minnesota,Houston County,Newhouse,Newhouse,,43.4894008,-91.670237,,,,human,true,
Wykoff Cemetery,United States,Minnesota,Fillmore County,Wykoff,Wykoff,,43.6866346,-92.2700451,,,,human,true,
Forestville Cemetery,United States,Minnesota,Fillmore County,Forestville,Forestville,,43.6302691,-92.2591617,,,,human,true,
Riverside Cemetery,United States,MN,Olmsted County,Byron,County Road 3 SW,55920,43.9786521,-92.607523,,,,human,true,
Waltham Cemetery,United States,MN,Mower County,Waltham,300th Street,55982,43.7905398,-92.8685751,,,,human,true,
Greenwood Cemetery,United States,Minnesota,Mower County,Brownsdale,Brownsdale,,43.7184507,-92.8702398,,,,human,true,
Wisel Cemetery,United States,MN,Fillmore County,Tawney,Tawney,,43.631589,-91.8399458,,,,human,true,
Riceford Norwegian Cemetery,United States,Minnesota,Houston County,Riceford,Riceford,,43.5752717,-91.7293283,,,,human,true,
Oak Grove Cemetery,United States,Minnesota,Fillmore County,Bluffview Park Mobile Home Park,Bluffview Park Mobile Home Park,,43.8143745,-91.7609018,,,,human,true,
Evangelical Lutheran Cemetery,United States,Minnesota,Houston County,Brownsville,Brownsville,,43.6919173,-91.2951033,,,,human,true,
Veterans Cemetery,United States,Minnesota,Houston County,Brownsville,Brownsville,,43.6915217,-91.2927805,,,,human,true,
Rushford Lutheran Cemetery,United States,Minnesota,Fillmore County,Rushford Village,Rushford Village,,43.8083231,-91.7792298,,,,human,true,
Bush Cemetary,United States,Minnesota,Winona County,New Hartford,New Hartford,,43.9208121,-91.5046503,,,,human,true,
Pilot Mound Lutheran Cemetary,United States,Minnesota,Fillmore County,Bucksnort,Bucksnort,,43.8221254,-92.0141114,,,,human,true,
Calvary Catholic Cemetary,United States,Minnesota,Fillmore County,New Horizons Mobile Home Park,New Horizons Mobile Home Park,,43.6805568,-92.0752917,,,,human,true,
Concordia Cemetery,United States,Minnesota,Traverse County,Browns Valley,Browns Valley,,45.7031365,-96.9156951,,,,human,true,
Swedish Mission Cemetery,United States,Minnesota,Lac qui Parle County,Nassau,Nassau,,45.1068962,-96.4527155,,,,human,true,
Antelope Valley Cemetery,United States,Minnesota,Lac qui Parle County,Marietta,Marietta,,44.9556132,-96.496819,,,,human,true,
Our Saviors Lutheran Church Cemetery,United States,Minnesota,Renville County,Sacred Heart,Sacred Heart,,44.7826558,-95.3520496,,,,human,true,
Calvary Cemetery,United States,Minnesota,Traverse County,Browns Valley,Browns Valley,,45.596661,-96.8153448,,,,human,true,
Slayton Cemetery,United States,Minnesota,Murray County,Slayton,Slayton,,44.0023314,-95.7527962,,,,human,true,
Woodlawn Cemetery,United States,Minnesota,Pipestone County,Pipestone,Pipestone,,44.0175617,-96.3324716,,,,human,true,
Saint Leo Cemetery,United States,Minnesota,Pipestone County,Pipestone,Pipestone,,44.015347,-96.3369395,,,,human,true,
Bethany Lutheran Cemetary,United States,Minnesota,Redwood County,Wabasso,Wabasso,,44.4064081,-95.248437,,,,human,true,
Our Lady of Victory Catholic Cemetery,United States,Minnesota,Redwood County,Lucan,Lucan,,44.4131464,-95.405095,,,,human,true,
Finnish Cemetery,United States,Minnesota,Douglas County,Holmes City,Holmes City,,45.8616442,-95.6045682,,,,human,true,
Saint Paul's Cemetery,United States,Minnesota,Douglas County,Holmes City,Holmes City,,45.860599,-95.5875713,,,,human,true,
Cloverleaf Memorial Park,United States,Minnesota,Kandiyohi County,Willmar,3003 8th Avenue NE,56201,45.1279948,-95.0005471,,,,human,true,
Fairview Cemetery,United States,Minnesota,Renville County,Renville,Renville,,44.8013633,-95.2053353,,,,human,true,
Ebenezer Presbyterian Cemetery,United States,Minnesota,Renville County,Renville,Renville,,44.8402817,-95.2229498,,,,human,true,
Mound Cemetery,United States,Minnesota,Big Stone County,Ortonville,Ortonville,,45.3135893,-96.4354016,,,,human,true,
Saint Malachy Cemetery,United States,Minnesota,Swift County,Clontarf,Clontarf,,45.3775544,-95.686963,,,,human,true,
Hendricks Cemetery,United States,Minnesota,Lincoln County,Hendricks,Hendricks,,44.4984893,-96.4256558,,https://www.findagrave.com/cgi-bin/fg.cgi?page=cr&CRid=82483,,human,true,
Roseland Cemetery,United States,Minnesota,Kandiyohi County,Roseland,Roseland,,44.9358442,-95.1037666,,,,human,true,
Oak Knoll Cemetery (Willmar State Hospital Cemetery),United States,Minnesota,Kandiyohi County,Willmar,Willmar,,45.1594571,-95.0210486,,,,human,true,
Calvary Catholic Cemetery,United States,Minnesota,Lyon County,Village Park,905,,44.4380893,-95.7737762,,,,human,true,
Vinger Cemetery,United States,Minnesota,Stevens County,Donnelly,Donnelly,,45.700858,-96.0056302,,,,human,true,
Saint Theresia Cemetery,United States,Minnesota,Stevens County,Donnelly,Donnelly,,45.6950589,-96.005251,,,,human,true,
Olivia Cemetery,United States,Minnesota,Renville,Olivia,Olivia,,44.7732244,-95.0071151,,,,human,true,
Calvary Cemetery,United States,Minnesota,Pope County,Glenwood,Glenwood,,45.6346943,-95.3810251,,,,human,true,
Glenwood Cemetery,United States,Minnesota,Pope County,Glenwood,Glenwood,,45.6364739,-95.3818296,,,,human,true,
St. Michael's Cemetery,United States,Minnesota,Redwood County,Milroy,Milroy,,44.3999006,-95.5544901,,,,human,true,
Calvary Lutheran Cemetery,United States,Minnesota,Lincoln County,Hendricks,Hendricks,,44.5085402,-96.4050967,,,,human,true,
Bethel Community Cemetery,United States,Minnesota,Lyon County,Garvin,Garvin,,44.2538693,-95.7341105,,,,human,true,
Arco City Cemetery,United States,Minnesota,Lincoln County,Arco,Arco,,44.386259,-96.1908801,,,,human,true,
Pilot Knob Cemetery,United States,Minnesota,Lincoln County,Arco,Arco,,44.4549039,-96.1512521,,,,human,true,
St. Anne's Cemetery,United States,Minnesota,Redwood County,Wabasso,Wabasso,,44.3908653,-95.2480468,,,,human,true,
Marshall City Cemetery,United States,Minnesota,Lyon County,Garvin Park,Garvin Park,,44.4549014,-95.7737263,,,,human,true,
Hillside Cemetery,United States,Minnesota,Swift County,Kerkhoven,Kerkhoven,,45.1863716,-95.3093673,,,,human,true,
Calvary,United States,Minnesota,Douglas County,Osakis,Osakis,,45.8679104,-95.1803216,,,,human,true,
Artichoke Lake Baptist Cemetery,United States,Minnesota,Big Stone County,Artichoke,Artichoke,,45.3988493,-96.1594548,,,,human,true,
Christ Lutheran Church Cemetery,United States,Minnesota,Lyon County,Lindsay Mobile Home Court,Lindsay Mobile Home Court,,44.6043539,-95.6862669,,,,human,true,
Van Loon Cemetery,United States,Minnesota,Douglas County,Holmes City,Holmes City,,45.7921217,-95.5334235,,,,human,true,
Hanley Falls Lutheran Cemetery,United States,Minnesota,Yellow Medicine County,Hanley Falls,Hanley Falls,,44.6887614,-95.6136498,,,,human,true,
Christian Reform Church Cemetery,United States,Minnesota,Chippewa County,Bunde,Bunde,,44.9354821,-95.3082579,,,,human,true,
Ben Wade Cemetery,United States,Minnesota,Pope County,Farwell,Farwell,,45.7302309,-95.6028352,,,,human,true,
Bohemian Cemetery,United States,Minnesota,Lincoln County,Hendricks,Hendricks,,44.6234167,-96.3781923,,,,human,true,
Shaokatan Cemetery,United States,Minnesota,Lincoln County,Ivanhoe,Ivanhoe,,44.4012642,-96.3243188,,,,human,true,
Bethlehem Cemetery,United States,Minnesota,Yellow Medicine County,Burr,Burr,,44.7766127,-96.3145158,,,,human,true,
Fryksande Cemetery,United States,Minnesota,Douglas County,Evansville,Evansville,,45.9065652,-95.7184013,,,,human,true,
Zion Cemetery,United States,Minnesota,Grant County,Erdahl,Erdahl,,45.933976,-95.7565331,,,,human,true,
Eids Cemetery,United States,Minnesota,Big Stone County,Odessa,Odessa,,45.3521944,-96.2820465,,,,human,true,
West Elim Cemetery,United States,Minnesota,Lincoln County,Ivanhoe,Ivanhoe,,44.4482635,-96.3015366,,,,human,true,
East Elim Cemetery,United States,Minnesota,Lincoln County,Ivanhoe,Ivanhoe,,44.4440614,-96.2827941,,,,human,true,
Johns Cantius Cemetery,United States,Minnesota,Lincoln County,Wilno,Wilno,,44.5043923,-96.2434894,,,,human,true,
Calvary Cemetery,United States,Minnesota,Redwood County,Walnut Grove,Walnut Grove,,44.2312092,-95.4734155,,,,human,true,
Saint Joseph Cemetery,United States,Minnesota,Chippewa County,Montevideo,Montevideo,,44.9338957,-95.7102809,,,,human,true,
Bellingham Cemetery,United States,Minnesota,Lac qui Parle County,Bellingham,Bellingham,,45.1385947,-96.2784357,,,,human,true,
Trinity Cemetery,United States,Minnesota,Yellow Medicine County,Canby,Canby,,44.6601337,-96.3066453,,,,human,true,
St Stephens Cemetery,United States,Minnesota,Yellow Medicine County,Canby,Canby,,44.6966855,-96.2659986,,,,human,true,
Saint Joseph Cemetery,United States,Minnesota,Redwood County,Clements,Clements,,44.3767879,-95.0617048,,,,human,true,
Bethlehem Cemetery,United States,Minnesota,Redwood County,Clements,Clements,,44.3761636,-95.0616984,,,,human,true,
Amiret Cemetery,United States,Minnesota,Lyon County,Amiret,Amiret,,44.3117766,-95.7093364,,,,human,true,
St. Mary's Cemetery,United States,Minnesota,Redwood County,Seaforth,Seaforth,,44.4796548,-95.3377934,,,,human,true,
Saint Pauls Cemetery,United States,Minnesota,Redwood County,Seaforth,Seaforth,,44.4726522,-95.3211612,,,,human,true,
Minnesota State Veteran's Cemetery,United States,Minnesota,Renville County,Beaver Falls,Beaver Falls,,44.5382062,-95.0509673,,https://mn.gov/mdva/memorials/stateveteranscemeteries/minnesota-state-veterans-cemetery-redwood-falls.jsp,,human,true,
Saint Peter's Catholic Cemetery,United States,Minnesota,Traverse County,Dumont,Dumont,,45.7164281,-96.4207291,,,,human,true,
Saint John's Lutheran Church Cemetery,United States,Minnesota,Traverse County,Dumont,Dumont,,45.7150642,-96.4206985,,,,human,true,
Geneva Cemetery,United States,Minnesota,Douglas County,Hiview Park,Hiview Park,,45.9152445,-95.3265091,,,,human,true,
Garfield Cemetery,United States,Minnesota,Lac qui Parle County,Madison,Madison,,44.9222217,-96.2440682,,,,human,true,
Hamlin Cemetery,United States,Minnesota,Lac qui Parle County,Madison,Madison,,44.9643984,-96.2156079,,,,human,true,
St Johns Cemetery,United States,Minnesota,Lac qui Parle County,Providence,Providence,,44.8152797,-96.1951297,,,,human,true,
Nicolai Cemetery,United States,Minnesota,Lac qui Parle County,Providence,Providence,,44.7607781,-96.1848315,,,,human,true,
Wergeland Cemetery,United States,Minnesota,Yellow Medicine County,Porter,Porter,,44.6602975,-96.1461611,,,,human,true,
Porter Cemetery,United States,Minnesota,Yellow Medicine County,Porter,Porter,,44.6158787,-96.1753511,,,,human,true,
Alta Vista Cemetery,United States,Minnesota,Yellow Medicine County,Porter,Porter,,44.5575231,-96.1533472,,,,human,true,
Danebod Cemetery,United States,Minnesota,Lincoln County,Tyler,Tyler,,44.2687188,-96.1403261,,,,human,true,
Holland Township Cemetery,United States,Minnesota,Kandiyohi County,Prinsburg,Prinsburg,,44.9135402,-95.1771082,,https://www.hollandtownshipmn.org/cemetery,,human,true,
Our Savior Cemetery,United States,MN,Redwood County,Milroy,12535 260th Street,56263,44.4287914,-95.5420935,,,,human,true,
Saint Clotilde Cemetery,United States,Minnesota,Lyon County,Green Valley,Green Valley,,44.5152698,-95.7452033,,,,human,true,
Hillcrest Cemetery,United States,Minnesota,Yellow Medicine County,Valley Courts,Valley Courts,,44.7931827,-95.5587152,,,,human,true,
Minnewaska Cemetery,United States,Minnesota,Pope County,Starbuck,Starbuck,,45.6141727,-95.5436579,,,,human,true,
Burbank Cemetery,United States,Minnesota,Kandiyohi County,New London,New London,,45.3433484,-95.00844,,,,human,true,
St. Mathias Catholic Cemetery,United States,Minnesota,Redwood County,Wanda,Wanda,,44.3103071,-95.1681449,,,,human,true,
Saint Pauls Lutheran Cemetery,United States,Minnesota,Lyon County,Kesteloot's Trailer Court,Kesteloot's Trailer Court,,44.5474054,-95.9921826,,,,human,true,
Yellowbank Emmanuel Lutheran Cemetery,United States,Minnesota,Big Stone County,Odessa,Odessa,,45.2228871,-96.3588327,,,,human,true,
Yellow Bank Emmanuel Evangelical Cemetery,United States,Minnesota,Big Stone County,Odessa,Odessa,,45.2264512,-96.3604461,,,,human,true,
Louisberg Cemetery,United States,Minnesota,Lac qui Parle County,Louisburg,Louisburg,,45.1653745,-96.1766373,,,,human,true,
Trinity Cemetery,United States,Minnesota,Lac qui Parle County,Boyd,Boyd,,44.8495885,-95.90843,,,,human,true,
Ten Mile Lake Cemetery,United States,Minnesota,Lac qui Parle County,Boyd,Boyd,,44.8411296,-95.9401881,,,,human,true,
Borgund Cemetery,United States,Minnesota,Lac qui Parle County,Cerro Gordo,Cerro Gordo,,45.0380445,-96.0928421,,,,human,true,
Lake Emily Cemetery (historical),United States,Minnesota,Nicollet County,Green Valley Mobile Home Park,Green Valley Mobile Home Park,,44.3138889,-93.9216667,,,,human,true,
Middle Creek Historic Cemetery,United States,Minnesota,Dakota County,Farmington,Farmington,,44.6522979,-93.1626748,,,,human,true,
Saint Mary's Cemetery,United States,Minnesota,Hennepin County,South Minneapolis,South Minneapolis,,44.9215219,-93.2587685,,https://www.catholic-cemeteries.org,+1 651 488 8866,human,true,
Lakewood Cemetery,United States,Minnesota,Hennepin County,Calhoun Beach,Calhoun Beach,,44.933644,-93.3010987,,,,human,true,
Fort Snelling National Cemetery,United States,Minnesota,Dakota County,Nicols,Nicols,,44.869743,-93.2125422,,https://www.cem.va.gov/cems/nchp/FtSnelling.asp,,human,true,
Crystal Lake Cemetery,United States,Minnesota,Hennepin County,Robbinsdale,Robbinsdale,,45.0276593,-93.3032574,,,,human,true,
Pioneers and Soldiers Cemetery,United States,Minnesota,Hennepin County,Phillips,2945 Cedar Avenue South,55407,44.9499338,-93.2448566,,http://www.friendsofthecemetery.org/,,human,true,
Temple Israel Memorial Park,United States,MN,Hennepin County,Minneapolis,4153 3rd Avenue South,55409,44.9275955,-93.2714452,,https://templeisrael.com/pages/temple-israel-memorial-park,+1-612-377-8680,human,true,
Temple of Aaron Cemetery,United States,Minnesota,Ramsey County,Roseville,Roseville,,44.9927497,-93.1247259,,,,human,true,
Elmhurst Cemetery,United States,Minnesota,Ramsey County,Roseville,1510 Dale Street North,,44.9890513,-93.122387,,https://elmhurstcemetery.org,,human,true,
Calvary Cemetery,United States,Minnesota,Ramsey County,Falcon Heights,753 Front Avenue,,44.9681154,-93.135226,,https://catholic-cemeteries.org/calvary/,,human,true,
Forest Lawn Memorial Park,United States,Minnesota,Ramsey County,Gloster,Gloster,,44.9969199,-93.0733303,,,,human,true,
St. Anthony Cemetery,United States,Minnesota,Anoka County,Columbia Heights,Columbia Heights,,45.0177891,-93.2500299,,,,human,true,
Calvary Cemetary,United States,Minnesota,Rice County,Northfield,Northfield,,44.4537603,-93.1396629,,,,human,true,
Resurrection Cemetery,United States,Minnesota,Dakota County,Mendota,2101 Lexington Avenue South,,44.8762282,-93.1533155,,https://catholic-cemeteries.org/resurrection/,,human,true,
Adath Chesed Shel Emes Cemetery,United States,MN,Hennepin County,Crystal,3700 Winnetka Avenue North,55427,45.0246142,-93.3775916,,,,human,true,
Oak Hill Cemetery,United States,Minnesota,Hennepin County,Richfield,5901 Lyndale Avenue South,,44.8952886,-93.2864474,,,,human,true,
Hillside Cemetery,United States,Minnesota,Hennepin County,Saint Anthony,Saint Anthony,,45.0067249,-93.2202147,,,,human,true,
Sunset Memorial Park Cemetery,United States,Minnesota,Hennepin County,Saint Anthony,Saint Anthony,,45.0129512,-93.217357,,,,human,true,
Adath Yeshurun Cemetery,United States,Minnesota,Hennepin County,Edina,Edina,,44.9017582,-93.3276657,,,,human,true,
Calvary Catholic Cemetery of Shakopee,United States,Minnesota,Scott County,Valley Haven Mobile Home Park,Valley Haven Mobile Home Park,,44.7837058,-93.4844173,,,,human,true,
Shakopee Catholic Cemetery,United States,Minnesota,Scott County,Shakopee,Shakopee,,44.7867794,-93.5362533,,https://ssjacs.org/cemeteries,,human,true,
Acacia Park Cemetery,United States,Minnesota,Dakota County,Mendota,Mendota,,44.8787508,-93.1702945,,,,human,true,
St John's Cemetery,United States,Minnesota,Stearns County,Collegeville,Collegeville,,45.5759889,-94.3960361,,,,human,true,
St. Fridolin Cemetery,United States,Minnesota,Hennepin County,Champlin,Champlin,,45.1670694,-93.4215265,,,,human,true,
Mound Cemetery,United States,Minnesota,Hennepin County,Brooklyn Center,Brooklyn Center,,45.078756,-93.3264367,,,,human,true,
Saint Vincent De Paul Cemetery,United States,MN,Hennepin County,Osseo,Osseo,55369,45.1215244,-93.3913243,,,,human,true,
Dawn Valley Memorial Park,United States,Minnesota,Hennepin County,Bloomington Ferry,Bloomington Ferry,,44.8239985,-93.3813078,,,,human,true,
Fort Ridgely State Cemetery,United States,Minnesota,Renville County,Countryview Estates,Countryview Estates,,44.4518138,-94.7298147,,,,human,true,
Vang Lutheran Cemetery,United States,Minnesota,Goodhue County,Wangs,Wangs,,44.3567092,-92.9991862,,,,human,true,
Calvary Cemetery,United States,Minnesota,Le Sueur County,Waterville,Waterville,,44.2145981,-93.5453474,,,,human,true,
Roselawn Cemetery,United States,Minnesota,Ramsey County,Roseville,Roseville,,44.995737,-93.1353556,,,,human,true,
Valley Cemetery,United States,Minnesota,Scott County,Valley Haven Mobile Home Park,Valley Haven Mobile Home Park,,44.7966141,-93.4977564,,,,human,true,
Bethlehem Lutheran Cemetery,United States,Minnesota,Watonwan County,Darfur,Darfur,,44.0505354,-94.8574178,,,,human,true,
Saint Marys Russian Orthodox Cemetery,United States,MN,Hennepin County,St. Anthony,3021 Stinson Boulevard,55418,45.0235103,-93.2249587,,https://www.stmarysoca.org/;http://www.findagrave.com/cgi-bin/fg.cgi?page=cr&CRid=83423;,,human,true,
Bird Island Cemetery,United States,MN,Renville,Bird Island,Bird Island,,44.7594857,-94.9089745,,,,human,true,
Saint Pauls Lutheran Church Cemetery,United States,Minnesota,McLeod County,Remus Trailer Lots,Remus Trailer Lots,,44.7220983,-94.479029,,,,human,true,
St. John the Baptist Catholic Cemetery,United States,Minnesota,Scott County,Savage,Savage,,44.7645341,-93.3256942,,,,human,true,
All Saints Cemetary,United States,Minnesota,Dakota County,Lakeville,Lakeville,,44.6402897,-93.2438135,,,,human,true,
Calvary Cemetery,United States,Minnesota,Rice County,Faribault,Faribault,,44.2857898,-93.3129423,,,,human,true,
Meadow Ridge Memorial Park,United States,Minnesota,Rice County,Faribault,Faribault,,44.2712093,-93.2704657,,,,human,true,
St. Peter Cemetery,United States,Minnesota,Morrison County,Swanville,Swanville,,45.9044339,-94.6598368,,,,human,true,
Calvary Cemetery,United States,Minnesota,Stearns County,Saint Cloud,Saint Cloud,,45.5349163,-94.1760785,,,,human,true,
North Star Semetery,United States,Minnesota,Stearns County,Saint Cloud,Saint Cloud,,45.5392641,-94.1803793,,,,human,true,
East Swanville Cemetery,United States,Minnesota,Morrison County,Upsala,Upsala,,45.868738,-94.5822444,,,,human,true,
Saint Joseph Cemetary,United States,MN,Dakota County,Rosemount,14208–14246 Robert Trail South,55068,44.7439339,-93.1258208,,,,human,true,
Saint Paul's Lutheran Cemetery,United States,Minnesota,Brown County,Traulich Estates,Traulich Estates,,44.3325057,-94.4895011,,,,human,true,
Pleasant View / Garden of Eden Memorial Gardens,United States,Minnesota,Dakota County,Burnsville,Burnsville,,44.7819461,-93.2714687,,,,human,true,
Bloomington Cemetery,United States,Minnesota,Hennepin County,Oxboro,Oxboro,,44.8165259,-93.2897585,,,,human,true,
Riverview Cemetery Office,United States,Minnesota,Dakota County,West Saint Paul,West Saint Paul,,44.9204086,-93.0689833,,,,human,true,
Calvary Catholic Cemetery,United States,Minnesota,Washington County,Forest Lake,Forest Lake,,45.2872595,-93.0106156,,,,human,true,
Northfield Cemetery,United States,Minnesota,Rice County,Northfield,Northfield,,44.4445408,-93.1593072,,,,human,true,
Sacred Heart Cemetery,United States,Minnesota,Steele County,Owatonna,Owatonna,,44.0625045,-93.2279275,,,,human,true,
Riverside Cemetery,United States,Minnesota,Rice County,Morristown,Morristown,,44.2264516,-93.4356722,,,,human,true,
Sakatah Cemetery,United States,Minnesota,Le Sueur County,Waterville,Waterville,,44.2108416,-93.5514429,,,,human,true,
Resurrection Cemetery,United States,Minnesota,Steele County,Medford,Medford,,44.1673514,-93.2611543,,,,human,true,
Mount Zion Cemetery,United States,Minnesota,Ramsey County,Gloster,Gloster,,44.9928723,-93.0724168,,,,human,true,
Saints Peter-Paul Catholic Church,United States,Minnesota,Benton County,Gilman,Gilman,,45.7360231,-93.9439675,,,,human,true,
Saint Mary Cemetery,United States,Minnesota,Todd County,Long Prairie,Long Prairie,,45.9789179,-94.8530482,,,,human,true,
Sacred Heart Polish National Cemtery,United States,Minnesota,Anoka County,Hilltop,Hilltop,,45.0668563,-93.2597274,,,,human,true,
Grand-View Park Cemetery,United States,Minnesota,Hennepin County,Minnetonka Mills,Minnetonka Mills,,44.9158736,-93.3965599,,,,human,true,
Shady Oak Lake Cemetery,United States,Minnesota,Hennepin County,Rowland,Rowland,,44.9010733,-93.4262168,,,,human,true,
Pleasant Hill Cemetery,United States,Minnesota,Hennepin County,Rowland,Rowland,,44.8304048,-93.4343327,,,,human,true,
Pine Bend Cemetery,United States,Minnesota,Dakota County,Pine Bend,Pine Bend,,44.7712236,-93.033737,,,,human,true,
Union Cemetery,United States,Minnesota,Ramsey County,Lake Shore Park,Lake Shore Park,,45.0786985,-93.0184151,,,,human,true,
Union Cemetery,United States,Minnesota,Ramsey County,Lake Shore Park,Lake Shore Park,,45.0777534,-93.0185579,,,,human,true,
Janesville Cemetery,United States,Minnesota,Waseca County,Janesville,Janesville,,44.113943,-93.6945132,,,,human,true,
St. Anthony Township Cemetery,United States,Minnesota,Hennepin County,Saint Anthony,Saint Anthony,,45.0217185,-93.2265523,,http://www.findagrave.com/cgi-bin/fg.cgi?page=cr&CRid=2190307,,human,true,
Mount Olivet Cemetery,United States,Minnesota,Hennepin County,Mission Farms,Mission Farms,,45.0295647,-93.4364168,,,,human,true,
Highland Cemetery,United States,Minnesota,Dakota County,Apple Valley,Apple Valley,,44.713471,-93.1752764,,https://www.stjosephcommunity.org/about/cemetery/,+1 651 423 4402,human,true,
Lebanon Cemetery,United States,Minnesota,Dakota County,Apple Valley,Apple Valley,,44.7309795,-93.1748488,,https://www.applevalleymn.gov/291/Lebanon-Cemetery,+1 952 953 2400,human,true,
Church of Saint Peter Cemetery,United States,Minnesota,Dakota County,Mendota,Mendota,,44.8843437,-93.1668745,,,,human,true,
Saint John's Lutheran Church of Rich Valley Cemetary,United States,MN,Dakota County,Rosemount,14385 Blaine Avenue,55068,44.7394897,-93.0552678,,,,human,true,
Chesed Shel Emes Cemetery,United States,Minnesota,Ramsey County,Gladstone,Gladstone,,44.9909183,-93.0316477,,,,human,true,
Rice Lake Cemetery,United States,Minnesota,Isanti County,Andree,Andree,,45.7283669,-93.2177001,,,,human,true,
Forest Hill Cemetery,United States,Minnesota,Hennepin County,Champlin,Champlin,,45.2050935,-93.4048955,,,,human,true,
St Paulus Cemetery,United States,Minnesota,Dakota County,South Saint Paul,South Saint Paul,,44.8916612,-93.0519053,,,,human,true,
Oakhill Cemetery,United States,Minnesota,Dakota County,South Saint Paul,South Saint Paul,,44.8925769,-93.0538428,,,,human,true,
Winsted Cemetery,United States,Minnesota,McLeod County,Winsted,Winsted,,44.9674639,-94.0519533,,,,human,true,
Holy Trinity Cemetery,United States,Minnesota,McLeod County,Winsted,Winsted,,44.9670469,-94.0515614,,,,human,true,
Rocky Run Cemetery,United States,Minnesota,McLeod County,Sherman,Sherman,,44.924987,-94.1029731,,,,human,true,
Calvary Cemetery,United States,Minnesota,Blue Earth County,High Ciara Mobile Home Park,High Ciara Mobile Home Park,,44.1759478,-93.9768575,,,,human,true,
B'nai Emet Cemetery,United States,Minnesota,Hennepin County,Richfield,Richfield,,44.8732695,-93.3111814,,,,human,true,
Gemelus Chesed Cemetery,United States,Minnesota,Hennepin County,Richfield,Richfield,,44.8738212,-93.3102871,,,,human,true,
Minneapolis Jewish Cemetery,United States,Minnesota,Hennepin County,Richfield,Richfield,,44.8747013,-93.3102841,,,,human,true,
United Hebrew Brotherhood Cemetery,United States,Minnesota,Hennepin County,Richfield,Richfield,,44.8745485,-93.3131959,,,,human,true,
St. Anne's Cemetery,United States,Minnesota,Le Sueur County,Kingsway Estates,Kingsway Estates,,44.4854638,-93.8924844,,,,human,true,
Maple Lawn Cemetery,United States,Minnesota,Rice County,Faribault,Faribault,,44.2886655,-93.29788,,http://maplelawncemetery.com,,human,true,
Union Cemetery,United States,Minnesota,Dakota County,Inver Grove Heights,Inver Grove Heights,,44.8621832,-93.025966,,,,human,true,
Greenwood Cemetery,United States,Minnesota,Dakota County,Lakeville,Lakeville,,44.6238507,-93.2301272,,,,human,true,
Saint Paul Cemetery,United States,Minnesota,Nicollet County,Nicollet,Nicollet,,44.2580235,-94.1896958,,,,human,true,
New Ulm City Cemetery,United States,Minnesota,Brown County,Traulich Estates,Traulich Estates,,44.3327126,-94.4863546,,,,human,true,
New Ulm Catholic Cemetery,United States,Minnesota,Brown County,Traulich Estates,Traulich Estates,,44.3304362,-94.4873672,,,,human,true,
Saint Mary's Cemetery,United States,Minnesota,Brown County,Sleepy Eye,Sleepy Eye,,44.3064974,-94.7201902,,,,human,true,
Home Cemetery,United States,Minnesota,Brown County,Sleepy Eye,Sleepy Eye,,44.3052145,-94.7117121,,,,human,true,
St. Michael Cemetery,United States,Minnesota,Wright County,Saint Michael,Saint Michael,,45.2115644,-93.6652347,,,,human,true,
Glendale Cemetery,United States,Minnesota,Scott County,Glendale,Glendale,,44.7604293,-93.3885112,,,,human,true,
Glen Haven Memorial Gardens,United States,Minnesota,Hennepin County,Crystal,Crystal,,45.0447623,-93.3575971,,,,human,true,
Assumption Cemetery,United States,Minnesota,Hennepin County,New Hope,New Hope,,45.0367612,-93.3854374,,,,human,true,
Spring Hill Cemetary,United States,Minnesota,Scott County,Jordan,Jordan,,44.6643537,-93.6365426,,,,human,true,
Calvary Cemetery,United States,Minnesota,Le Sueur County,Montgomery,Montgomery,,44.4440246,-93.5834191,,,,human,true,
St. Mary's Catholic Cemetery,United States,Minnesota,Brown County,Sleepy Eye,Sleepy Eye,,44.3064015,-94.7202403,,,,human,true,
Riverside Cemetery,United States,Minnesota,Watonwan County,Madelia,Madelia,,44.0463453,-94.4056987,,,,human,true,
St Paul's Lutheran Cemetary,United States,Minnesota,Scott County,Prior Lake,Prior Lake,,44.7165789,-93.4105268,,,,human,true,
Lakeville Grove Cemetery,United States,Minnesota,Dakota County,Lakeville,Lakeville,,44.6528731,-93.2374078,,,,human,true,
Peace Lutheran Cemetery,United States,Minnesota,Meeker County,Cosmos Mobile Home Park,Cosmos Mobile Home Park,,44.9353426,-94.689062,,,,human,true,
Lake Lillian Cemetery,United States,Minnesota,Kandiyohi County,Lake Lillian,Lake Lillian,,44.9364916,-94.8807434,,,,human,true,
Champlin Cemetary,United States,Minnesota,Hennepin County,Champlin,Champlin,,45.1856856,-93.4030777,,,,human,true,
Greenhill Cemetery,United States,Minnesota,Nicollet County,Summit Mobile Home Park,Summit Mobile Home Park,,44.3397583,-93.9687012,,,,human,true,
Calvary Cemetery,United States,Minnesota,Nicollet County,Saint Peter,Saint Peter,,44.3302526,-93.9708918,,,,human,true,
Saint Martin Cemetery,United States,Minnesota,Hennepin County,Rogers,Rogers,,45.2035289,-93.5516198,,,,human,true,
Children's Monument,United States,Minnesota,Steele County,Owatonna,Owatonna,,44.0881991,-93.2423169,,,,human,true,
Witch's Grave,United States,Minnesota,Blue Earth County,Rapidan,Rapidan,,44.0949094,-94.032444,,,,human,true,
St. John Lutheran Cemetery,United States,Minnesota,Kandiyohi County,Atwater,Atwater,,45.1769717,-94.7709685,,,,human,true,
Columbus Cemetery,United States,Minnesota,Anoka County,Columbus,Columbus,,45.2862005,-93.0341149,,,,human,true,
St. Peter and Paul Cemetery,United States,Minnesota,Stearns County,Richmond,Richmond,,45.4568437,-94.5226872,,,,human,true,
Saint Mary's Cemetery,United States,Minnesota,Mille Lacs County,Milaca,Milaca,,45.7592667,-93.6299695,,,,human,true,
Resurrection Cemetery,United States,Minnesota,Nicollet County,Mar Wey Mobile Home Park,Mar Wey Mobile Home Park,,44.313114,-93.9881494,,,,human,true,
Kasota Hill Cemetery,United States,Minnesota,Le Sueur County,Kasota,Kasota,,44.284048,-93.9643537,,,,human,true,
St. Brendan's Catholic Cemetery,United States,Minnesota,Sibley County,Green Isle,Green Isle,,44.6791158,-94.0034161,,,,human,true,
St. John's Lutheran Cemetery,United States,Minnesota,Watonwan County,Darfur,Darfur,,44.0506897,-94.8451955,,,,human,true,
Calvary Cemetery,United States,Minnesota,Meeker County,Litchfield Mobile Home Park,Litchfield Mobile Home Park,,45.1316393,-94.5137979,,,,human,true,
Union Cemetery,United States,Minnesota,Isanti County,Pine Village Mobile Home Park,Pine Village Mobile Home Park,,45.559579,-93.2247347,,,,human,true,
Oak Knoll Cemetery,United States,Minnesota,Mille Lacs County,Princeton,511 13th Avenue North,55371,45.5754894,-93.5941735,,,,human,true,
Lake Ripley Cemetery,United States,Minnesota,Meeker County,Litchfield Mobile Home Park,Litchfield Mobile Home Park,,45.1090889,-94.5252054,,,,human,true,
Golden Valley Public Cemetery,United States,Minnesota,Hennepin County,New Hope,New Hope,,45.0068879,-93.3807173,,,,human,true,
Evergreen Cemetery,United States,Minnesota,Dakota County,Orchard Garden,Orchard Garden,,44.7165969,-93.2979283,,,,human,true,
Woodlawn Cemetery,United States,Minnesota,Nicollet County,Green Valley Mobile Home Park,Green Valley Mobile Home Park,,44.3152606,-93.9392558,,,,human,true,
Savidge Lake Cemetery,United States,Minnesota,Le Sueur County,Cleveland,Cleveland,,44.3215627,-93.869218,,,,human,true,
Cleveland Lutheran Cemetery,United States,Minnesota,Le Sueur County,Cleveland,Cleveland,,44.3046386,-93.828101,,,,human,true,
Meeker Cemetery,United States,Minnesota,Le Sueur County,Cleveland,Cleveland,,44.3153574,-93.7869911,,,,human,true,
Calvary Cemetery,United States,Minnesota,Le Sueur County,Cleveland,Cleveland,,44.3093331,-93.8120229,,,,human,true,
Elim Welsh Cemetery,United States,Minnesota,Le Sueur County,Ottawa,Ottawa,,44.371725,-93.8891579,,,,human,true,
Blue Grass Cemetery,United States,Minnesota,Le Sueur County,Saint Henry,Saint Henry,,44.3355697,-93.7579635,,,,human,true,
Woodlawn Cemetery,United States,Minnesota,Le Sueur County,Le Center,Le Center,,44.3700716,-93.7424178,,,,human,true,
Lake Gorman Cemetery,United States,Minnesota,Le Sueur County,Cordova,Cordova,,44.3327528,-93.6671189,,,,human,true,
Gish Cemetery,United States,Minnesota,Le Sueur County,Rogers,Rogers,,44.2530304,-93.5828765,,,,human,true,
German Lake Cemetery,United States,Minnesota,Le Sueur County,Cordova,Cordova,,44.2827222,-93.7201877,,,,human,true,
Green Lawn Cemetery,United States,Minnesota,Nicollet County,Summit Mobile Home Park,Summit Mobile Home Park,,44.3674973,-93.978514,,,,human,true,
School Sisters of Notre Dame Cemetery,United States,Minnesota,Blue Earth County,Knollwood Park,Knollwood Park,,44.1828134,-93.9741413,,,,human,true,
Saint John the Baptist Catholic Cemetery,United States,Minnesota,Ramsey County,New Brighton,New Brighton,,45.0619534,-93.2026567,,,,human,true,
Orono Cemetery,United States,Minnesota,Sherburne County,Lake Orono Estates,Lake Orono Estates,,45.3058712,-93.5948401,,,,human,true,
St. John Cemetery,United States,Minnesota,Steele County,Owatonna,Owatonna,,44.0959607,-93.220759,,,,human,true,
Augustana Cemetery,United States,Minnesota,Carver County,East Union,East Union,,44.7392338,-93.7343666,,,,human,true,
Preiss Cemetery,United States,Minnesota,Carver County,Dahlgren,Dahlgren,,44.7745715,-93.6761693,,,,human,true,
St. Mary's Catholic Cemetery,United States,Minnesota,Renville County,Bird Island,Bird Island,,44.7683638,-94.9051287,,,,human,true,
St Joseph's Cemetry,United States,Minnesota,Wright County,Delano,Delano,,45.043754,-93.7678427,,,,human,true,
Saint Timothy Cemetary,United States,Minnesota,Wright County,Maple Lake Mobile Home Park,Maple Lake Mobile Home Park,,45.22811,-93.9847388,,,,human,true,
Gethsemane Cemetery,United States,MN,Hennepin County,New Hope,8151 42nd Avenue North,,45.0311392,-93.385352,,https://catholic-cemeteries.org/gethsemane/,,human,true,
Maple Lake Community Cemetary,United States,Minnesota,Wright County,Maple Lake,Maple Lake,,45.2436257,-94.0034983,,,,human,true,
Saint Ignatius Catholic Cemetery,United States,Minnesota,Wright County,West Albion,West Albion,,45.1989917,-94.1386842,,,,human,true,
Saint Walburga Cemetery,United States,Minnesota,Hennepin County,Fletcher,Fletcher,,45.1737591,-93.5431675,,,,human,true,
Beth El Memorial Park,United States,MN,Hennepin County,Crystal,3800 Winnetka Avenue North,55427,45.026219,-93.3775962,,,,human,true,
Calvary Cemetery,United States,MN,Hennepin County,Anoka,991 Highway 10,55303,45.2114512,-93.4099173,,,,human,true,
Christ the King Catholic Cemetery,United States,Minnesota,Isanti County,Pine Village Mobile Home Park,Pine Village Mobile Home Park,,45.5581035,-93.2249035,,,,human,true,
Old St Walburga Cemetery,United States,Minnesota,Hennepin County,Fletcher,Fletcher,,45.1525735,-93.5590409,,,,human,true,
Rush Creek Cemetery,United States,MN,Hennepin County,Maple Grove,15144 Territorial Road,55369,45.1463139,-93.4726799,,,,human,true,
East Christiana Lutheran Cemetery,United States,Minnesota,Dakota County,Eureka Center,Eureka Center,,44.5611377,-93.2400262,,,,human,true,
Immanuel United Methodist Cemetery,United States,Minnesota,Hennepin County,Fletcher,Fletcher,,45.1380474,-93.5097484,,,,human,true,
Maple Knoll Cemetery,United States,MN,Hennepin County,Maple Grove,8511 Rice Lake Road,55369,45.1090148,-93.4567979,,,,human,true,
Saint Annes Cemetary,United States,Minnesota,Stearns County,Kimball,Kimball,,45.3077528,-94.3130968,,,,human,true,
Kimball Cemetary,United States,Minnesota,Stearns County,Kimball,Kimball,,45.320227,-94.3058512,,,,human,true,
Talbot Cemetary,United States,Minnesota,Meeker County,Kingston,Kingston,,45.2467092,-94.3072058,,,,human,true,
Lake Union Cemetary,United States,Minnesota,Wright County,South Haven,South Haven,,45.2494813,-94.2660178,,,,human,true,
Assumption Cemetery,United States,Minnesota,Meeker County,Eden Valley,Eden Valley,,45.336835,-94.5475355,,,,human,true,
Oak Hill Cemetery,United States,Minnesota,Blue Earth County,Beauford,Beauford,,44.0019521,-93.9590069,,,,human,true,
Saint Johns Cemetery,United States,Minnesota,Isanti County,Spring Lake,Spring Lake,,45.4980872,-93.0715179,,,,human,true,
Saint Thomas Cemetery,United States,Minnesota,Sibley County,Jessenland,Jessenland,,44.5993515,-93.9013209,,,,human,true,
Saint Patrick Cemetary,United States,Minnesota,Hennepin County,Maple Grove,Maple Grove,,45.0834708,-93.4899851,,,,human,true,
Decoria Cemetery,United States,Minnesota,Blue Earth County,Beauford,Beauford,,44.0613154,-93.9596539,,,,human,true,
Constance Evangelical Free Church Cemetery,United States,Minnesota,Anoka County,Constance,Constance,,45.2627186,-93.2864857,,,,human,true,
Garden of Eden Cemetery,United States,Minnesota,Ramsey County,Little Canada,Little Canada,,45.0052331,-93.1117632,,https://www.islamicinstituteofmn.com/al_baquees.aspx,+1-651-428-9900,human,true,
Saint John Lutheran Cemetery,United States,MN,Le Sueur County,Montgomery,17909 Lexington Road,56069,44.4419748,-93.6215511,,,,human,true,
Saint Henry Cemetery,United States,MN,Le Sueur County,Le Sueur,38807 261st Avenue,56058,44.3863708,-93.7880615,,,,human,true,
Red Rock Cemetery,United States,Minnesota,Washington County,Newport,Newport,,44.8837483,-93.0010574,,,,human,true,
Saint Paul's United Church of Christ Cemetery,United States,Minnesota,McLeod County,Plato,Plato,,44.7676113,-94.0324052,,,,human,true,
Saint John's Lutheran Cemetery,United States,Minnesota,McLeod County,Plato,Plato,,44.7926224,-94.0402458,,,,human,true,
Glencoe City Cemetery,United States,MN,McLeod County,Glencoe,301 Lindbergh Trail,55336,44.7626805,-94.1612018,,https://www.glencoemn.org/services/cemetery/,,human,true,
Saint Lawrence Cemetery,United States,Minnesota,Rice County,Faribault,Faribault,,44.3203969,-93.2741121,,,,human,true,
Oak Ridge Cemetery,United States,Minnesota,Rice County,Faribault,Faribault,,44.3221633,-93.2740409,,,,human,true,
Bohemian Cemetery,United States,Minnesota,Steele County,Owatonna,Owatonna,,44.0545255,-93.2072943,,,,human,true,
Rich Valley Cemetery,United States,Minnesota,Dakota County,Roseport,Roseport,,44.7964237,-93.0750751,,,,human,true,
Lakeview Cemetery,United States,Minnesota,Wright County,Pulaski Mobile Home Park,Pulaski Mobile Home Park,,45.1641975,-93.8671083,,https://www.lakeviewcemeteryassociation.org/,,human,true,
Czech National Cemetery,United States,MN,Le Sueur County,New Prague,611 Main Street West,56071,44.544155,-93.589898,,,,human,true,
Assumption Cemetary,United States,Minnesota,Stearns County,Saint Cloud,Saint Cloud,,45.5303952,-94.1659309,,,,human,true,
Riverside Cemetery,United States,Minnesota,Wright County,French Lake,French Lake,,45.1886662,-94.1888484,,,,human,true,
Cokato Finnish Cemetery,United States,Minnesota,Wright County,Knapp,Knapp,,45.1242743,-94.2185332,,,,human,true,
Saint Paul's Lutheran Cemetery,United States,Minnesota,Wright County,Montrose,Montrose,,45.0818905,-93.9121724,,,,human,true,
Kreidler Cemetery,United States,Minnesota,Wright County,Montrose,Montrose,,45.097845,-93.8976851,,,,human,true,
Alamaa Cemetery,United States,Minnesota,Wright County,West Albion,West Albion,,45.1959997,-94.114573,,,,human,true,
Cassel Cemetery,United States,Minnesota,Wright County,Delano,Delano,,45.0656108,-93.847764,,,,human,true,
Mt. Olive Wst Cemetery,United States,Minnesota,Wright County,Delano,Delano,,45.0654323,-93.8348134,,,,human,true,
Bear Creek Cemetery,United States,Minnesota,McLeod County,Koniska,Koniska,,44.8627487,-94.2137803,,,,human,true,
Zions Lutheran Cemetery,United States,Minnesota,Sibley County,Arlington Mobile Home Park,Arlington Mobile Home Park,,44.6371991,-94.040994,,,,human,true,
Koniska Cemetery,United States,Minnesota,McLeod County,Koniska,Koniska,,44.8445192,-94.2203701,,,,human,true,
Ferguson's Cemetery,United States,Minnesota,McLeod County,Plato,Plato,,44.7991389,-93.995862,,,,human,true,
Getchell Cemetery,United States,Minnesota,McLeod County,Biscay,Biscay,,44.7942188,-94.2482635,,,,human,true,
Anoka State Hospital Cemetery,United States,Minnesota,Anoka County,Anoka,Anoka,,45.2219264,-93.3802956,,,,human,true,
Calvary Cemetery,United States,Minnesota,Waseca County,Waseca,Waseca,,44.0469712,-93.5129392,,,,human,true,
St. Mary Cemetery,United States,Minnesota,Waseca County,Saint Mary,Saint Mary,,44.0263744,-93.5921242,,,,human,true,
Barnard Valley View Cemetery,United States,Minnesota,Blue Earth County,Good Thunder,Good Thunder,,44.0037475,-94.0969013,,,,human,true,
Word of Peace Cemetery,United States,Minnesota,Hennepin County,Berning Mill,Berning Mill,,45.1876532,-93.5921784,,,,human,true,
Nerstrand Cemetery,United States,Minnesota,Rice County,Nerstrand,Nerstrand,,44.3494101,-93.0652908,,,,human,true,
Trinity Cemetery,United States,Minnesota,Carver County,Watertown,Watertown,,44.9587293,-93.8412042,,,,human,true,
Greenvale Cemetery,United States,Minnesota,Dakota County,Castle Rock,Castle Rock,,44.5433348,-93.1661291,,,,human,true,
Wilton Cemetery,United States,Minnesota,Waseca County,Wilton,Wilton,,44.0010168,-93.5339963,,,,human,true,
St. Ann's Cemetery,United States,Minnesota,Waseca County,Janesville,Janesville,,44.1013123,-93.6921756,,,,human,true,
Svealund Cemetery,United States,Minnesota,Todd County,Little Sauk,Little Sauk,,45.8373969,-94.9169912,,,,human,true,
Lake Hanska Cemetery,United States,Minnesota,Brown County,Hanska,Hanska,,44.1315672,-94.5144508,,,,human,true,
Fish Lake Cemetery,United States,Minnesota,Scott County,Lydia,Lydia,,44.6565944,-93.4668884,,,,human,true,
Concord Hill Cemetery,United States,Minnesota,Scott County,Lydia,Lydia,,44.6521387,-93.4810838,,,,human,true,
Brown Cemetery,United States,Minnesota,Sibley County,Sibley Estates East,Sibley Estates East,,44.5279929,-93.9154539,,,,human,true,
Saint Josephs Catholic Cemetery,United States,Minnesota,Sibley County,Sibley Estates East,Sibley Estates East,,44.5223374,-93.9091399,,,,human,true,
First Evangelical Lutheran Cemetery,United States,Minnesota,McLeod County,Glencoe,Glencoe,,44.7627486,-94.1624386,,,,human,true,
Corinna LCMS Cemetery,United States,Minnesota,Wright County,Eastview Mobile Home Park,Eastview Mobile Home Park,,45.2898175,-94.0657166,,,,human,true,
Lakeview Cemetery,United States,Minnesota,Wright County,Silver Creek,Silver Creek,,45.2886284,-93.9996891,,,,human,true,
St. Columban Cemetery,United States,Minnesota,Meeker County,Greenleaf,Greenleaf,,44.9949933,-94.5385448,,,,human,true,
St. Joeseph's Cemetery,United States,Minnesota,McLeod County,Silver Lake,Silver Lake,,44.9002376,-94.2187452,,,,human,true,
Bohemian National Cemetery,United States,Minnesota,McLeod County,Komensky,Komensky,,44.891504,-94.2423752,,https://bohemian-cemetery.org/,,human,true,
Trinity Cemetery,United States,Minnesota,Nicollet County,Nicollet Landing,Nicollet Landing,,44.2467392,-94.2196475,,,,human,true,
Oakland Cemetery,United States,Minnesota,Hennepin County,Lyndale,Lyndale,,44.9850104,-93.7541538,,,,human,true,
Church of the Assumption Catholic Cemetery,United States,Minnesota,Hennepin County,Richfield,Richfield,,44.8626364,-93.2722746,,https://www.assumptionrichfield.org/cemetery,,human,true,
Lake Side Cemetery,United States,Minnesota,Wright County,Enfield,Enfield,,45.3296827,-93.9321932,,,,human,true,
Faith Rutz Lake Cemetery,United States,Minnesota,Carver County,Mayer,Mayer,,44.8695965,-93.8645107,,,,human,true,
St Peter Lutheran Cemetery,United States,Minnesota,Carver County,Riverside Terrace Mobile Home Park,Riverside Terrace Mobile Home Park,,44.9481384,-93.787711,,,,human,true,
Most Holy Trinity Cemetery,United States,Minnesota,Rice County,Veseli,Veseli,,44.5177482,-93.4620701,,,,human,true,
St. John's Cemetery,United States,Minnesota,Rice County,Veseli,Veseli,,44.5157991,-93.4676781,,,,human,true,
St. Joseph's Cemetery,United States,Minnesota,Wright County,Delano,Delano,,45.0488795,-93.8118928,,,,human,true,
Calvary Cemetery,United States,Minnesota,Wright County,Delano,Delano,,45.0329584,-93.7840763,,,,human,true,
Delano Cemetery,United States,Minnesota,Wright County,Delano,Delano,,45.0299415,-93.7851981,,,,human,true,
Reich Cemetery,United States,Minnesota,Wright County,Hanover,Hanover,,45.1303516,-93.6668247,,,,human,true,
Credit River Catholic Cemetery,United States,MN,Scott County,Prior Lake,17845 Texas Avenue,55372,44.6917368,-93.3786052,,,,human,true,
St. Catherine of Spring Lake Cemetery,United States,Minnesota,Scott County,Cedar Lake,Cedar Lake,,44.6313219,-93.4293759,,,,human,true,
St Patrick Cemetery,United States,Minnesota,Scott County,Saint Patrick,Saint Patrick,,44.5949583,-93.5018392,,,,human,true,
Solar Lutheran Church Cemetery,United States,Minnesota,Rice County,Webster,Webster,,44.5244476,-93.3530696,,,,human,true,
Ramsey Foster Cemetery,United States,Minnesota,Anoka County,Ramsey,Ramsey,,45.2285674,-93.4424415,,,,human,true,
Trott Brook Cemetery,United States,Minnesota,Anoka County,Ramsey,Ramsey,,45.2851547,-93.4187229,,,,human,true,
Riverside Cemetery,United States,Minnesota,Wright County,West Side Mobile Home Park,West Side Mobile Home Park,,45.3158375,-93.8137969,,,,human,true,
Victor Hill Cemetery,United States,Minnesota,Anoka County,Linwood,Linwood,,45.3329536,-93.1229175,,,,human,true,
Saint Johns Catholic Cemetery,United States,Minnesota,Brown County,Searles,Searles,,44.2141646,-94.4330308,,,,human,true,
Linden Cemetery,United States,Minnesota,Brown County,Linden,Linden,,44.1230897,-94.427285,,,,human,true,
Springfield Cemetery,United States,Minnesota,Brown County,Springfield,Springfield,,44.2308259,-94.957838,,,,human,true,
Morgan Cemetery,United States,Minnesota,Redwood County,Morgan,Morgan,,44.3948795,-94.9260552,,,,human,true,
Saint Pauls Cemetery,United States,Minnesota,Renville County,Hector,Hector,,44.7581425,-94.7323106,,,,human,true,
Lake Crystal Cemetery,United States,Minnesota,Blue Earth County,Lake Crystal,Lake Crystal,,44.1115698,-94.210694,,,,human,true,
Calvary Lutheran Cemetery,United States,Minnesota,Blue Earth County,Rapidan,Rapidan,,44.0929149,-94.1046561,,,,human,true,
Riverside Cemetery,United States,Minnesota,Benton County,Ronneby,Ronneby,,45.6845016,-93.8688985,,,,human,true,
Saint Pius X Cemetery,United States,Minnesota,McLeod County,Anderson Court,Anderson Court,,44.7648996,-94.139794,,,,human,true,
Saint Anastasia Cemetery,United States,Minnesota,McLeod County,Northview Court,Northview Court,,44.9205024,-94.3684293,,https://www.stanastasia.net/st-anastasia-church/st-anastasia-cemetery/,,human,true,
Grace Bible Cemetery,United States,Minnesota,McLeod County,Silver Lake,Silver Lake,,44.8995027,-94.1914004,,,,human,true,
Glenwood Cemetery,United States,MN,Blue Earth County,Mankato,711 Glenwood Avenue,56001,44.1558785,-93.9818324,,https://glenwoodcemeterymankato.com/,,human,true,
Bethel Methodist Cemetery,United States,Minnesota,Renville County,Countryview Estates,Countryview Estates,,44.4709633,-94.6565454,,,,human,true,
Mount Hope Cemetery,United States,Minnesota,Renville County,Franklin,Franklin,,44.4729238,-94.837539,,,,human,true,
United Methodist Church of Hope Cemetery,United States,Minnesota,Renville County,Bird Island,Bird Island,,44.8485081,-94.8130266,,,,human,true,
Schlegel Cemetery,United States,Minnesota,Scott County,Blakeley,Blakeley,,44.5574826,-93.8498057,,,,human,true,
Saint John’s German Union Cemetery,United States,Minnesota,Rice County,Shieldsville,Shieldsville,,44.4190077,-93.3927635,,,,human,true,
Oak Grove Cemetery,United States,Minnesota,McLeod County,Brownton,Brownton,,44.7327751,-94.3415734,,,,human,true,
Saint Stanislaus Kostka,United States,MN,Morrison County,Bowlus,11724 40th Street,56314,45.8199009,-94.414053,,,,human,true,
Saint Stephen's Cemetery,United States,Minnesota,Stearns County,Saint Stephen,Saint Stephen,,45.700759,-94.2754381,,,,human,true,
Rice Lake Cemetery,United States,Minnesota,Steele County,Rice Lake,Rice Lake,,44.0987225,-93.0369807,,,,human,true,
Howard Lake Cemetery,United States,Minnesota,Wright County,Howard Lake Mobile Home Park,Howard Lake Mobile Home Park,,45.0511984,-94.0672241,,,,human,true,
Saint Johns Lutheran Cemetery of Mountville,United States,Minnesota,Sibley County,Gaylord,Gaylord,,44.6063339,-94.2534632,,,,human,true,
Evergreen Cemetery,United States,Minnesota,Renville County,Lakeside,Lakeside,,44.8337813,-94.5977922,,,,human,true,
Wyanett Bethany Cemetery,United States,Minnesota,Isanti County,Wyanett,Wyanett,,45.585129,-93.4506209,,,,human,true,
Ebenezer Cemetery,United States,Minnesota,Sibley County,New Rome,New Rome,,44.5584848,-94.0721583,,,,human,true,
Rush River Cemetery,United States,Minnesota,Sibley County,Rush River,Rush River,,44.4718365,-94.0497226,,,,human,true,
Isanti Union Cemetery,United States,Minnesota,Isanti County,Isanti,Isanti,,45.4935554,-93.230013,,,,human,true,
Wic̣aḣapi,United States,Minnesota,Ramsey County,Saint Paul,Saint Paul,,44.9458456,-93.0567827,,,,human,true,
Wic̣aḣapi,United States,Minnesota,Ramsey County,Saint Paul,Saint Paul,,44.9453995,-93.0553398,,,,human,true,
Saint James Cemetery,United States,Minnesota,Wright County,Howard Lake Mobile Home Park,Howard Lake Mobile Home Park,,45.0479095,-94.0553733,,,,human,true,
Scandian Grove Cemetery,United States,Minnesota,Nicollet County,Norseland,Norseland,,44.4095315,-94.1122664,,,,human,true,
Altnow Cemetery,United States,Minnesota,Sibley County,Gaylord Mobile Home Park,Gaylord Mobile Home Park,,44.5842948,-94.1690907,,,,human,true,
Immanuel Lutheran Cemetery,United States,Minnesota,Meeker County,Rosendale,Rosendale,,45.0151209,-94.7276119,,,,human,true,
Trinity Evangelical Lutheran Cemetery,United States,Minnesota,Renville County,Churchill,Churchill,,44.8676639,-94.6704987,,,,human,true,
Church of God Cemetery,United States,Minnesota,McLeod County,Parkview Mobile Home Park,Parkview Mobile Home Park,,44.859859,-94.0204658,,,,human,true,
Zion Lutheran Cemetery,United States,Minnesota,Carver County,Bongards,Bongards,,44.7360554,-93.8284819,,,,human,true,
Forest Hill Cemetery,United States,Minnesota,Steele County,Owatonna,Owatonna,,44.0939547,-93.2187748,,,,human,true,
Saint Pauls Lutheran Cemetery,United States,Minnesota,Kandiyohi County,Regal,Regal,,45.4562074,-94.8494819,,,,human,true,
Saint Paul's Lutheran Cemetery,United States,Minnesota,McLeod County,Lester Prairie,Lester Prairie,,44.8809373,-94.052528,,,,human,true,
Peet Cemetery,United States,Minnesota,Pine County,Saint Johns Landing Camp,Saint Johns Landing Camp,,45.917171,-92.5424198,,,,human,true,
Daniel Vollmer Cemetary,United States,Minnesota,Washington County,Lake Elmo,Lake Elmo,,44.9538847,-92.8447375,,,,human,true,
Atkinson Cemetery,United States,Minnesota,Washington County,Cottage Grove,Cottage Grove,,44.830236,-92.9597539,,https://www.rootsweb.ancestry.com/~usgenweb/mn/washington/cemeteries/atkinson.htm,,human,true,
Evergreen Community Cemetery,United States,Minnesota,Washington County,Afton,Afton,,44.9037198,-92.7878183,,,,human,true,
Memorial Lutheran Church Cemetery,United States,Minnesota,Washington County,Afton,Afton,,44.9033609,-92.7869367,,,,human,true,
Union Cemetery,United States,Minnesota,Ramsey County,Midvale,Midvale,,44.9649852,-92.9911012,,,,human,true,
Center Grove Cemetery,United States,Minnesota,Olmsted County,Douglas,Douglas,,44.1090386,-92.5782868,,,,human,true,
State Hospital Cemetery,United States,Minnesota,Olmsted County,Rocky Creek Estates,Rocky Creek Estates,,44.0291888,-92.4371336,,,,human,true,
Oakwood East Cemetery,United States,Minnesota,Olmsted County,Rocky Creek Estates,Rocky Creek Estates,,44.0506834,-92.4063153,,,,human,true,
Pleasant Prairie Cemetery,United States,Minnesota,Olmsted County,Oronoco Estates,Oronoco Estates,,44.1002764,-92.5140269,,,,human,true,
Byron Cemetery,United States,Minnesota,Olmsted County,Byron,Byron,,44.0355625,-92.642658,,,,human,true,
Evergreen Cemetery,United States,Minnesota,Washington County,Birchwood,Birchwood,,45.043723,-92.9824147,,,,human,true,
Lakeview Cemetery,United States,Minnesota,Washington County,Birchwood,Birchwood,,45.0456113,-92.9834794,,,,human,true,
Riverside Cemetery,United States,Minnesota,Dodge County,Valley View Park,Valley View Park,,44.0399218,-92.8604289,,,,human,true,
Lakeside Cemetery,United States,Minnesota,Dakota County,Hastings,Hastings,,44.7468245,-92.8689227,,,,human,true,
Calvary Cemetery,United States,Minnesota,Olmsted County,Rochester,Rochester,,44.0288686,-92.4460079,,,,human,true,
Oronoco Cemetery,United States,Minnesota,Olmsted County,Oronoco,Oronoco,,44.1712166,-92.5304311,,,,human,true,
Grandview Memorial Gardens,United States,Minnesota,Olmsted County,Parkside Mobile Home Park,Parkside Mobile Home Park,,44.0049207,-92.4364249,,,,human,true,
Oakwood Cemetery,United States,Minnesota,Olmsted County,Rochester,Rochester,,44.0269028,-92.4555821,,,,human,true,
Pine Island Cemetery,United States,Minnesota,Goodhue County,Pine Island,Pine Island,,44.2048986,-92.6388823,,,,human,true,
Cannon Falls Cemetery,United States,Minnesota,Goodhue County,Riverside Terrace Mobile Court,Riverside Terrace Mobile Court,,44.5087818,-92.8920176,,,,human,true,
Saint Ansgars Cemetery,United States,Minnesota,Goodhue County,Cannon Falls,Cannon Falls,,44.4987373,-92.905043,,,,human,true,
Zumbrota Cemetery,United States,Minnesota,Goodhue County,Zumbrota,Zumbrota,,44.3043604,-92.6762605,,,,human,true,
United Cemetery,United States,Minnesota,Goodhue County,Zumbrota,Zumbrota,,44.2991982,-92.6814902,,,,human,true,
Concord Cemetery,United States,Minnesota,Dodge County,Concord,Concord,,44.1487898,-92.83295,,,,human,true,
Evergreen Cemetery,United States,MN,Dodge County,Mantorville,Cemetery Road,,44.0619948,-92.7423173,,,,human,true,
Maple Grove Cemetery,United States,Minnesota,Dodge County,Windsor Court Mobile Home Community,Windsor Court Mobile Home Community,,44.0212219,-92.7557149,,,,human,true,
Oakwood Cemetery,United States,Minnesota,Goodhue County,Red Wing,Red Wing,,44.5509792,-92.5205592,,https://www.redwingmn.gov/329/Oakwood-Cemetery,,human,true,
St Thomas Aquinas Cemetery,United States,Minnesota,Washington County,Saint Paul Park,Saint Paul Park,,44.8425789,-92.9804937,,,,human,true,
Saint Elizabeth Ann Seton Catholic Cemetery,United States,Minnesota,Dakota County,Hastings Mobile Home Terrace,Hastings Mobile Home Terrace,,44.718285,-92.8514188,,,,human,true,
Saint Luke's Cemetery,United States,Minnesota,Dakota County,Hastings Mobile Home Terrace,Hastings Mobile Home Terrace,,44.7174054,-92.8484591,,,,human,true,
Saint Joachim Cemetery,United States,Minnesota,Wabasha County,Plainview,Plainview,,44.1710787,-92.1788992,,,,human,true,
Greenwood Cemetery,United States,Minnesota,Wabasha County,Plainview,Plainview,,44.1700884,-92.1730234,,,,human,true,
Burnside Cemetery,United States,Minnesota,Goodhue County,Grand View Mobile Park,Grand View Mobile Park,,44.5675297,-92.6178971,,https://www.redwingmn.gov/326/Burnside-Shiloh-Cemetery,,human,true,
Hastings State Hospital Cemetery,United States,Minnesota,Dakota County,Three Rivers Mobile Home Park,Three Rivers Mobile Home Park,,44.710162,-92.8248828,,,,human,true,
Saint Mary's Catholic Cemetery,United States,Minnesota,Wabasha County,Lake City,Lake City,,44.4403766,-92.2797355,,,,human,true,
Saint Mary's Catholic Church Cemetery,United States,Minnesota,Dakota County,New Trier,New Trier,,44.6032401,-92.9365234,,,,human,true,
Mound Prairie Cemetery,United States,Minnesota,Washington County,East Cottage Grove,East Cottage Grove,,44.9160879,-92.8619451,,,,human,true,
Mount Hope Cemetery,United States,Minnesota,Olmsted County,Douglas,Douglas,,44.0701155,-92.5778864,,,,human,true,
Oakwood Methodist Cemetery,United States,Minnesota,Wabasha County,Millville,Millville,,44.2298079,-92.2714138,,http://www.findagrave.com/cgi-bin/fg.cgi?page=cr&CRid=2374420&CScn=oakwood&CScntry=4&CSst=25&CScnty=1388&,,human,true,
Bluff Lake Cemetery,United States,Minnesota,Pine County,Saint Johns Landing Camp,Saint Johns Landing Camp,,45.9530063,-92.4781995,,,,human,true,
Trinity Cemetery,United States,MN,Goodhue County,Wanamingo,Highway 57 Boulevard,55983,44.3190191,-92.7916212,,,,human,true,
St. Mary's Cemetery,United States,Minnesota,Winona County,Minneiska,Minneiska,,44.2002663,-91.8989223,,,,human,true,
Oakwood Cemetery,United States,Minnesota,Dakota County,Nininger,Nininger,,44.7462675,-92.886614,,,,human,true,
Soldiers and Sailors Cemetery,United States,Minnesota,Dakota County,Hastings,Hastings,,44.7460285,-92.8695185,,,,human,true,
County Line Cemetery,United States,Minnesota,Dakota County,Miesville,Miesville,,44.6158153,-92.7728501,,,,human,true,
St. Mary's Cemetery Addition,United States,Minnesota,Ramsey County,North Saint Paul,North Saint Paul,,45.0312093,-92.9936053,,https://www.stmaryscemeterynsp.org/,,human,true,
St. Mary's Catholic Cemetery,United States,Minnesota,Ramsey County,North Saint Paul,North Saint Paul,,45.0279351,-92.9940924,,https://www.stmaryscemeterynsp.org/,,human,true,
Fairview Cemetery,United States,MN,Washington County,Stillwater,6373 Osgood Avenue North,55082,45.0410012,-92.8100939,,,,human,true,
Little Valley Cemetery,United States,MN,Olmsted,Saint Charles,5547 County Road 10 NE,55972,44.0772302,-92.1536531,,,,human,true,
St. Aloysius Cemetery,United States,Minnesota,Winona County,Elba,Elba,,44.0954749,-92.0162923,,,,human,true,
Oak Hill Cemetery,United States,Minnesota,Olmsted County,Viola,Viola,,44.0452422,-92.2498156,,,,human,true,
Wildwood Cemetery,United States,Minnesota,Dodge County,Wasioja,Wasioja,,44.0708176,-92.8143508,,,,human,true,
Conception Cemetary,United States,Minnesota,Wabasha County,Conception,Conception,,44.2645009,-92.110257,,,,human,true,
Elim Cemetery,United States,Minnesota,Washington County,Scandia,Scandia,,45.2531501,-92.8073951,,,,human,true,
Pleasant Valley Cemetery,United States,MN,Wabasha County,Rochester,140th Avenue NE,,44.100458,-92.1987358,,https://www.interment.net/data/us/mn/olmsted/pleasant_valley/index.htm,,human,true,
Saint Clement Cemetery,United States,Minnesota,Wabasha County,Hammond,Hammond,,44.2230434,-92.3663519,,,,human,true,
Saint John's Lutheran Cemetery,United States,Minnesota,Washington County,Oakbury,Oakbury,,44.9275829,-92.8925438,,,,human,true,
Beaver Cemetery,United States,Minnesota,Winona County,Beaver,Beaver,,44.1527245,-92.0199932,,,,human,true,
Zion Cemetery,United States,Minnesota,Dakota County,New Trier,New Trier,,44.5828545,-92.9348575,,,,human,true,
Newport Cemetery,United States,Minnesota,Washington County,Newport,Newport,,44.8558233,-92.9929968,,,,human,true,
Berne Cemetery,United States,Minnesota,Dodge County,Berne,Berne,,44.1669481,-92.7788663,,,,human,true,
Grey Cloud Cemetery,United States,Minnesota,Washington County,Saint Paul Park,Saint Paul Park,,44.8028643,-92.9943345,,,,human,true,
Lakeview Cemetery,United States,MN,Washington County,Lakeland,450 Queenan Avenue North,55043,44.9552634,-92.7749913,,,,human,true,
Elim Cemetery,United States,Minnesota,Washington County,Scandia,Scandia,,45.2488168,-92.8126717,,,,human,true,
Othello Cemetery,United States,MN,Dodge County,Pine Island,75th Street NW,,44.1114814,-92.6636759,,,,human,true,
Farm Hill Cemetery,United States,Minnesota,Wabasha County,South Troy,South Troy,,44.1799755,-92.4154465,,,,human,true,
Jempland Cemetery,United States,Minnesota,Goodhue County,White Rock,White Rock,,44.4839127,-92.7546887,,,,human,true,
Oakland Cemetery,United States,Minnesota,Washington County,Marine on Saint Croix,Marine on Saint Croix,,45.1986558,-92.7813759,,,,human,true,
Saint Columkills Cemetery,United States,Minnesota,Goodhue County,Ryan,Ryan,,44.4202583,-92.7005913,,,,human,true,
St. Peter's Cemetery,United States,Minnesota,Goodhue County,Belvidere Mills,Belvidere Mills,,44.4185418,-92.4511916,,,,human,true,
Fahlstrom Cemetery,United States,Minnesota,Washington County,Afton,Afton,,44.9402223,-92.8325385,,,,human,true,
Prairie Island Cemetery,United States,Minnesota,Goodhue County,Stroms,Stroms,,44.6448761,-92.6782428,,,,human,true,
Kenyon Cemetery,United States,Minnesota,Goodhue County,Kenyon,Kenyon,,44.2763379,-92.981603,,,,human,true,
St. Paulus Cemetery,United States,Minnesota,Washington County,Afton,Afton,,44.9052159,-92.7841977,,,,human,true,
Mount Hope Cemetery,United States,Minnesota,Washington County,Afton,Afton,,44.8990256,-92.7913604,,,,human,true,
SalemLutheran Cemetery,United States,Minnesota,Washington County,Stillwater,Stillwater,,45.0387565,-92.8113804,,,,human,true,
Norwegian Methodist Cemetery,United States,Minnesota,Otter Tail County,Underwood,Underwood,,46.25308,-95.83998,,,,human,true,
Itasca Pioneer Cemetery,United States,Minnesota,Clearwater County,Lake Itasca,Lake Itasca,,47.2305521,-95.1960599,,,,human,true,
Greenwood Cemetery,United States,Minnesota,Otter Tail County,New York Mills,New York Mills,,46.5182238,-95.3854854,,,,human,true,
Saint Peters Lutheran Cemetery,United States,Minnesota,Otter Tail County,New York Mills,New York Mills,,46.5181216,-95.3844537,,,,human,true,
Wolverton Cemetery,United States,Minnesota,Wilkin County,Wolverton,Wolverton,,46.5868695,-96.7194507,,,,human,true,
Salem Lutheran Cemetery,United States,Minnesota,Wilkin County,Wolverton,Wolverton,,46.5658304,-96.7392796,,,,human,true,
Comstock Cemetery,United States,Minnesota,Clay County,Comstock,Comstock,,46.6588704,-96.7377643,,,,human,true,
Prairie View Cemetery,United States,Minnesota,Wilkin County,Lawndale,Lawndale,,46.5954894,-96.3031266,,,,human,true,
Prairie Home Cemetery,United States,Minnesota,Clay County,Moorhead,Moorhead,,46.8657927,-96.767096,,,,human,true,
Riverside Cemetery,United States,Minnesota,Clay County,Moorhead,Moorhead,,46.8457052,-96.7843311,,,,human,true,
Riverside Cemetery,United States,Minnesota,Wilkin County,Boise De Sioux Mobile Estates,Boise De Sioux Mobile Estates,,46.2403594,-96.5998456,,,,human,true,
Saint Henry's Cemetery,United States,Minnesota,Otter Tail County,Pine Cone Court,Pine Cone Court,,46.6013812,-95.5853559,,,,human,true,
Topelius Cemetery,United States,Minnesota,Otter Tail County,Topelius (historical),Topelius (historical),,46.4923771,-95.2908801,,,,human,true,
Perham Cemetery,United States,Minnesota,Otter Tail County,Lake's Mobile Home Park,Lake's Mobile Home Park,,46.5821189,-95.5524838,,,,human,true,
Saint Stanislaus Cemetery,United States,Minnesota,Otter Tail County,Lake's Mobile Home Park,Lake's Mobile Home Park,,46.5999667,-95.5667549,,,,human,true,
Prairie Cemetery,United States,MN,Otter Tail County,New York Mills,34486 490th Avenue,56571,46.462042,-95.469926,,,,human,true,
Woodland Cemetery,United States,Minnesota,Otter Tail County,Heinola,Heinola,,46.4691373,-95.3960866,,,,human,true,
Saint John the Baptist Catholic Church Cemetery,United States,Minnesota,Otter Tail County,West Wind Estates,West Wind Estates,,46.4694337,-95.2306511,,,,human,true,
Woodside Cemetery,United States,Minnesota,Otter Tail County,Wrightstown,Wrightstown,,46.2675495,-95.1979359,,,,human,true,
Zion Lutheran Cemetery,United States,Minnesota,Otter Tail County,Amor,Amor,,46.4117308,-95.7460947,,,,human,true,
Augustana Cemetery,United States,Minnesota,Otter Tail County,Elizabeth,Elizabeth,,46.3773294,-96.1309169,,,,human,true,
Boot Hill Cemetery,United States,Minnesota,Otter Tail County,Elizabeth,Elizabeth,,46.3806944,-96.1397853,,,,human,true,
Saint Elizabeth Cemetery,United States,Minnesota,Otter Tail County,Elizabeth,Elizabeth,,46.3829961,-96.1349675,,,,human,true,
Evangelical Lutheran Cemetery,United States,Minnesota,Otter Tail County,Elizabeth,Elizabeth,,46.3773238,-96.1298534,,,,human,true,
Aurdal Cemetery,United States,Minnesota,Otter Tail County,Underwood,Underwood,,46.3002473,-95.9151983,,,,human,true,
Bagstevold Cemetery,United States,Minnesota,Otter Tail County,Erhard,Erhard,,46.5002041,-96.09846,,,,human,true,
Bauck Cemetery,United States,Minnesota,Otter Tail County,Pine Cone Court,Pine Cone Court,,46.6288021,-95.6054395,,,,human,true,
Bethel Cemetery,United States,Minnesota,Otter Tail County,Hillview,Hillview,,46.6581616,-95.2530748,,,,human,true,
Bethel Cemetery,United States,Minnesota,Otter Tail County,Pelican Rapids Mobile Home Park,Pelican Rapids Mobile Home Park,,46.6053945,-96.0934194,,,,human,true,
Bethel Lutheran Cemetery,United States,Minnesota,Grant County,Ashby,Ashby,,46.1658659,-95.7757013,,,,human,true,
Saint Johns Lutheran Church South Cemetery,United States,Minnesota,Otter Tail County,Grand View Heights,Grand View Heights,,46.6433516,-95.4360583,,,,human,true,
Bethlehem Lutheran Cemetery,United States,Minnesota,Otter Tail County,Green Acres Mobile Park,Green Acres Mobile Park,,46.2690645,-96.0706158,,,,human,true,
Bradbury Cemetery,United States,Minnesota,Otter Tail County,Heisler Manufactured Home Park,Heisler Manufactured Home Park,,46.6700459,-95.8546735,,,,human,true,
Calvary Memorial Cemetery,United States,Minnesota,Otter Tail County,Luce,Luce,,46.6208866,-95.6373247,,,,human,true,
Central Swede Grove Lutheran Cemetery,United States,Minnesota,Otter Tail County,Mavis Frazier Trailer Park,Mavis Frazier Trailer Park,,46.5350006,-96.0598679,,,,human,true,
Compton Catholic Cemetery,United States,Minnesota,Otter Tail County,West Wind Estates,West Wind Estates,,46.4202088,-95.2086011,,,,human,true,
Compton Lutheran Cemetery,United States,Minnesota,Otter Tail County,Lyman,Lyman,,46.4049892,-95.2490352,,,,human,true,
Dora Catholic Cemetery,United States,Minnesota,Otter Tail County,Heisler Manufactured Home Park,Heisler Manufactured Home Park,,46.6003023,-95.8442186,,,,human,true,
Eagle Lake Cemetery,United States,Minnesota,Otter Tail County,Battle Lake Mobile Home Court,Battle Lake Mobile Home Court,,46.1938987,-95.6830855,,,,human,true,
Eagle Lake Free Cemetery,United States,Minnesota,Douglas County,Melby,Melby,,46.1365245,-95.6613641,,,,human,true,
Saint Paul Lutheran Church Cemetery,United States,Minnesota,Otter Tail County,Edwards,Edwards,,46.3987048,-95.9438791,,,,human,true,
East Lake Lida Cemetery,United States,Minnesota,Otter Tail County,Dunvilla,Dunvilla,,46.5770265,-95.9284192,,,,human,true,
Elmo Lutheran Cemetery,United States,Minnesota,Otter Tail County,Parkers Prairie,Parkers Prairie,,46.2019057,-95.3337298,,,,human,true,
Emmanuel Evangelical Cemetery,United States,Minnesota,Otter Tail County,Ottertail,Ottertail,,46.4702774,-95.5127106,,,,human,true,
Esther Lutheran Church Cemetery,United States,Minnesota,Douglas County,Rose City,Rose City,,46.1219314,-95.1888263,,,,human,true,
Evangelical Lutheran Rolling Prairie Cemetery,United States,Minnesota,Otter Tail County,Underwood,Underwood,,46.2280992,-95.8720547,,,,human,true,
Fairview Cemetery,United States,Minnesota,Otter Tail County,Deer Creek Mobile Home Park,Deer Creek Mobile Home Park,,46.4042597,-95.3211982,,,,human,true,
Fairy Lake Cemetery,United States,Minnesota,Becker County,Feldt Mobile Home Park,Feldt Mobile Home Park,,46.6941067,-95.7531099,,,,human,true,
Fergus Falls State Hospital Cemetery,United States,Minnesota,Otter Tail County,Fergus Falls,Fergus Falls,,46.3100603,-96.0768715,,,,human,true,
First Baptist Church Cemetery,United States,Minnesota,Otter Tail County,Henning,Henning,,46.3471694,-95.4496027,,,,human,true,
First Lutheran Cemetery,United States,Minnesota,Otter Tail County,Battle Lake,Battle Lake,,46.284972,-95.7186265,,,,human,true,
First Lutheran South Cemetery,United States,Minnesota,Otter Tail County,Country Manor Mobile Home Park,Country Manor Mobile Home Park,,46.2602044,-96.0188178,,,,human,true,
Flatau Cemetery,United States,Minnesota,Otter Tail County,Luce,Luce,,46.6312826,-95.6899258,,,,human,true,
Folden Lutheran Church Cemetery,United States,Minnesota,Otter Tail County,Almora,Almora,,46.2335741,-95.4492188,,,,human,true,
Free Thought Cemetery,United States,Minnesota,Otter Tail County,Heisler Manufactured Home Park,Heisler Manufactured Home Park,,46.6292218,-95.8444686,,,,human,true,
Friborg Cemetery,United States,Minnesota,Otter Tail County,Carlisle,Carlisle,,46.4413917,-96.1962209,,,,human,true,
Girard Union Cemetery,United States,Minnesota,Otter Tail County,Woodland Park,Woodland Park,,46.3316863,-95.5525942,,,,human,true,
Gorman Lutheran Cemetery,United States,Minnesota,Otter Tail County,Luce,Luce,,46.6933314,-95.6065641,,,,human,true,
Grace Lutheran Cemetery,United States,Minnesota,Otter Tail County,Hillview,Hillview,,46.6449639,-95.1851264,,,,human,true,
Grace Lutheran Cemetery,United States,Minnesota,Otter Tail County,Henning,Henning,,46.347144,-95.4691767,,,,human,true,
Grove Lake Church Cemetery,United States,Minnesota,Otter Tail County,Pelican Hills Mobile Home Park,Pelican Hills Mobile Home Park,,46.6445989,-96.1302087,,,,human,true,
Grove Lake South Cemetery,United States,Minnesota,Otter Tail County,Pelican Rapids Mobile Home Park,Pelican Rapids Mobile Home Park,,46.6344613,-96.1298737,,,,human,true,
Grue Lutheran Cemetery,United States,Minnesota,Douglas County,Melby,Melby,,46.1567108,-95.7266042,,,,human,true,
Gustafva Cemetery,United States,Minnesota,Otter Tail County,West Wind Estates,West Wind Estates,,46.4342461,-95.2178067,,,,human,true,
Hamar Cemetery,United States,Minnesota,Wilkin County,Rothsay,Rothsay,,46.4579518,-96.279582,,,,human,true,
Hay Creek Cemetery,United States,Minnesota,Otter Tail County,Hillview,Hillview,,46.6149882,-95.1914612,,,,human,true,
Hedemarken Lutheran Church Cemetery,United States,Minnesota,Otter Tail County,Carlisle,Carlisle,,46.3974934,-96.2131815,,,,human,true,
South Friborg Cemetery,United States,Minnesota,Otter Tail County,Carlisle,Carlisle,,46.3831764,-96.1969174,,,,human,true,
Hillview Cemetery,United States,Minnesota,Otter Tail County,Hillview,Hillview,,46.6834592,-95.2585691,,,,human,true,
Holy Cross Catholic Cemetery,United States,Minnesota,Otter Tail County,Butler,Butler,,46.6876214,-95.3599046,,,,human,true,
Immanuel Lutheran Church Cemetery,United States,Minnesota,Otter Tail County,Lakeview Estates,Lakeview Estates,,46.369901,-96.027634,,,,human,true,
Inman Cemetery,United States,Minnesota,Otter Tail County,Deer Creek,Deer Creek,,46.325272,-95.3625156,,,,human,true,
Inspiration Peak Cemetery,United States,Minnesota,Douglas County,Millerville,Millerville,,46.1366381,-95.5842701,,,,human,true,
Knollwood Memorial Gardens,United States,Minnesota,Otter Tail County,Country Manor Mobile Home Park,Country Manor Mobile Home Park,,46.2399109,-96.0427649,,,,human,true,
Kongsberg Cemetery,United States,Minnesota,Otter Tail County,Lakeview Estates,Lakeview Estates,,46.3191598,-96.0302315,,,,human,true,
Kvam Cemetery,United States,Minnesota,Grant County,Ashby,Ashby,,46.1451298,-95.8440212,,,,human,true,
Lake Lida Cemetery,United States,Minnesota,Otter Tail County,Edwards,Edwards,,46.5147761,-95.990333,,,,human,true,
Lake View Cemetery,United States,Minnesota,Otter Tail County,Pelican Rapids Mobile Home Park,Pelican Rapids Mobile Home Park,,46.5850573,-96.0830404,,,,human,true,
Lakeside Cemetery,United States,Minnesota,Grant County,Ashby,Ashby,,46.1494529,-95.8016335,,,,human,true,
Lakeview-Sunset Memorial Gardens,United States,Minnesota,Otter Tail County,Underwood,Underwood,,46.289215,-95.870881,,,,human,true,
Sverdrup Cemetery,United States,Minnesota,Otter Tail County,Underwood,Underwood,,46.2988808,-95.8629529,,,,human,true,
Lakewood Cemetery,United States,Minnesota,Otter Tail County,Battle Lake Mobile Home Court,Battle Lake Mobile Home Court,,46.2794043,-95.7003488,,,,human,true,
Our Lady of the Lake Catholic Cemetery,United States,Minnesota,Otter Tail County,Battle Lake Mobile Home Court,Battle Lake Mobile Home Court,,46.311961,-95.7075501,,,,human,true,
Leaf Lake Cemetery,United States,Minnesota,Otter Tail County,Leaf City (historical),Leaf City (historical),,46.3884208,-95.4395344,,,,human,true,
Leaf Lake Finnish Cemetery,United States,Minnesota,Otter Tail County,Leaf City (historical),Leaf City (historical),,46.3837415,-95.5164144,,,,human,true,
Leaf Mountain Cemetery,United States,Minnesota,Otter Tail County,Urbank,Urbank,,46.1663988,-95.5870053,,,,human,true,
Linnea Mission Covenant Church Cemetery,United States,Minnesota,Otter Tail County,Vining,Vining,,46.194727,-95.5462311,,,,human,true,
Little Bethany Church Cemetery,United States,Minnesota,Otter Tail County,Norwegian Grove,Norwegian Grove,,46.6199139,-96.2802086,,,,human,true,
Maplewood Lutheran Cemetery,United States,Minnesota,Otter Tail County,Edwards,Edwards,,46.5028233,-95.9575075,,,,human,true,
Maplewood Presbyterian Cemetery,United States,Minnesota,Otter Tail County,Edwards,Edwards,,46.4844867,-95.9488816,,,,human,true,
Messiah Lutheran Church Cemetery,United States,Minnesota,Otter Tail County,Underwood,Underwood,,46.3270349,-95.8872626,,,,human,true,
Mount Pleasant Cemetery,United States,Minnesota,Otter Tail County,Clitherall,Clitherall,,46.268942,-95.656134,,,,human,true,
Norderhaug Leaf Lake Cemetery,United States,Minnesota,Otter Tail County,Leaf City (historical),Leaf City (historical),,46.384264,-95.4755296,,,,human,true,
North Immanuel Cemetery,United States,Minnesota,Otter Tail County,Norwegian Grove,Norwegian Grove,,46.609604,-96.2141065,,,,human,true,
Northwest Cemetery,United States,Minnesota,Otter Tail County,Pelican Rapids Mobile Home Park,Pelican Rapids Mobile Home Park,,46.5906912,-96.1160054,,,,human,true,
Norwegian Grove Cemetery,United States,Minnesota,Otter Tail County,Norwegian Grove,Norwegian Grove,,46.5690206,-96.1827218,,,,human,true,
Oak Grove Cemetery,United States,Minnesota,Otter Tail County,Lakeview Estates,Lakeview Estates,,46.2873378,-96.0493306,,,,human,true,
Oak Hill Cemetery,United States,Minnesota,Otter Tail County,Deer Creek,Deer Creek,,46.4025379,-95.343703,,,,human,true,
Oak Ridge Cemetery,United States,Minnesota,Otter Tail County,Almora,Almora,,46.2528928,-95.3632138,,,,human,true,
Oak Valley Cemetery,United States,Minnesota,Otter Tail County,Wrightstown,Wrightstown,,46.2971551,-95.1814893,,,,human,true,
Oakwood Cemetery,United States,Minnesota,Otter Tail County,Basswood,Basswood,,46.4300862,-95.6992712,,,,human,true,
Ottertail Union Cemetery,United States,Minnesota,Otter Tail County,Ottertail,Ottertail,,46.3982393,-95.5812648,,,,human,true,
Saint Otto's Cemetery,United States,Minnesota,Otter Tail County,Lakeview Estates,Lakeview Estates,,46.3007615,-96.0507765,,,,human,true,
Trinity Faith Cemetery,United States,Minnesota,Otter Tail County,Lakeview Estates,Lakeview Estates,,46.3065369,-96.0507952,,,,human,true,
Our Saviors Lutheran Cemetery,United States,Minnesota,Otter Tail County,Dalton,Dalton,,46.1742479,-95.9251483,,,,human,true,
Paddock Bethany Cemetery,United States,Minnesota,Otter Tail County,Hillview,Hillview,,46.6374366,-95.1853287,,,,human,true,
Parkers Prairie Cemetery,United States,Minnesota,Otter Tail County,Parkers Prairie Park,Parkers Prairie Park,,46.1495783,-95.3396561,,,,human,true,
Quincy Cemetery,United States,Minnesota,Norman County,Hendrum,Hendrum,,47.2691014,-96.8473017,,,,human,true,
Eagle Cemetery,United States,Minnesota,Wilkin County,Wolverton,Wolverton,,46.5760291,-96.7582105,,,,human,true,
East Walle Evangelical Lutheran,United States,Minnesota,Polk County,Bygland,Bygland,,47.7887093,-96.9799667,,,,human,true,
North Ringsaker Cemetery,United States,Minnesota,Polk County,Climax,Climax,,47.646922,-96.8984404,,,,human,true,
Rosendahl Cemetery,United States,Minnesota,Polk County,Bygland,Bygland,,47.6870889,-96.9182246,,,,human,true,
Evergreen Cemetery,United States,Minnesota,Clay County,Moorhead,Moorhead,,46.8410097,-96.7700162,,,,human,true,
Verndale Greenlawn Cemetery,United States,Minnesota,Wadena County,Verndale,Verndale,,46.3972345,-95.0263135,,,,human,true,
St Gall's Catholic Cemetery,United States,Minnesota,Traverse County,Tintah,Tintah,,46.0077735,-96.313644,,,,human,true,
Salem Cemetery,United States,Minnesota,Red Lake County,Garnes,Garnes,,47.9060353,-95.8477418,,,,human,true,
Linnell Cemetery,United States,Minnesota,Becker County,Osage,Osage,,46.9483965,-95.3114362,,,,human,true,
Ada Cemetery,United States,Minnesota,Norman County,Merry Lane Mobile Home Park,Merry Lane Mobile Home Park,,47.2948227,-96.5017519,,,,human,true,
New Sweden Cemetery,United States,Minnesota,Polk County,Bartz Mobile Home Park,Bartz Mobile Home Park,,47.7100191,-95.896006,,,,human,true,
Asumption Catholic Cemetary,United States,Minnesota,Becker County,Callaway,Callaway,,46.9914309,-95.9082236,,,,human,true,
Wadena Cemetery,United States,Minnesota,Wadena County,Wadena,Wadena,,46.4386979,-95.1505469,,,,human,true,
St Joseph's Cemetery,United States,Minnesota,Red Lake County,Brooks,Brooks,,47.8181898,-96.0115164,,,,human,true,
Saron Cemetary,United States,Minnesota,Polk County,Johnson's Mobile Home Park,Johnson's Mobile Home Park,,47.7271443,-96.0071451,,,,human,true,
Emmardville Cemetery,United States,Minnesota,Red Lake County,Plummer,Plummer,,47.880308,-96.0699047,,,,human,true,
Clearwater Church Cementary,United States,Minnesota,Red Lake County,Plummer,Plummer,,47.9785406,-96.054867,,,,human,true,
Bagley Cemetery,United States,Minnesota,Clearwater County,Stinar Whispering Pines Mobile Home Park,Stinar Whispering Pines Mobile Home Park,,47.5334942,-95.3924525,,,,human,true,
Maple Bay Free Lutheran Cemetery,United States,Minnesota,Polk County,Maple Bay,Maple Bay,,47.6332841,-96.2156341,,,,human,true,
Hawley Cemetery,United States,Minnesota,Clay County,Hawley,Hawley,,46.8817609,-96.3341159,,,,human,true,
Greenwood Cemetery,United States,Minnesota,Polk County,Fisher,Fisher,,47.7922731,-96.7938262,,,,human,true,
Fisher Cemetery,United States,Minnesota,Polk County,Fisher,Fisher,,47.8108244,-96.8058855,,,,human,true,
Cass County Cemetery #2,United States,Minnesota,Clay County,Oakport,Oakport,,46.9273076,-96.7792132,,,,human,true,
Greenwood Cemetery,United States,Minnesota,Hubbard County,Park Estates,Park Estates,,46.9200098,-95.0285867,,,,human,true,
West Cemetary,United States,MN,Wadena County,Sebeka,119th Avenue,,46.6389955,-95.1226653,,,,human,true,
Mantyla Cemetary,United States,MN,Wadena County,Sebeka,308th Street,,46.6686488,-95.0920814,,,,human,true,
Breck Memorial Cemetery,United States,Minnesota,Becker County,Pine Point,Pine Point,,46.9779654,-95.385526,,,,human,true,
St Paul Ev Lutheran Cemetary,United States,Minnesota,Polk County,Lengby,Lengby,,47.5146811,-95.6405993,,,,human,true,
Red Lake Cemetery,United States,Minnesota,Beltrami County,Red Lake,Red Lake,,47.8765391,-95.0538256,,,,human,true,
Cass County Cemetery #1,United States,Minnesota,Clay County,Oakport,Oakport,,46.9247201,-96.7769283,,,,human,true,
Silver Creek Cemetery,United States,MN,Clearwater County,Clearbrook,17335 470th Street,56634,47.6877891,-95.4210556,,,,human,true,
Greenwood Lutheran Cemetery,United States,Minnesota,Clearwater County,Clearbrook,Clearbrook,,47.7516752,-95.3886505,,,,human,true,
Friendship Cemetery,United States,Minnesota,Clearwater County,Clearbrook,Clearbrook,,47.731883,-95.3607783,,,,human,true,
Augustana Cemetery,United States,MN,Clearwater County,Clearbrook,15846 470th Street,56634,47.6883591,-95.4533574,,,,human,true,
Elim Cemetery,United States,MN,Clearwater County,Clearbrook,14804 470th Street,56634,47.6884639,-95.4765465,,,,human,true,
Holy Cross Cemetery,United States,Minnesota,Clay County,Oakport,Oakport,,46.9180972,-96.8085393,,,,human,true,
Springvale Cemetery,United States,Minnesota,Clay County,Oakport,Oakport,,46.9183588,-96.8049472,,,,human,true,
Beth El Memorial Park,United States,Minnesota,Clay County,Oakport,Oakport,,46.9183432,-96.803132,,,,human,true,
Oak Knoll Cemetery,United States,Minnesota,Otter Tail County,Henning,Henning,,46.3515173,-95.4319212,,,,human,true,
St Olaf Cemetery,United States,Minnesota,Otter Tail County,Dalton Trailer Court,Dalton Trailer Court,,46.1484423,-95.869312,,,,human,true,
"St, Frederick's Catholic Cemetery",United States,Minnesota,Wadena County,Verndale,16278 120th Street,,46.3983813,-95.0265064,,,,human,true,
Nazareth Cemetary,United States,MN,Red Lake County,Trail,380th Avenue Southeast,,47.9562478,-95.6677583,,,,human,true,
Oak Grove Cemetery,United States,Minnesota,Becker County,Detroit Lakes,Detroit Lakes,,46.8313362,-95.8513833,,,,human,true,
Auran Finnish Cemetery,United States,Minnesota,Becker County,Richwood,Richwood,,47.0201213,-95.7690236,,,,human,true,
Saint Paul's Lutheran Cemetery,United States,Minnesota,Becker County,Evergreen,Evergreen,,46.76118,-95.5106291,,,,human,true,
Green Hills Cemetery,United States,Minnesota,Wadena County,Sebeka,Sebeka,,46.6160152,-95.0891964,,,,human,true,
Immanuel Lutheran Cemetery,United States,Minnesota,Norman County,Hendrum,Hendrum,,47.2867362,-96.8160589,,,,human,true,
Riverside Cemetery,United States,Minnesota,Norman County,Hendrum,Hendrum,,47.2571106,-96.7946685,,,,human,true,
Poplar Lake Cemetery,United States,Minnesota,Polk County,Lengby,Lengby,,47.5391963,-95.6604376,,,,human,true,
Freedom Cemetery,United States,Minnesota,Polk County,Lengby,Lengby,,47.5212092,-95.5866357,,,,human,true,
Scandia Cemetery,United States,Minnesota,Clay County,Averill,Averill,,47.0066335,-96.5430226,,,,human,true,
Mt Olive Cemetery,United States,Minnesota,Polk County,Trail,Trail,,47.8489839,-95.7164265,,,,human,true,
Evander Cemetery,United States,Minnesota,Otter Tail County,Battle Lake,Battle Lake,,46.1760199,-95.7026403,,,,human,true,
Chilton Cemetary,United States,Minnesota,Becker County,Frazee,Frazee,,46.7612484,-95.7115323,,,,human,true,
Island Lake Cemetery,United States,Minnesota,Beltrami County,Island Lake,Island Lake,,47.7785983,-95.0084373,,,,human,true,
Sybil Lake Cemetery,United States,Minnesota,Otter Tail County,Vergas,Vergas,,46.6338465,-95.7610885,,,,human,true,
St Pauli Cemetery,United States,Minnesota,Norman County,Hendrum,Hendrum,,47.2669423,-96.7767128,,,,human,true,
Zion Cemetery,United States,Minnesota,Clay County,Muskoda,Muskoda,,46.7719935,-96.366216,,,,human,true,
Norman County Cemetery,United States,Minnesota,Norman County,Heiberg,Heiberg,,47.2664901,-96.3849121,,,,human,true,
Saint Pauls Lutheran Cemetery,United States,Minnesota,Todd County,Bertha,Bertha,,46.2371784,-95.0844935,,,,human,true,
Greenwood Cemetery,United States,Minnesota,Beltrami County,Skyline Mobile Park,Skyline Mobile Park,,47.4891695,-94.8825929,,,,human,true,
Evergreen Cemetery,United States,Minnesota,Beltrami County,Northern Trailer Park,Northern Trailer Park,,47.5584183,-94.8859759,,,,human,true,
Saint Theodores Cemetery,United States,Minnesota,Hubbard County,Laporte,Laporte,,47.2153064,-94.7645811,,,,human,true,
Evergreen Cemetery,United States,Minnesota,Crow Wing County,Brainerd,Brainerd,,46.3695039,-94.1881714,,,,human,true,
Hill Lake Cemetery,United States,MN,Aitkin County,Hill City,678th Street,55748,46.9945647,-93.624154,,,,human,true,
Nymore Cemetery,United States,Minnesota,Beltrami County,Southview Mobile Home Park,Southview Mobile Home Park,,47.457513,-94.8537529,,,,human,true,
Bennetville Cemetary,United States,Minnesota,Aitkin County,Bennettville,Bennettville,,46.4017991,-93.7706564,,,,human,true,
St. Thomas Cemetary,United States,MN,Aitkin County,Aitkin,35394 422nd Place,56431,46.5234061,-93.7322045,,,,human,true,
Lakeview Cemetary,United States,MN,Aitkin County,Aitkin,35381 422nd Place,56431,46.5227579,-93.7365531,,,,human,true,
Spencer Cemetary,United States,MN,Aitkin County,Aitkin,35294 387th Avenue,56431,46.522567,-93.6585195,,,,human,true,
Rice River Cemetary,United States,Minnesota,Aitkin County,East Lake,East Lake,,46.4873506,-93.2416803,,,,human,true,
Ball Bluff Cemetery,United States,Minnesota,Aitkin County,Ball Bluff,Ball Bluff,,46.9548916,-93.2690565,,,,human,true,
Woodlawn Cemetary,United States,Minnesota,Aitkin County,McGregor,McGregor,,46.5984777,-93.3013186,,,,human,true,
Woodlawn Cemetary,United States,Minnesota,Aitkin County,McGregor,McGregor,,46.5972371,-93.300177,,,,human,true,
Fairview Cemetary,United States,Minnesota,Aitkin County,Tamarack,Tamarack,,46.6370028,-93.1514478,,,,human,true,
Grayling Cemetary,United States,Minnesota,Aitkin County,Grayling,Grayling,,46.6225322,-93.2150557,,,,human,true,
Macville Cemetary,United States,Minnesota,Aitkin County,Haypoint,Haypoint,,46.8954885,-93.6125416,,,,human,true,
veterans,United States,Minnesota,Mille Lacs County,Onamia,Onamia,,46.0627679,-93.6764917,,,,human,true,
Catholic Cemetery,United States,Minnesota,Mille Lacs County,Onamia,Onamia,,46.0625365,-93.6719317,,,,human,true,
Bear River Cemetery,United States,Minnesota,Saint Louis County,Bear River,Bear River,,47.7781693,-93.0244568,,,,human,true,
Christ the King Cemetery,United States,Minnesota,Todd County,Browerville,Browerville,,46.077167,-94.8631381,,,,human,true,
Evergreen Cemetary,United States,Minnesota,Todd County,Browerville,Browerville,,46.0954249,-94.8660519,,,,human,true,
Nashwauk Cemetery,United States,Minnesota,Itasca County,Nashwauk,Nashwauk,,47.3857369,-93.1948666,,,,human,true,
Pine Grove Cemetery,United States,Minnesota,Cass County,Cass Lake,Cass Lake,,47.3855887,-94.6155413,,,,human,true,
Minnesota State Veterans Cemetery - Little Falls,United States,Minnesota,Morrison County,Camp Ripley Junction,Camp Ripley Junction,,46.0754417,-94.3311128,,,,human,true,
Jenkins Cemetery,United States,Minnesota,Crow Wing County,Jenkins,Jenkins,,46.6536316,-94.3236774,,,,human,true,
Hillcrest Cemetery,United States,Minnesota,Cass County,Hackensack,Hackensack,,46.9148301,-94.5195044,,,,human,true,
Hillcrest Cemetery,United States,Minnesota,Cass County,Hackensack,Hackensack,,46.9149851,-94.518997,,,,human,true,
Round Lake Cemetery,United States,Minnesota,Aitkin County,Sheshebee,Sheshebee,,46.7042744,-93.2062028,,,,human,true,
Thompson Cemetary,United States,Minnesota,Cass County,Cass Lake,Cass Lake,,47.3656752,-94.6081115,,,,human,true,
Wright Public Cemetery,United States,Minnesota,Carlton County,Wright,Wright,,46.6696744,-93.0092489,,,,human,true,
St. Mary's Catholic Cemetery,United States,Minnesota,Carlton County,Wright,Wright,,46.6739261,-93.00196,,,,human,true,
Lakeview Cemetary,United States,Minnesota,Carlton County,Wright,Wright,,46.6685223,-93.001109,,,,human,true,
Evergreen Cemetery,United States,Minnesota,Cass County,Backus,Backus,,46.8185606,-94.5033684,,,,human,true,
Evergreen Cemetery,United States,Minnesota,Cass County,Walker,Walker,,47.0984172,-94.5996169,,,,human,true,
Zion Lutheran Cemetary,United States,Minnesota,Wadena County,Blue Grass,Blue Grass,,46.6160569,-94.9783769,,,,human,true,
Randall Cemetery,United States,Minnesota,Morrison County,Randall,Randall,,46.0902018,-94.5141672,,,,human,true,
Randall Cemetery,United States,Minnesota,Morrison County,Randall,Randall,,46.0912193,-94.5141444,,,,human,true,
North Round Lake Cemetery,United States,Minnesota,Itasca County,Squaw Lake,Squaw Lake,,47.6283131,-94.1470471,,,,human,true,
Green Prairie Cemetery,United States,Minnesota,Morrison County,Camp Ripley Junction,Camp Ripley Junction,,46.1024281,-94.3524719,,,,human,true,
Woodman Cemetery,United States,Minnesota,Todd County,Clarissa,Clarissa,,46.1321269,-94.9282415,,https://www.findagrave.com/cemetery/83867/woodman-cemetery,,human,true,
Deerwood Scandia Cemetery,United States,Minnesota,Crow Wing County,Deerwood Mobile Home Park,Deerwood Mobile Home Park,,46.4560492,-93.8839109,,,,human,true,
Memorial Gardens,United States,Minnesota,Crow Wing County,Supreme Mobile Court,Supreme Mobile Court,,46.4020859,-94.1739508,,,,human,true,
Shell City Cemetary,United States,Minnesota,Wadena County,Huntersville,Huntersville,,46.7908847,-94.953422,,,,human,true,
Memorial Cemetery,United States,Minnesota,Beltrami County,Country Lane Manufactured Home Park,Country Lane Manufactured Home Park,,47.3930643,-94.9457879,,,,human,true,
Guthrie Cemetery,United States,Minnesota,Hubbard County,Guthrie,Guthrie,,47.2921845,-94.7919539,,,,human,true,
Lyons Cemetery,United States,Minnesota,Wadena County,Oylen,Oylen,,46.6101078,-94.8280419,,,,human,true,
Oneota Cemetery,United States,Minnesota,Saint Louis County,Oneota,Oneota,,46.7502439,-92.1804774,,,,human,true,
Polish Catholic Cemetery,United States,Minnesota,Saint Louis County,Arnold,Arnold,,46.8589108,-92.1076876,,,,human,true,
Greenwood Cemetery,United States,Minnesota,Saint Louis County,West Virginia,West Virginia,,47.5284621,-92.5559117,,,,human,true,
Rose Hill Cemetery,United States,Minnesota,Pine County,Evergreen Park,Evergreen Park,,46.0099189,-92.9283777,,,,human,true,
Lakeview Cemetery,United States,Minnesota,Lake County,Two Harbors,Two Harbors,,47.0242743,-91.6858672,,,,human,true,
