name,country,state,county,city,street_address,zip_code,latitude,longitude,email,website,phone_number,type,is_operational,description
Live Oak Cemetery,United States,North Carolina,Brunswick County,Hickmans Crossroads,Hickmans Crossroads,,33.926283,-78.6289028,,,,human,true,
Gurganus Cemetery,United States,North Carolina,Brunswick County,Monogram,Monogram,,33.9365612,-78.3816702,,,,human,true,
Wilson Cemetery,United States,North Carolina,Brunswick County,Calabash,Calabash,,33.8914547,-78.5625525,,,,human,true,
Oak Grove Cemetery,United States,North Carolina,Brunswick County,Fulford,Fulford,,33.9635055,-78.3241678,,,,human,true,
Georgetown Cemetery,United States,North Carolina,Brunswick County,Varnamtown,Varnamtown,,33.955728,-78.2697211,,,,human,true,
Brunswick Memorial Gardens,United States,North Carolina,Brunswick County,Russtown,Russtown,,33.9555696,-78.4361105,,,,human,true,
Pleasant View Cemetery,United States,North Carolina,Brunswick County,Sea Trail Plantation,Sea Trail Plantation,,33.9093848,-78.5179998,,,,human,true,
John N. Smith Cemetery,United States,North Carolina,Brunswick County,Southport,Southport,,33.9256718,-78.0185453,,,,human,true,
Northwood Cemetery,United States,North Carolina,Brunswick County,Southport,Southport,,33.9274063,-78.0145603,,,,human,true,
Old Smithville Burying Ground,United States,NC,Brunswick County,Southport,401 East Moore Street,28461,33.9207429,-78.0150349,,https://www.southporthistoricalsociety.org/,,human,true,
Parker Cemetery,United States,North Carolina,Brunswick County,Russtown,Russtown,,33.9506296,-78.4477546,,,,human,true,
Mintz Cemetery,United States,North Carolina,Brunswick County,Cool Run,Cool Run,,33.9606108,-78.4736601,,,,human,true,
Silent Grove Cemetery,United States,North Carolina,Brunswick County,Sivey Town,Sivey Town,,33.9484598,-78.3101606,,,,human,true,
Cape Fear Memorial Park,United States,North Carolina,Brunswick County,Coolvale,Coolvale,,33.9551432,-78.0635232,,,,human,true,
Lehew Cemetery,United States,North Carolina,Brunswick County,Red Bug,Red Bug,,33.9879488,-78.359151,,,,human,true,
Bethel Cemetery,United States,North Carolina,Brunswick County,Coolvale,Coolvale,,33.966685,-78.0200054,,,,human,true,
Riley Hewett Cemetery,United States,North Carolina,Brunswick County,Sivey Town,Sivey Town,,33.953227,-78.2988112,,,,human,true,
Bennett Cemetery,United States,North Carolina,Brunswick County,Regan,Regan,,33.9805745,-78.5878791,,,,human,true,
Blanton Cemetery,United States,North Carolina,Brunswick County,Hickmans Crossroads,Hickmans Crossroads,,33.939019,-78.6142039,,,,human,true,
Manley Bennett Cemetery,United States,North Carolina,Brunswick County,Iredell,Iredell,,33.9339148,-78.5961052,,,,human,true,
Register Cemetery,United States,North Carolina,Brunswick County,Summerhomes Mobile Home Park,Summerhomes Mobile Home Park,,33.932964,-78.3997885,,,,human,true,
Blankenship Cemetery,United States,North Carolina,Graham County,Tuskeegee,Tuskeegee,,35.4134232,-83.722672,,,,human,true,
Bone Valley Cemetery,United States,North Carolina,Swain County,Proctor,Proctor,,35.4998757,-83.6824213,,,,human,true,
Cable Cemetery,United States,North Carolina,Graham County,Hidetown,Hidetown,,35.3750916,-83.6415569,,,,human,true,
Carver Cemetery,United States,North Carolina,Swain County,Ravensford,Ravensford,,35.5677351,-83.3070235,,,,human,true,
Chambers Cemetery,United States,North Carolina,Swain County,Ravensford,Ravensford,,35.5334223,-83.3020598,,,,human,true,
Clayton Cemetery,United States,North Carolina,Jackson County,Addie,Addie,,35.4073625,-83.1589804,,,,human,true,
Conner Cemetery,United States,North Carolina,Swain County,Ravensford,Ravensford,,35.5375987,-83.3034852,,,,human,true,
Coom Cemetery,United States,North Carolina,Graham County,Lake Santeetlah,Lake Santeetlah,,35.3848088,-83.8776794,,,,human,true,
Edwards Cemetery,United States,North Carolina,Graham County,Hidetown,Hidetown,,35.3756464,-83.6812811,,,,human,true,
Entoe Cemetery,United States,North Carolina,Swain County,Ravensford,Ravensford,,35.514363,-83.3077471,,,,human,true,
Farrow Cemetery,United States,North Carolina,Cherokee County,Ogreeta,Ogreeta,,35.1459145,-84.1546373,,,,human,true,
Garrett Cemetery,United States,North Carolina,Cherokee County,Violet,Violet,,35.1917469,-84.1807499,,,,human,true,
Hall Cemetery,United States,North Carolina,Swain County,Proctor,Proctor,,35.5224246,-83.675756,,,,human,true,
Higdon Cemetery,United States,North Carolina,Swain County,Proctor,Proctor,,35.4989794,-83.695726,,,,human,true,
Husky Cemetery,United States,North Carolina,Swain County,Ravensford,Ravensford,,35.5457804,-83.3011947,,,,human,true,
Lenderman Cemetery,United States,North Carolina,Cherokee County,Vests,Vests,,35.1527561,-84.2010834,,,,human,true,
Mac Cemetery,United States,North Carolina,Swain County,Ravensford,Ravensford,,35.5825971,-83.3484882,,,,human,true,
Mitchell Cemetery,United States,North Carolina,Swain County,Proctor,Proctor,,35.4504395,-83.6819719,,,,human,true,
Orr Cemetery,United States,North Carolina,Graham County,Tapoco,Tapoco,,35.422585,-83.9454595,,,,human,true,
Queens Cemetery,United States,North Carolina,Swain County,Ravensford,Ravensford,,35.5257177,-83.3072027,,,,human,true,
Rose Cemetery,United States,North Carolina,Cherokee County,Violet,Violet,,35.1789688,-84.2001951,,,,human,true,
Slave Cemetery,United States,North Carolina,Swain County,Ravensford,Ravensford,,35.5211197,-83.3100594,,,,human,true,
Allen Cemetery,United States,North Carolina,Cherokee County,Postell,Postell,,35.0698027,-84.23214,,,,human,true,
Bryson Cemetery,United States,North Carolina,Cherokee County,Unaka,Unaka,,35.1775816,-84.122692,,,,human,true,
Cable Branch Cemetery,United States,North Carolina,Swain County,Proctor,Proctor,,35.4640286,-83.7537527,,,,human,true,
Hiram Caldwell Cemetery,United States,North Carolina,Haywood County,Nellie,Nellie,,35.6271733,-83.1159534,,,,human,true,
Clonts Cemetery,United States,North Carolina,Cherokee County,Friendship,Friendship,,35.0764703,-84.1729708,,,,human,true,
Cooper Cemetery,United States,North Carolina,Swain County,Ela,Ela,,35.4459304,-83.3921004,,,,human,true,
Dickey Cemetery,United States,North Carolina,Cherokee County,Letitia,Letitia,,35.0134156,-84.1446355,,,,human,true,
Ferguson Cemetery,United States,North Carolina,Cherokee County,Peachtree,Peachtree,,35.0823071,-83.972684,,,,human,true,
Galbraith Cemetery,United States,North Carolina,Swain County,Ela,Ela,,35.4584135,-83.4067398,,,,human,true,
Grant Cemetery,United States,North Carolina,Swain County,Talc Mountain,Talc Mountain,,35.305871,-83.6170044,,,,human,true,
Hamby Cemetery,United States,North Carolina,Cherokee County,Hiwassee,Hiwassee,,35.1536901,-84.2618639,,,,human,true,
Harrell Cemetery,United States,North Carolina,Haywood County,Mount Sterling,Mount Sterling,,35.7377601,-83.0773102,,,,human,true,
Hickey Cemetery,United States,North Carolina,Cherokee County,Friendship,Friendship,,35.0606369,-84.1863046,,,,human,true,
Hunter Cemetery,United States,North Carolina,Haywood County,Teague (historical),Teague (historical),,35.6576158,-83.0230416,,,,human,true,
James Cemetery,United States,North Carolina,Cherokee County,Grape Creek,Grape Creek,,35.0798048,-84.0982453,,,,human,true,
James Cemetery,United States,North Carolina,Cherokee County,Grape Creek,Grape Creek,,35.125916,-84.0821341,,,,human,true,
Jones Cemetery,United States,North Carolina,Swain County,Whittier,Whittier,,35.400653,-83.3665431,,,,human,true,
Kirkland Cemetery,United States,North Carolina,Cherokee County,Letitia,Letitia,,35.0714708,-84.1457473,,,,human,true,
Kirkland Cemetery,United States,North Carolina,Swain County,Lackey Hill,Lackey Hill,,35.4189851,-83.4290466,,,,human,true,
Lambert Cemetery,United States,North Carolina,Swain County,Oconaluftee Indian Village,Oconaluftee Indian Village,,35.487599,-83.3090406,,,,human,true,
Laney Cemetery,United States,North Carolina,Swain County,Jenkins Place,Jenkins Place,,35.482067,-83.4123725,,,,human,true,
Leatherwood Cemetery,United States,North Carolina,Haywood County,Jonathan,Jonathan,,35.5756579,-83.0056949,,,,human,true,
Ledbetter Cemetery,United States,North Carolina,Swain County,Almond,Almond,,35.3412042,-83.5634969,,,,human,true,
Ledford Cemetery,United States,North Carolina,Clay County,Elf,Elf,,35.0306467,-83.7571157,,,,human,true,
Lower Noland Cemetery,United States,North Carolina,Swain County,Solola Valley,Solola Valley,,35.4864836,-83.5093295,,,,human,true,
Martin Cemetery,United States,North Carolina,Cherokee County,Murphy,Murphy,,35.0564718,-84.0826888,,,,human,true,
Mc Connell Cemetery,United States,North Carolina,Macon County,Norton,Norton,,35.0387025,-83.3582099,,,,human,true,
Mc Guire Cemetery,United States,North Carolina,Cherokee County,Peachtree,Peachtree,,35.0856406,-83.9679616,,,,human,true,
Morgan Cemetery,United States,North Carolina,Macon County,Stiles,Stiles,,35.2800944,-83.4859919,,,,human,true,
Morrow Cemetery,United States,North Carolina,Swain County,Lackey Hill,Lackey Hill,,35.4445006,-83.4373349,,,,human,true,
Mount Zion Cemetery,United States,North Carolina,Macon County,Oak Hill,Oak Hill,,35.1781674,-83.4121204,,,,human,true,
Orr Cemetery,United States,North Carolina,Swain County,Fairfax,Fairfax,,35.4545317,-83.8404545,,,,human,true,
Owl Cemetery,United States,North Carolina,Swain County,Whittier,Whittier,,35.4270418,-83.3718213,,,,human,true,
Payne Cemetery,United States,North Carolina,Cherokee County,Letitia,Letitia,,35.0661934,-84.123524,,,,human,true,
Queen Cemetery,United States,North Carolina,Swain County,Jenkins Place,Jenkins Place,,35.4991149,-83.4007369,,,,human,true,
Randolph Cemetery,United States,North Carolina,Graham County,Hidetown,Hidetown,,35.3731463,-83.6846146,,,,human,true,
Roundhill Cemetery,United States,North Carolina,Haywood County,Jonathan,Jonathan,,35.5520468,-83.0204172,,,,human,true,
Sherrill Cemetery,United States,North Carolina,Swain County,Ela,Ela,,35.4478752,-83.3795997,,,,human,true,
Stamper Cemetery,United States,North Carolina,Jackson County,Paint Town,Paint Town,,35.4794836,-83.2688061,,,,human,true,
Stiles Cemetery,United States,North Carolina,Macon County,Tumblerville,Tumblerville,,35.0992597,-83.3607094,,,,human,true,
Stiles Cemetery,United States,North Carolina,Swain County,Roundhill,Roundhill,,35.4569116,-83.517851,,,,human,true,
Suit Cemetery,United States,North Carolina,Cherokee County,Friendship,Friendship,,35.0917473,-84.2132504,,,,human,true,
Sutton Cemetery,United States,North Carolina,Haywood County,Crestmont,Crestmont,,35.7400977,-83.0875693,,,,human,true,
Tabor Cemetery,United States,North Carolina,Swain County,Almond,Almond,,35.36176,-83.5554412,,,,human,true,
Timpson Cemetery,United States,North Carolina,Cherokee County,Grape Creek,Grape Creek,,35.1017494,-84.085745,,,,human,true,
Upper Noland Cemetery,United States,North Carolina,Swain County,Solola Valley,Solola Valley,,35.4962061,-83.4987737,,,,human,true,
Walker Cemetery,United States,North Carolina,Cherokee County,Letitia,Letitia,,35.0448043,-84.1410246,,,,human,true,
Welch Cove Cemetery,United States,North Carolina,Graham County,Fontana Village,Fontana Village,,35.4355873,-83.8239656,,,,human,true,
Wells Cemetery,United States,North Carolina,Cherokee County,Peachtree,Peachtree,,35.0786965,-83.9560163,,,,human,true,
Wiggins-Watson Cemetery,United States,North Carolina,Swain County,Jenkins Place,Jenkins Place,,35.4659229,-83.4204362,,,,human,true,
Wilson Cemetery,United States,North Carolina,Macon County,Lickskillet,Lickskillet,,35.0442576,-83.2731386,,,,human,true,
Young Cemetery,United States,North Carolina,Cherokee County,Postell,Postell,,35.0961909,-84.2590858,,,,human,true,
Odom Cemetery,United States,North Carolina,Graham County,Lake Santeetlah,Lake Santeetlah,,35.3848088,-83.8774016,,,,human,true,
Hunt Cemetery,United States,North Carolina,Clay County,Warne,Warne,,34.9811985,-83.9004571,,,,human,true,
Hopkins Cemetery,United States,North Carolina,Haywood County,Mount Sterling,Mount Sterling,,35.7628162,-83.1059944,,,,human,true,
Walnut Bottoms Cemetery,United States,North Carolina,Haywood County,Crestmont,Crestmont,,35.7201854,-83.1652294,,,,human,true,
Carson-Messer Cemetery,United States,North Carolina,Haywood County,Nellie,Nellie,,35.6042221,-83.0955146,,,,human,true,
Dock Caldwell Cemetery,United States,North Carolina,Haywood County,Nellie,Nellie,,35.6232578,-83.1177952,,,,human,true,
Lawson Jenkins-Kerr Cemetery,United States,North Carolina,Haywood County,Ola,Ola,,35.6684102,-83.0747621,,,,human,true,
Negro Graveyard Cemetery,United States,North Carolina,Haywood County,Ola,Ola,,35.6719066,-83.0728136,,,,human,true,
Palmer Cemetery,United States,North Carolina,Haywood County,Cataloochee,Cataloochee,,35.6406559,-83.0821346,,,,human,true,
Shelton-Caldwell Cemetery,United States,North Carolina,Haywood County,Nellie,Nellie,,35.5965509,-83.1035978,,,,human,true,
Sutton-McGhee Cemetery,United States,North Carolina,Haywood County,Nellie,Nellie,,35.5987106,-83.1007331,,,,human,true,
Cook Cemetery,United States,North Carolina,Swain County,Proctor,Proctor,,35.4516732,-83.7020019,,,,human,true,
Dock Conner Cemetery,United States,North Carolina,Swain County,Ravensford,Ravensford,,35.5742931,-83.337611,,,,human,true,
David Price Cemetery,United States,North Carolina,Haywood County,Waterville,Waterville,,35.7885055,-83.0714763,,,,human,true,
Mashburn Cemetery,United States,North Carolina,Swain County,Wesser,Wesser,,35.316877,-83.6070911,,,,human,true,
Joe Brown Cemetery,United States,North Carolina,Haywood County,Shelton Laurel,Shelton Laurel,,35.7197398,-83.0184895,,,,human,true,
George Cemetery,United States,North Carolina,Jackson County,Olivet,Olivet,,35.4579455,-83.2802069,,,,human,true,
Wilson-Tatham-Bryson Cemetery,United States,North Carolina,Jackson County,Savannah,Savannah,,35.3021937,-83.2635226,,,,human,true,
Bradleys Cemetery,United States,North Carolina,Haywood County,Suttontown,Suttontown,,35.6088525,-83.0376252,,,,human,true,
John Henry Cemetery,United States,North Carolina,Haywood County,Maggie Valley,Maggie Valley,,35.5191862,-83.0851163,,,,human,true,
Robert Palmer Cemetery,United States,North Carolina,Haywood County,Cataloochee,Cataloochee,,35.6175165,-83.0842827,,,,human,true,
McMahan's Grave,United States,North Carolina,Haywood County,Ola,Ola,,35.6956326,-83.1034882,,,,human,true,
Long Bunk Cemetery,United States,North Carolina,Haywood County,Ola,Ola,,35.6966959,-83.1079629,,,,human,true,
Oxner Cemetery,United States,North Carolina,Haywood County,Saunook,Saunook,,35.467813,-83.0467811,,,,human,true,
Ascension Episcopal Chapel Cemetery,United States,North Carolina,Macon County,Rainbow Springs,Rainbow Springs,,35.0970146,-83.5438203,,,,human,true,
Welch-Blythe Cemetery,United States,North Carolina,Cherokee County,Coalville,Coalville,,35.1818937,-83.9073851,,,,human,true,
Carver Cemetery,United States,NC,Graham County,Robbinsville,Robbinsville,28771,35.3285449,-83.8670368,,,,human,true,
Valleytown Cemetery,United States,North Carolina,Cherokee County,Valleytown,Valleytown,,35.1994262,-83.8085195,,,,human,true,
Hayesville First United Methodist Church Cemetery,United States,North Carolina,Clay County,Hayesville,Hayesville,,35.0360128,-83.8182535,,,,human,true,
Valley River Cemetery,United States,North Carolina,Cherokee County,Andrews,Andrews,,35.1916792,-83.8377117,,,,human,true,
Moss Cemetery,United States,NC,Cherokee County,Marble,2698 Airport Road,28905,35.1819359,-83.9131849,,,,human,true,
Garrett Cemetery,United States,North Carolina,Haywood County,Jonathan,Jonathan,,35.5521975,-83.0169707,,,,human,true,
Moody Cemetery,United States,North Carolina,Haywood County,Jonathan,Jonathan,,35.5580296,-83.0353131,,,,human,true,
Cullowhee Cemetery,United States,North Carolina,Jackson County,Cullowhee,Cullowhee,,35.3138639,-83.1783573,,,,human,true,
Stillwell Cemetery,United States,North Carolina,Jackson County,Webster,Webster,,35.3328158,-83.2302135,,,,human,true,
Queen Cemetery,United States,North Carolina,Jackson County,Argura,Argura,,35.2605053,-83.0282407,,,,human,true,
Miller Cemetery,United States,North Carolina,Macon County,Lickskillet,Lickskillet,,35.0829218,-83.257131,,,,human,true,
Fairview Memorial Gardens,United States,North Carolina,Jackson County,Love Field,Love Field,,35.3507694,-83.1992243,,,,human,true,
Dills Cemetery,United States,North Carolina,Jackson County,Sylva,Sylva,,35.3798464,-83.2306589,,,,human,true,
Franklin Cemetery,United States,North Carolina,Jackson County,Dillsboro,Dillsboro,,35.3775237,-83.2619228,,,,human,true,
Highlands Cemetery,United States,North Carolina,Macon County,Highlands,Highlands,,35.0642827,-83.2015684,,,,human,true,
Robert Rogers Cemetery,United States,North Carolina,Jackson County,Forest Hills,Forest Hills,,35.2979589,-83.1779566,,,,human,true,
Woodlawn Cemetery,United States,North Carolina,Macon County,Oak Hill,Oak Hill,,35.1724906,-83.400054,,,,human,true,
Bethany Cemetery,United States,North Carolina,Cherokee County,Bellview,Bellview,,34.9805563,-84.1012162,,,,human,true,
Sneed Cemetery,United States,North Carolina,Swain County,Cherokee,Cherokee,,35.4723751,-83.3058028,,,,human,true,
Tolley Cemetery,United States,North Carolina,Swain County,Cherokee,Cherokee,,35.4717475,-83.3046489,,,,human,true,
Cochran Cemetery,United States,North Carolina,Swain County,Ravensford,Ravensford,,35.5453613,-83.2851182,,,,human,true,
Yellow Hill Cemetery,United States,North Carolina,Swain County,Oconaluftee Indian Village,Oconaluftee Indian Village,,35.4856825,-83.3111928,,,,human,true,
Arlington Cemetery,United States,North Carolina,Swain County,Bryson City,Bryson City,,35.4134579,-83.4523357,,,,human,true,
Jenkins Branch Cemetery,United States,North Carolina,Swain County,Bryson City,Bryson City,,35.413064,-83.4572599,,,,human,true,
Jenkins Cemetery,United States,North Carolina,Swain County,Franklin Grove,Franklin Grove,,35.4204726,-83.4618689,,,,human,true,
Ravensford African American Cemetery,United States,North Carolina,Swain County,Ravensford,Ravensford,,35.5193893,-83.2939607,,,,human,true,
Swain Memorial Cemetery,United States,North Carolina,Swain County,Lackey Hill,Lackey Hill,,35.4408074,-83.437541,,,,human,true,
Lauada Cemetery,United States,North Carolina,Swain County,Lauada,Lauada,,35.373987,-83.5045902,,,,human,true,
Birdtown Cemetery,United States,North Carolina,Swain County,Birdtown,Birdtown,,35.4659517,-83.3594162,,,,human,true,
Sawmill Hill Cemetery,United States,North Carolina,Swain County,Lauada,Lauada,,35.3655723,-83.5047695,,,,human,true,
Brendle Cemetery,United States,North Carolina,Swain County,De Hart Mill,De Hart Mill,,35.3720527,-83.4718016,,,,human,true,
Watkins Cemetery,United States,North Carolina,Swain County,Franklin Grove,Franklin Grove,,35.4313609,-83.4674147,,,,human,true,
De Hart Cemetery,United States,North Carolina,Swain County,Jackson Line,Jackson Line,,35.3972647,-83.4765875,,,,human,true,
Maple Springs Cemetery,United States,North Carolina,Swain County,Maple Springs,Maple Springs,,35.3571515,-83.53529,,,,human,true,
Holly Springs Cemetery,United States,North Carolina,Swain County,Lackey Hill,Lackey Hill,,35.4214805,-83.424297,,,,human,true,
Thomas Chapel Cemetery,United States,North Carolina,Swain County,Ela,Ela,,35.45057,-83.4066986,,,,human,true,
Whittier Cemetery,United States,North Carolina,Swain County,Whittier,Whittier,,35.4358407,-83.3648649,,,,human,true,
Laurel Branch Cemetery,United States,North Carolina,Swain County,Roundhill,Roundhill,,35.4375643,-83.4984398,,,,human,true,
Euchella Cemetery,United States,North Carolina,Swain County,Almond,Almond,,35.3452396,-83.5613743,,,,human,true,
Mason Branch Cemetery,United States,North Carolina,Swain County,Unahala,Unahala,,35.346311,-83.3911272,,,,human,true,
Wesser Cemetery,United States,North Carolina,Swain County,Wesser,Wesser,,35.321505,-83.5725396,,,,human,true,
Tabor Cemetery,United States,North Carolina,Macon County,Shallow Ford,Shallow Ford,,35.3140369,-83.4853558,,,,human,true,
Windy Gap Cemetery,United States,North Carolina,Swain County,Needmore,Needmore,,35.3088484,-83.5248854,,,,human,true,
Breedlove Cemetery,United States,North Carolina,Swain County,Needmore,Needmore,,35.3157176,-83.5366026,,,,human,true,
Sawyer Cemetery,United States,North Carolina,Swain County,Carson Mill,Carson Mill,,35.4048636,-83.5346686,,,,human,true,
Estes Cemetery,United States,North Carolina,Swain County,Lackey Hill,Lackey Hill,,35.4451257,-83.4471227,,,,human,true,
Roundhill Cemetery,United States,North Carolina,Swain County,Roundhill,Roundhill,,35.4321434,-83.5237451,,,,human,true,
Davis Cemetery,United States,North Carolina,Swain County,Almond,Almond,,35.3898996,-83.5576648,,,,human,true,
Blankenship Cemetery,United States,North Carolina,Swain County,Jackson Line,Jackson Line,,35.4118046,-83.48089,,,,human,true,
Carson Cemetery,United States,North Carolina,Swain County,Roundhill,Roundhill,,35.4380944,-83.4986814,,,,human,true,
Old Campground Cemetery,United States,North Carolina,Jackson County,Qualla,Qualla,,35.4449269,-83.3142738,,,,human,true,
Lovedale Methodist Church Cemetery,United States,North Carolina,Jackson County,Love Field,Love Field,,35.3480262,-83.1973764,,,,human,true,
Lovedale Baptist Church Cemetery,United States,North Carolina,Jackson County,Love Field,Love Field,,35.3496486,-83.1972937,,,,human,true,
Love Chapel Cemetery,United States,North Carolina,Jackson County,Love Field,Love Field,,35.3498699,-83.1988928,,,,human,true,
Keener Cemetery,United States,North Carolina,Jackson County,Sylva,Sylva,,35.3783613,-83.2300356,,,,human,true,
Old Savanah Cemetery,United States,North Carolina,Jackson County,Greens Creek,Greens Creek,,35.3353324,-83.2607717,,,,human,true,
Old Field Cemetery,United States,North Carolina,Jackson County,Foster,Foster,,35.3828392,-83.1822181,,,,human,true,
Hamburg Cemetery,United States,North Carolina,Jackson County,Glenville,Glenville,,35.1643687,-83.1254587,,,,human,true,
Parris Cemetery,United States,North Carolina,Jackson County,Sylva,Sylva,,35.3683871,-83.2382047,,,,human,true,
Addie Cemetery,United States,North Carolina,Jackson County,Addie,Addie,,35.4056579,-83.1636049,,,,human,true,
East Fork Cemetery,United States,North Carolina,Jackson County,Savannah,Savannah,,35.3106146,-83.2566997,,,,human,true,
Thomas Cemetery,United States,North Carolina,Jackson County,Qualla,Qualla,,35.4351045,-83.3253643,,,,human,true,
Erastus Cemetery,United States,North Carolina,Jackson County,Erastus,Erastus,,35.1855817,-83.1832442,,,,human,true,
Locust Field Cemetery,United States,North Carolina,Jackson County,Dillsboro,Dillsboro,,35.365176,-83.266981,,,,human,true,
Zion Hill Cemetery,United States,North Carolina,Jackson County,Pumpkintown,Pumpkintown,,35.2546515,-83.2821136,,,,human,true,
Zion Hill Cemetery,United States,North Carolina,Jackson County,Pumpkintown,Pumpkintown,,35.2556088,-83.2828438,,,,human,true,
Webster Cemetery,United States,North Carolina,Jackson County,Webster,Webster,,35.3527765,-83.2192725,,,,human,true,
Barkers Creek Cemetery,United States,North Carolina,Jackson County,Wilmot,Wilmot,,35.3685608,-83.3037233,,,,human,true,
Davis Cemetery,United States,North Carolina,Jackson County,Wilmot,Wilmot,,35.368678,-83.3131434,,,,human,true,
Union Hill Cemetery,United States,North Carolina,Swain County,Whittier,Whittier,,35.4486813,-83.3496408,,,,human,true,
Balsam Grove Cemetery,United States,North Carolina,Jackson County,Rich Mountain,Rich Mountain,,35.3169622,-83.062468,,,,human,true,
Lower Zachary Cemetery,United States,North Carolina,Jackson County,High Hampton,High Hampton,,35.1031079,-83.0832669,,,,human,true,
Upper Zachary Cemetery,United States,North Carolina,Jackson County,High Hampton,High Hampton,,35.1064968,-83.0840723,,,,human,true,
Balsam Cemetery,United States,North Carolina,Jackson County,Balsam,Balsam,,35.4304556,-83.0844453,,,,human,true,
Wike Cemetery,United States,North Carolina,Jackson County,East Laport,East Laport,,35.292664,-83.1454765,,,,human,true,
Tuckasegee Cemetery,United States,North Carolina,Jackson County,Tuckasegee,Tuckasegee,,35.2722177,-83.1245579,,,,human,true,
Bumgarner Cemetery,United States,North Carolina,Jackson County,Wilmot,Wilmot,,35.4038717,-83.3254962,,,,human,true,
Shook Cemetery,United States,North Carolina,Jackson County,Indian Place,Indian Place,,35.2564832,-83.0893341,,,,human,true,
Woodring Cemetery,United States,North Carolina,Jackson County,Tuckasegee,Tuckasegee,,35.2668861,-83.1077989,,,,human,true,
Lower Coward Cemetery,United States,North Carolina,Jackson County,Cowarts,Cowarts,,35.2992171,-83.1130191,,,,human,true,
New Hope Cemetery,United States,North Carolina,Jackson County,Webster,Webster,,35.3284652,-83.2037523,,,,human,true,
Stewart Cemetery,United States,North Carolina,Jackson County,Bessie,Bessie,,35.1566651,-83.1794436,,,,human,true,
Sherrill Cemetery,United States,North Carolina,Jackson County,Olivet,Olivet,,35.4501033,-83.2910143,,,,human,true,
Sols Creek Cemetery,United States,North Carolina,Jackson County,Argura,Argura,,35.2597215,-83.0283673,,,,human,true,
Cathey Cemetery,United States,North Carolina,Jackson County,Argura,Argura,,35.2518738,-83.0274521,,,,human,true,
Pleasant Grove Cemetery,United States,North Carolina,Jackson County,Grimshawes,Grimshawes,,35.0288277,-83.0887522,,,,human,true,
Crawford Cemetery,United States,North Carolina,Jackson County,Willits-Ochre Hill,Willits-Ochre Hill,,35.4173726,-83.1131127,,,,human,true,
Double Springs Cemetery,United States,North Carolina,Jackson County,Erastus,Erastus,,35.2138664,-83.1825468,,,,human,true,
Assembly of God Chapel Cemetery,United States,North Carolina,Jackson County,Love Field,Love Field,,35.3687383,-83.2017428,,,,human,true,
Love Cemetery,United States,North Carolina,Jackson County,Willits-Ochre Hill,Willits-Ochre Hill,,35.4077759,-83.1243156,,,,human,true,
Wesleyanna Cemetery,United States,North Carolina,Jackson County,Gay,Gay,,35.2917611,-83.2734193,,,,human,true,
East LaPorte Cemetery,United States,North Carolina,Jackson County,East Laport,East Laport,,35.3034704,-83.150078,,,,human,true,
Dills Cemetery,United States,North Carolina,Jackson County,Beta,Beta,,35.3992517,-83.1927721,,,,human,true,
Nations Cemetery,United States,North Carolina,Jackson County,Wilmot,Wilmot,,35.384558,-83.3165879,,,,human,true,
Big Ridge Cemetery,United States,North Carolina,Jackson County,Big Ridge,Big Ridge,,35.1963367,-83.0844031,,,,human,true,
Norton Cemetery,United States,North Carolina,Jackson County,Norton,Norton,,35.1360874,-83.1489586,,,,human,true,
Hooper Cemetery,United States,NC,Jackson County,Cullowhee,Caney Fork Road,28723,35.305006,-83.1307113,,,,human,true,
Stephenson Cemetery,United States,North Carolina,Jackson County,Cowarts,Cowarts,,35.3174053,-83.1197952,,,,human,true,
Hooper-Speedwell Cemetery,United States,North Carolina,Jackson County,Speedwell,Speedwell,,35.2854494,-83.1895475,,,,human,true,
Hensley Cemetery,United States,North Carolina,Jackson County,Wilmot,Wilmot,,35.4004188,-83.3146559,,,,human,true,
Green Creek Cemetery,United States,North Carolina,Jackson County,Greens Creek,Greens Creek,,35.326965,-83.2858888,,,,human,true,
Bethel Cemetery,United States,North Carolina,Jackson County,Indian Hills,Indian Hills,,35.4667085,-83.330675,,,,human,true,
New Savannah Cemetery,United States,North Carolina,Jackson County,Gay,Gay,,35.2920112,-83.2754667,,,,human,true,
Fall Cliff Cemetery,United States,North Carolina,Jackson County,Fallcliff,Fallcliff,,35.2561583,-83.178229,,,,human,true,
Mount Zion Cemetery,United States,North Carolina,Jackson County,Cullowhee,Cullowhee,,35.3109345,-83.1729561,,,,human,true,
Dicks Creek Cemetery,United States,North Carolina,Jackson County,Dillsboro,Dillsboro,,35.3954357,-83.2638899,,,,human,true,
Whiteside Cove Cemetery,United States,North Carolina,Jackson County,Grimshawes,Grimshawes,,35.0646184,-83.1201228,,,,human,true,
Henry Cogdill Cemetery,United States,North Carolina,Jackson County,Willits-Ochre Hill,Willits-Ochre Hill,,35.4049494,-83.1346407,,,,human,true,
Dillard Cemetery,United States,North Carolina,Jackson County,Sylva,Sylva,,35.3786735,-83.2067402,,,,human,true,
Mathis Cemetery,United States,North Carolina,Jackson County,Argura,Argura,,35.2753232,-83.0318081,,,,human,true,
Tuckasegee Wesleyan Cemetery,United States,North Carolina,Jackson County,Tuckasegee,Tuckasegee,,35.2662817,-83.1215024,,,,human,true,
Gunter Cemetery,United States,North Carolina,Jackson County,Olivet,Olivet,,35.4361343,-83.2943265,,,,human,true,
Robinson Cemetery,United States,North Carolina,Jackson County,Dillsboro,Dillsboro,,35.3845313,-83.2568831,,,,human,true,
Brasstown Cemetery,United States,North Carolina,Jackson County,Rich Mountain,Rich Mountain,,35.3290844,-83.0751274,,,,human,true,
Wilmont Cemetery,United States,North Carolina,Jackson County,Wilmot,Wilmot,,35.4013388,-83.3104729,,,,human,true,
Victory Baptist Church Cemetery,United States,North Carolina,Jackson County,Pumpkintown,Pumpkintown,,35.266806,-83.2960327,,,,human,true,
Taylor Cemetery,United States,North Carolina,Jackson County,Speedwell,Speedwell,,35.262271,-83.2193398,,,,human,true,
Ash Cemetery,United States,North Carolina,Jackson County,Love Field,Love Field,,35.3526634,-83.1869963,,,,human,true,
Queen Cemetery,United States,North Carolina,Jackson County,Argura,Argura,,35.2883207,-83.0600783,,,,human,true,
Shook Cove Cemetery,United States,North Carolina,Jackson County,Indian Place,Indian Place,,35.2483999,-83.0968787,,,,human,true,
Ochre Hill Cemetery,United States,North Carolina,Jackson County,Addie,Addie,,35.392334,-83.1489988,,,,human,true,
Norman-Blanton Cemetery,United States,North Carolina,Jackson County,Willits-Ochre Hill,Willits-Ochre Hill,,35.3927829,-83.1426615,,,,human,true,
Long Cemetery,United States,North Carolina,Jackson County,Love Field,Love Field,,35.3546322,-83.2039719,,,,human,true,
Olivet Cemetery,United States,North Carolina,Jackson County,Olivet,Olivet,,35.4547089,-83.298956,,,,human,true,
Cullowhee Cemetery,United States,North Carolina,Jackson County,Cullowhee,Cullowhee,,35.3095283,-83.1799959,,,,human,true,
Potts Memorial Cemetery,United States,North Carolina,Jackson County,Bessie,Bessie,,35.1446537,-83.1703243,,,,human,true,
Pine Ridge Cemetery,United States,North Carolina,Jackson County,East Laport,East Laport,,35.3393593,-83.1405603,,,,human,true,
Wilson Cemetery,United States,North Carolina,Jackson County,Fallcliff,Fallcliff,,35.2671972,-83.1793535,,,,human,true,
Broom Cemetery,United States,North Carolina,Jackson County,Argura,Argura,,35.2741925,-83.0442631,,,,human,true,
Melton Cemetery,United States,North Carolina,Jackson County,Argura,Argura,,35.2712916,-83.0566104,,,,human,true,
Reagan Cemetery,United States,North Carolina,Jackson County,Olivet,Olivet,,35.4437319,-83.3076732,,,,human,true,
Blanton-Hoyle Cemetery,United States,North Carolina,Jackson County,Ruby City,Ruby City,,35.3787237,-83.1435975,,,,human,true,
Brown Cemetery,United States,North Carolina,Jackson County,Cowarts,Cowarts,,35.3047494,-83.0923368,,,,human,true,
Cagle Cemetery,United States,North Carolina,Jackson County,Greens Creek,Greens Creek,,35.3428697,-83.2594888,,,,human,true,
Queen Cemetery,United States,North Carolina,Jackson County,Dillsboro,Dillsboro,,35.3768944,-83.2632241,,,,human,true,
Norton Cemetery,United States,North Carolina,Jackson County,Grimshawes,Grimshawes,,35.0813913,-83.1021644,,,,human,true,
Beck Cemetery,United States,North Carolina,Jackson County,Glenville,Glenville,,35.1575316,-83.1103832,,,,human,true,
Glenville Wesleyan Church Cemetery,United States,North Carolina,Jackson County,Glenville,Glenville,,35.1729477,-83.1303839,,,,human,true,
Ashe Cemetery,United States,North Carolina,Jackson County,Willits-Ochre Hill,Willits-Ochre Hill,,35.4117726,-83.1116019,,,,human,true,
Cogdill Cemetery,United States,North Carolina,Jackson County,Willits-Ochre Hill,Willits-Ochre Hill,,35.4181001,-83.1348441,,,,human,true,
Hoyle Cemetery,United States,North Carolina,Jackson County,Willits-Ochre Hill,Willits-Ochre Hill,,35.4083019,-83.1416217,,,,human,true,
Tom Nations Cemetery,United States,North Carolina,Jackson County,Wilmot,Wilmot,,35.3833911,-83.299527,,,,human,true,
Conner Cemetery,United States,North Carolina,Jackson County,Dillsboro,Dillsboro,,35.3701639,-83.2607235,,,,human,true,
Rocky Branch Cemetery,United States,North Carolina,Haywood County,Quinland,Quinland,,35.4270644,-83.0107759,,,,human,true,
Liberty Baptist Church Cemetery,United States,North Carolina,Haywood County,Cove Creek,Cove Creek,,35.6223245,-82.9996287,,,,human,true,
Dellwood Cemetery,United States,North Carolina,Haywood County,Dellwood,Dellwood,,35.5234162,-83.0234272,,,,human,true,
Plott Cemetery,United States,North Carolina,Haywood County,Saunook,Saunook,,35.4537984,-83.0394108,,,,human,true,
Davis Cemetery,United States,North Carolina,Haywood County,Cove Creek,Cove Creek,,35.607785,-83.0189015,,,,human,true,
Redbank Cemetery,United States,North Carolina,Haywood County,Clark,Clark,,35.4442446,-83.0630637,,,,human,true,
White Oak Cemetery,United States,North Carolina,Haywood County,Shelton Laurel,Shelton Laurel,,35.6658152,-83.0175306,,,,human,true,
Henry Cemetery,United States,North Carolina,Haywood County,Maggie Valley,Maggie Valley,,35.520018,-83.101794,,,,human,true,
Henry Cemetery,United States,North Carolina,Haywood County,Maggie Valley,Maggie Valley,,35.5199839,-83.1008658,,,,human,true,
Henry Cemetery,United States,North Carolina,Haywood County,Maggie Valley,Maggie Valley,,35.5202326,-83.1011019,,,,human,true,
Clark Cemetery,United States,North Carolina,Haywood County,Shelton Laurel,Shelton Laurel,,35.6706053,-83.0411757,,,,human,true,
Mount Sterling Cemetery,United States,North Carolina,Haywood County,Mount Sterling,Mount Sterling,,35.7506031,-83.0928104,,,,human,true,
Turner Cemetery,United States,North Carolina,Haywood County,Eaglenest (historical),Eaglenest (historical),,35.521889,-83.0573648,,,,human,true,
Sugar Cove Cemetery,United States,North Carolina,Haywood County,Suttontown,Suttontown,,35.5816833,-83.0478608,,,,human,true,
Lowe Cemetery,United States,North Carolina,Haywood County,Maggie Valley,Maggie Valley,,35.5197058,-83.0901356,,,,human,true,
Brown Cemetery,United States,North Carolina,Haywood County,Jonathan,Jonathan,,35.5660769,-83.0446715,,,,human,true,
Allison Cemetery,United States,North Carolina,Haywood County,Jonathan,Jonathan,,35.5743431,-83.0242764,,,,human,true,
Hyatt Creek Cemetery,United States,North Carolina,Haywood County,Hyatt Creek,Hyatt Creek,,35.4678853,-83.0269833,,,,human,true,
Redmond Cemetery,United States,North Carolina,Haywood County,Shelton Laurel,Shelton Laurel,,35.6737949,-82.9999732,,,,human,true,
Boyd Cemetery,United States,North Carolina,Haywood County,Cove Creek,Cove Creek,,35.5869728,-83.0041518,,,,human,true,
Plott Creek Cemetery,United States,North Carolina,Haywood County,Hyatt Creek,Hyatt Creek,,35.4723001,-83.0354013,,,,human,true,
Sutton-Franklin Cemetery,United States,North Carolina,Haywood County,Suttontown,Suttontown,,35.6080099,-83.0412404,,,,human,true,
Caldwell Cemetery,United States,North Carolina,Haywood County,Jonathan,Jonathan,,35.5619083,-83.0533325,,,,human,true,
Owen Cemetery,United States,North Carolina,Haywood County,Cove Creek,Cove Creek,,35.6019581,-83.0046801,,,,human,true,
Sutton-Caldwell Cemetery,United States,North Carolina,Haywood County,Jonathan,Jonathan,,35.5534597,-83.0134494,,,,human,true,
Brown Cemetery,United States,North Carolina,Haywood County,Jonathan,Jonathan,,35.5638801,-83.0457857,,,,human,true,
Green Cemetery,United States,North Carolina,Haywood County,Suttontown,Suttontown,,35.5845499,-83.0508945,,,,human,true,
Howell Cemetery,United States,North Carolina,Haywood County,Cove Creek,Cove Creek,,35.6044191,-83.021897,,,,human,true,
Allison Cemetery,United States,North Carolina,Haywood County,Jonathan,Jonathan,,35.5710163,-83.0383291,,,,human,true,
Liberty Cemetery,United States,North Carolina,Cherokee County,Liberty,Liberty,,35.1178957,-84.2928989,,,,human,true,
Morrow Cemetery,United States,North Carolina,Cherokee County,Violet,Violet,,35.2049562,-84.2411162,,,,human,true,
Hyatt Cemetery,United States,North Carolina,Cherokee County,Culberson,Culberson,,34.9992502,-84.1371384,,,,human,true,
River Hill Cemetery,United States,North Carolina,Cherokee County,Hiwassee,Hiwassee,,35.1647436,-84.2542597,,,,human,true,
Taylor Cemetery,United States,North Carolina,Cherokee County,Letitia,Letitia,,35.0483836,-84.1659801,,,,human,true,
Parker Cemetery,United States,North Carolina,Cherokee County,Coalville,Coalville,,35.1788848,-83.897428,,,,human,true,
Decker Cemetery,United States,North Carolina,Cherokee County,Letitia,Letitia,,35.0664825,-84.1431391,,,,human,true,
New Prospect Cemetery,United States,North Carolina,Cherokee County,Pleasant Hill,Pleasant Hill,,35.1694929,-84.2312768,,,,human,true,
Haigler Cemetery,United States,North Carolina,Clay County,Brasstown,Brasstown,,35.0624944,-83.9838405,,,,human,true,
Unaka Cemetery,United States,North Carolina,Cherokee County,Unaka,Unaka,,35.1902189,-84.1283859,,,,human,true,
Old Martins Creek Cemetery,United States,North Carolina,Cherokee County,Martins Creek,Martins Creek,,35.0322014,-84.0307714,,,,human,true,
Ledford Chapel Cemetery,United States,North Carolina,Clay County,Elf,Elf,,34.9978434,-83.7598648,,,,human,true,
Galloway Hill Cemetery,United States,North Carolina,Clay County,Shooting Creek,Shooting Creek,,35.0206873,-83.6860968,,,,human,true,
Fires Creek Cemetery,United States,North Carolina,Clay County,Fires Creek,Fires Creek,,35.075152,-83.8740002,,,,human,true,
Cable Cove Cemetery,United States,North Carolina,Graham County,Tuskeegee,Tuskeegee,,35.4294965,-83.7548994,,,,human,true,
Breedlove Cemetery,United States,North Carolina,Graham County,Tuskeegee,Tuskeegee,,35.411249,-83.7182819,,,,human,true,
Rice Cemetery,United States,North Carolina,Graham County,Cheoah,Cheoah,,35.3430387,-83.7538761,,,,human,true,
Farley Cemetery,United States,North Carolina,Graham County,Rymers Ferry,Rymers Ferry,,35.4524748,-83.8890622,,,,human,true,
Johnson Cemetery,United States,North Carolina,Graham County,Tuskeegee,Tuskeegee,,35.3942841,-83.7167101,,,,human,true,
Wiggins Cemetery,United States,North Carolina,Graham County,Sweetgum,Sweetgum,,35.2980203,-83.7771249,,,,human,true,
Holloway Cemetery,United States,North Carolina,Graham County,Cheoah,Cheoah,,35.3314016,-83.7595128,,,,human,true,
Panther Creek Cemetery,United States,North Carolina,Swain County,Wright Place,Wright Place,,35.4054563,-83.6245961,,,,human,true,
Sawyer Creek Cemetery,United States,North Carolina,Graham County,Tuskeegee,Tuskeegee,,35.4014423,-83.7059572,,,,human,true,
Massey Cemetery,United States,North Carolina,Graham County,Milltown,Milltown,,35.3314595,-83.840354,,,,human,true,
Yellow Branch Cemetery,United States,North Carolina,Graham County,Tuskeegee,Tuskeegee,,35.4320742,-83.7154387,,,,human,true,
Gunter Cemetery,United States,North Carolina,Graham County,Tuskeegee,Tuskeegee,,35.4070577,-83.7350631,,,,human,true,
Jenkins Cemetery,United States,North Carolina,Graham County,Lake Santeetlah,Lake Santeetlah,,35.3896923,-83.8601963,,,,human,true,
Jenkins Cemetery,United States,North Carolina,Graham County,Stecoah,Stecoah,,35.3681036,-83.6861235,,,,human,true,
Rathbone Cemetery,United States,North Carolina,Haywood County,Shelton Laurel,Shelton Laurel,,35.717402,-83.0042219,,,,human,true,
Hicks Cemetery,United States,North Carolina,Haywood County,Shelton Laurel,Shelton Laurel,,35.7319782,-83.0340145,,,,human,true,
Rich Hill Cemetery,United States,North Carolina,Haywood County,Maggie Valley,Maggie Valley,,35.5301335,-83.1213657,,,,human,true,
Teague Cemetery,United States,North Carolina,Haywood County,Shelton Laurel,Shelton Laurel,,35.6662761,-83.011816,,,,human,true,
Brendle Cemetery,United States,North Carolina,Haywood County,Hazelwood,Hazelwood,,35.4590891,-83.0114207,,,,human,true,
Winchester Cemetery,United States,North Carolina,Haywood County,Eaglenest (historical),Eaglenest (historical),,35.4850454,-83.055025,,,,human,true,
Jenkins Cemetery,United States,North Carolina,Haywood County,Cove Creek,Cove Creek,,35.6023079,-83.022734,,,,human,true,
Rice Cemetery,United States,North Carolina,Haywood County,Jonathan,Jonathan,,35.5795875,-83.0207492,,,,human,true,
Carver Cemetery,United States,North Carolina,Haywood County,Jonathan,Jonathan,,35.5797498,-83.0206688,,,,human,true,
Boyd Cemetery,United States,North Carolina,Haywood County,Jonathan,Jonathan,,35.5788014,-83.0213176,,,,human,true,
Verlin Green Cemetery,United States,North Carolina,Haywood County,Hyatt Creek,Hyatt Creek,,35.4676237,-83.027221,,,,human,true,
Messer Cemetery,United States,North Carolina,Haywood County,Jonathan,Jonathan,,35.5747129,-83.0247026,,,,human,true,
Hannah Cemetery,United States,North Carolina,Haywood County,Ola,Ola,,35.6740113,-83.0946497,,,,human,true,
Sutton Cemetery,United States,North Carolina,Haywood County,Crestmont,Crestmont,,35.7377324,-83.0892956,,,,human,true,
Owen Cemetery,United States,North Carolina,Haywood County,Jonathan,Jonathan,,35.5788825,-83.0046991,,,,human,true,
Palmer Chapel Cemetery,United States,North Carolina,Haywood County,Nellie,Nellie,,35.628583,-83.1095711,,,,human,true,
Little Cataloochee Church Cemetery,United States,North Carolina,Haywood County,Ola,Ola,,35.6638256,-83.0966688,,,,human,true,
Conner Cemetery,United States,North Carolina,Jackson County,Fisher Creek,Fisher Creek,,35.3978185,-83.2191892,,,,human,true,
Coward Cemetery,United States,North Carolina,Jackson County,Argura,Argura,,35.2866259,-83.0658869,,,,human,true,
Ward Cemetery,United States,North Carolina,Jackson County,Qualla,Qualla,,35.4249677,-83.3077222,,,,human,true,
Sutton Cemetery,United States,North Carolina,Jackson County,Willits-Ochre Hill,Willits-Ochre Hill,,35.3933094,-83.1362117,,,,human,true,
Hyatt Cemetery,United States,North Carolina,Jackson County,Olivet,Olivet,,35.4481335,-83.3002241,,,,human,true,
Worley Chapel Cemetery,United States,North Carolina,Jackson County,Wilmot,Wilmot,,35.4162381,-83.3227577,,,,human,true,
Cox Cemetery,United States,North Carolina,Jackson County,Forest Hills,Forest Hills,,35.2979715,-83.1899364,,,,human,true,
Norman Cemetery,United States,North Carolina,Jackson County,Addie,Addie,,35.3908599,-83.1510543,,,,human,true,
Lower Stephens Cemetery,United States,North Carolina,Jackson County,East Laport,East Laport,,35.3200297,-83.1309539,,,,human,true,
Church of the Good Shepherd Cemetery,United States,North Carolina,Jackson County,High Hampton,High Hampton,,35.0971979,-83.0850144,,,,human,true,
Evvitt Cemetery,United States,North Carolina,Jackson County,Norton,Norton,,35.1268498,-83.1732269,,,,human,true,
Tellico Cemetery,United States,North Carolina,Macon County,Shallow Ford,Shallow Ford,,35.2824772,-83.5030756,,,,human,true,
Lakey Cemetery,United States,North Carolina,Macon County,Oak Grove,Oak Grove,,35.2983541,-83.4422062,,,,human,true,
Shepherd Cemetery,United States,North Carolina,Macon County,Leatherman,Leatherman,,35.2786323,-83.385572,,,,human,true,
Angel Cemetery,United States,North Carolina,Macon County,Fulchertown,Fulchertown,,35.1546012,-83.3566651,,,,human,true,
Fout Cemetery,United States,North Carolina,Macon County,Parrish Gap,Parrish Gap,,35.2291568,-83.4377456,,,,human,true,
Mount Moriah Cemetery,United States,North Carolina,Macon County,Gneiss,Gneiss,,35.1018885,-83.2723318,,,,human,true,
Asbury Cemetery,United States,North Carolina,Macon County,Otto,Otto,,35.0628842,-83.389956,,,,human,true,
Tippet Cemetery,United States,North Carolina,Macon County,Slickrock Ford,Slickrock Ford,,35.2173153,-83.5196047,,,,human,true,
Watkins Cemetery,United States,North Carolina,Macon County,Watkins Mill,Watkins Mill,,35.006339,-83.3067815,,,,human,true,
Rush Cemetery,United States,North Carolina,Macon County,Riverside,Riverside,,35.0899606,-83.3841545,,,,human,true,
Strain Cemetery,United States,North Carolina,Macon County,Shookville,Shookville,,35.1687792,-83.2410713,,,,human,true,
Crisp-Dills Cemetery,United States,North Carolina,Macon County,Gneiss,Gneiss,,35.1285801,-83.3020188,,,,human,true,
Mc Ghee Cemetery,United States,North Carolina,Macon County,Union,Union,,35.1280515,-83.3971001,,,,human,true,
Horse Cove Cemetery,United States,North Carolina,Macon County,Highlands,Highlands,,35.0440951,-83.1715995,,,,human,true,
Saint John's Cartoogechaye Episcopal Church Cemetery,United States,North Carolina,Macon County,Wayah Depot,Wayah Depot,,35.1429985,-83.4908473,,,,human,true,
Mount Zion Church Cemetery,United States,North Carolina,Macon County,Wayah Depot,Wayah Depot,,35.1470372,-83.4719116,,,,human,true,
Carson Cemetery,United States,North Carolina,Macon County,Oak Hill,Oak Hill,,35.1682261,-83.431537,,,,human,true,
Mingus Creek Cemetery,United States,North Carolina,Swain County,Oconaluftee Indian Village,Oconaluftee Indian Village,,35.5202818,-83.3402276,,,,human,true,
Davis Cemetery,United States,North Carolina,Swain County,Lauada,Lauada,,35.3685689,-83.4904812,,,,human,true,
Nations Cemetery,United States,North Carolina,Swain County,Ravensford,Ravensford,,35.5162938,-83.2995186,,,,human,true,
Clarke-Whittier Cemetery,United States,North Carolina,Swain County,Whittier,Whittier,,35.4332391,-83.3623729,,,,human,true,
Payne Cemetery,United States,North Carolina,Swain County,Fairfax,Fairfax,,35.4606607,-83.8165755,,,,human,true,
Connor Cemetery,United States,North Carolina,Swain County,Roundhill,Roundhill,,35.4544477,-83.5187333,,,,human,true,
Randall Cemetery,United States,North Carolina,Swain County,Lackey Hill,Lackey Hill,,35.4513555,-83.445054,,,,human,true,
Brush Creek Cemetery,United States,North Carolina,Swain County,Needmore,Needmore,,35.326868,-83.5110041,,,,human,true,
Fred Cochran Cemetery,United States,North Carolina,Swain County,Alarka,Alarka,,35.3666306,-83.4664125,,,,human,true,
Proctor Cemetery,United States,North Carolina,Swain County,Proctor,Proctor,,35.474499,-83.7286346,,,,human,true,
Bradley Welch Cemetery,United States,North Carolina,Swain County,Birdtown,Birdtown,,35.4773899,-83.3401964,,,,human,true,
Woody Cemetery,United States,North Carolina,Swain County,Roundhill,Roundhill,,35.4697676,-83.5610703,,,,human,true,
Bradley Cemetery,United States,North Carolina,Swain County,Ravensford,Ravensford,,35.5586736,-83.3163234,,,,human,true,
Deep Creek Cemetery,United States,North Carolina,Swain County,Lackey Hill,Lackey Hill,,35.4589986,-83.4396668,,,,human,true,
Pegg Cemetery,United States,North Carolina,Swain County,Ela,Ela,,35.457744,-83.3892936,,,,human,true,
Round Top Cemetery,United States,North Carolina,Swain County,Almond,Almond,,35.3765293,-83.5886152,,,,human,true,
Watkins Cemetery,United States,North Carolina,Swain County,Lackey Hill,Lackey Hill,,35.4222915,-83.4149455,,,,human,true,
McHan Cemetery,United States,North Carolina,Swain County,Ela,Ela,,35.4494896,-83.3826128,,,,human,true,
Jenkins Cemetery,United States,North Carolina,Swain County,Roundhill,Roundhill,,35.4314433,-83.5329821,,,,human,true,
Maggie Cable Cemetery,United States,North Carolina,Swain County,Proctor,Proctor,,35.4514588,-83.72105,,,,human,true,
Floyd Cemetery,United States,North Carolina,Swain County,Ravensford,Ravensford,,35.5235592,-83.3076978,,,,human,true,
Truitt Cemetery,United States,North Carolina,Macon County,Shallow Ford,Shallow Ford,,35.3156762,-83.501656,,,,human,true,
Jenkins Cemetery,United States,North Carolina,Swain County,Jackson Line,Jackson Line,,35.3837045,-83.4518265,,,,human,true,
New Beck Cemetery,United States,North Carolina,Swain County,Ravensford,Ravensford,,35.5448492,-83.2988428,,,,human,true,
Fairview Cemetery,United States,North Carolina,Swain County,Proctor,Proctor,,35.4474618,-83.7087956,,,,human,true,
Sutton Cemetery,United States,North Carolina,Swain County,Ela,Ela,,35.4500787,-83.3967595,,,,human,true,
Cold Springs Cemetery,United States,North Carolina,Swain County,De Hart Mill,De Hart Mill,,35.3865905,-83.4932131,,,,human,true,
Cochran Cemetery,United States,North Carolina,Swain County,Alarka,Alarka,,35.364405,-83.4593784,,,,human,true,
McClure Cemetery,United States,North Carolina,Swain County,Roundhill,Roundhill,,35.4472363,-83.6013818,,,,human,true,
Welch Cemetery,United States,North Carolina,Graham County,Hidetown,Hidetown,,35.4483906,-83.6368968,,,,human,true,
Pilkey Cemetery,United States,North Carolina,Swain County,Proctor,Proctor,,35.4533774,-83.6663949,,,,human,true,
Posey Cemetery,United States,North Carolina,Swain County,Proctor,Proctor,,35.4549963,-83.6610222,,,,human,true,
Bradshaw Cemetery,United States,North Carolina,Swain County,Proctor,Proctor,,35.4786545,-83.7310705,,,,human,true,
Long Cemetery,United States,North Carolina,Jackson County,Paint Town,Paint Town,,35.4655717,-83.2567528,,,,human,true,
Bryson City Cemetery,United States,NC,Swain County,Bryson City,Hillside Drive,28713,35.4255402,-83.4493002,,,,human,true,
Bradley Cemetery,United States,NC,Jackson County,Whittier,Bradit Branch Road,28789,35.3895616,-83.3039794,,,,human,true,
Brown Cemetery,United States,North Carolina,Jackson County,Argura,Argura,,35.2814347,-83.0705385,,,,human,true,
Roger's Cemetery,United States,North Carolina,Clay County,Hayesville,Hayesville,,35.0394022,-83.8201041,,,,human,true,
Ivy Log Cemetery,United States,North Carolina,Cherokee County,Bellview,Bellview,,34.9785378,-84.0787569,,,,human,true,
Beech Creek Cemetery,United States,North Carolina,Cherokee County,Letitia,Letitia,,35.0665586,-84.1114945,,,,human,true,
Persimmon Creek Cemetery,United States,North Carolina,Cherokee County,Friendship,Friendship,,35.0659435,-84.176467,,,,human,true,
Hiwassee Cemetery,United States,North Carolina,Cherokee County,Grape Creek,Grape Creek,,35.0958862,-84.0924496,,,,human,true,
Whiteside Cove Cemetery,United States,North Carolina,Jackson County,Grimshawes,Grimshawes,,35.0649834,-83.1198117,,,,human,true,
Old Savannah Cemetery,United States,North Carolina,Jackson County,Greens Creek,Greens Creek,,35.3322541,-83.2625857,,,,human,true,
Grape Creek Baptist Church Cemetery,United States,NC,Cherokee County,Murphy,5485 Joe Brown Highway,28906,35.1156353,-84.0852943,,,,human,true,
Unaka Baptist Church Cemetery,United States,NC,Cherokee County,Murphy,12600 Beaver Dam Road,28906,35.1961089,-84.1386198,,,,human,true,
Violet Baptist Church Cemetery,United States,NC,Cherokee County,Murphy,180 Violet Church Road,28906,35.1918423,-84.2176621,,,,human,true,
Shoal Creek Cemetery,United States,NC,Cherokee County,Murphy,10 Wehutty Road,28906,35.0934759,-84.2525161,,,,human,true,
A.M.E. Church Cemetery,United States,NC,Cherokee County,Murphy,200 Church of Christ Road,28906,35.0631201,-84.0650606,,,,human,true,
Baptist Church of Murphy Cemetery,United States,NC,Cherokee County,Murphy,57 McClelland Street,28906,35.0896117,-84.0339012,,,,human,true,
Sunset Cemetery,United States,NC,Cherokee County,Murphy,150 Cemetery Street,28906,35.0905873,-84.0242904,,,,human,true,
Greenlawn Cemetery,United States,NC,Cherokee County,Murphy,582 Greenlawn Cemetary Road,28906,35.090069,-83.9530393,,,,human,true,
Peachtree Memorial Baptist Church Cemetery,United States,NC,Cherokee County,Murphy,381 Upper Peachtree Road,28906,35.0936979,-83.9410857,,,,human,true,
Hayesville Cemetery,United States,North Carolina,Clay County,Hayesville,Hayesville,,35.0231575,-83.7943406,,,,human,true,
Copper Cemetery,United States,North Carolina,Swain County,Oconaluftee Indian Village,Oconaluftee Indian Village,,35.485268,-83.3202308,,,,human,true,
Vengeance Creek Memorial Garden,United States,NC,Cherokee County,Marble,1298 Vengeance Creek Road,28905,35.1493908,-83.902332,,,,human,true,
Deal Cemetery,United States,North Carolina,Cleveland County,Grover,Grover,,35.1567978,-81.4564768,,,,human,true,
Ross Cemetery,United States,North Carolina,Cleveland County,Erwinsville (historical),Erwinsville (historical),,35.1620718,-81.620373,,,,human,true,
Sandpit Cemetery,United States,North Carolina,Cleveland County,Erwinsville (historical),Erwinsville (historical),,35.1726269,-81.6350957,,,,human,true,
Sarratt Cemetery,United States,North Carolina,Cleveland County,Erwinsville (historical),Erwinsville (historical),,35.1681823,-81.6481518,,,,human,true,
Sarratt Cemetery,United States,North Carolina,Cleveland County,Erwinsville (historical),Erwinsville (historical),,35.1690157,-81.6450962,,,,human,true,
Kings Mountain Battleground Cemetery,United States,North Carolina,Cleveland County,Dixon,Dixon,,35.1431886,-81.378417,,,,human,true,
Aviary Gardens,United States,North Carolina,Gaston County,McAdenville,McAdenville,,35.2581945,-81.0817425,,,,human,true,
Bradley Cemetery,United States,North Carolina,Polk County,Mount Valley,Mount Valley,,35.2797156,-82.3034112,,,,human,true,
Bradley Cemetery,United States,North Carolina,Polk County,Mount Valley,Mount Valley,,35.2937262,-82.2856712,,,,human,true,
Buckner Cemetery,United States,North Carolina,Madison County,Petersburg,Petersburg,,35.8185723,-82.5810036,,,,human,true,
Capps Cemetery,United States,North Carolina,Buncombe County,Stoney Knob,Stoney Knob,,35.6806944,-82.5641709,,,,human,true,
Carter Cemetery,United States,North Carolina,Madison County,Beech Glen,Beech Glen,,35.8314991,-82.5031876,,,,human,true,
Eaker Cemetery,United States,North Carolina,Cleveland County,Delight,Delight,,35.4517957,-81.6142602,,,,human,true,
Fortune Cemetery,United States,North Carolina,Rutherford County,Golden (historical),Golden (historical),,35.5092927,-81.7645424,,,,human,true,
Harkins Cemetery,United States,North Carolina,Buncombe County,Enka,Enka,,35.5509434,-82.6479057,,,,human,true,
Jones-Price Cemetery,United States,North Carolina,Polk County,Mount Valley,Mount Valley,,35.2934485,-82.2965049,,,,human,true,
Lawing Cemetery,United States,North Carolina,McDowell County,Fero,Fero,,35.562902,-82.0053828,,,,human,true,
Merrill Cemetery,United States,North Carolina,Madison County,Petersburg,Petersburg,,35.8384416,-82.584579,,,,human,true,
Old Macedonia Cemetery,United States,North Carolina,Buncombe County,Craggy,Craggy,,35.6476098,-82.6095739,,,,human,true,
Old Robinson Cemetery,United States,North Carolina,Catawba County,Hickory,Hickory,,35.7301322,-81.3361972,,,,human,true,
Patty Cemetery,United States,North Carolina,Polk County,Mount Valley,Mount Valley,,35.304297,-82.2780976,,,,human,true,
Peek Cemetery,United States,North Carolina,Madison County,Petersburg,Petersburg,,35.8392749,-82.5865236,,,,human,true,
Puett Cemetery,United States,North Carolina,Caldwell County,Gamewell Heights,Gamewell Heights,,35.8701302,-81.6164867,,,,human,true,
Ramsey Cemetery,United States,North Carolina,Madison County,Mars Hill,Mars Hill,,35.8492688,-82.5517516,,,,human,true,
Ray Cemetery,United States,North Carolina,Madison County,Petersburg,Petersburg,,35.8436043,-82.6141566,,,,human,true,
Runion Cemetery,United States,North Carolina,Madison County,Mars Hill,Mars Hill,,35.8315248,-82.5322308,,,,human,true,
Stepp Cemetery,United States,North Carolina,Henderson County,Saconon,Saconon,,35.3411192,-82.3414107,,,,human,true,
Walker Cemetery,United States,North Carolina,Rutherford County,Mack (historical),Mack (historical),,35.3470636,-82.0287188,,,,human,true,
Miller-Twitty Cemetery,United States,North Carolina,Rutherford County,Mack (historical),Mack (historical),,35.3870651,-82.006495,,,,human,true,
Anders Cemetery,United States,North Carolina,Buncombe County,Barnardsville,Barnardsville,,35.765112,-82.4601287,,,,human,true,
Anderson Cemetery,United States,North Carolina,Madison County,Sandy Bottom,Sandy Bottom,,35.8716201,-82.7813664,,,,human,true,
Angel Cemetery,United States,North Carolina,Madison County,Paint Fork,Paint Fork,,35.827333,-82.4770755,,,,human,true,
Blalock Cemetery,United States,North Carolina,Mitchell County,Spruce Pine,Spruce Pine,,35.9202013,-82.0550815,,,,human,true,
Burleson Cemetery,United States,North Carolina,Yancey County,Low Gap,Low Gap,,35.8716026,-82.2930334,,,,human,true,
Cook Cemetery,United States,North Carolina,Mitchell County,Minpro,Minpro,,35.933455,-82.0917851,,,,human,true,
Cox Cemetery,United States,North Carolina,Mitchell County,Estatoe,Estatoe,,35.9040086,-82.1401201,,,,human,true,
Davis Cemetery,United States,North Carolina,Madison County,Trust,Trust,,35.770935,-82.9129201,,,,human,true,
Dixon Cemetery,United States,North Carolina,McDowell County,Patten,Patten,,35.6509592,-81.8859361,,,,human,true,
Edney Cemetery,United States,North Carolina,Yancey County,Riverside,Riverside,,35.9270565,-82.3645746,,,,human,true,
Edwards Cemetery,United States,North Carolina,Yancey County,Lewisburg,Lewisburg,,35.9945553,-82.3806883,,,,human,true,
Gentry Cemetery,United States,North Carolina,Madison County,Big Pine,Big Pine,,35.7898887,-82.8195066,,,,human,true,
Goforth Cemetery,United States,North Carolina,Madison County,Bluff,Bluff,,35.8479919,-82.8196541,,,,human,true,
Gurley Cemetery,United States,North Carolina,Mitchell County,Altapass,Altapass,,35.8973472,-82.0142803,,,,human,true,
Hagan Cemetery #2,United States,North Carolina,Madison County,Redmon,Redmon,,35.8049784,-82.7499839,,,,human,true,
Hensley Cemetery,United States,North Carolina,Yancey County,Bowditch,Bowditch,,35.8953945,-82.2106788,,,,human,true,
Jarrett Cemetery,United States,North Carolina,Haywood County,Shelton Laurel,Shelton Laurel,,35.7085587,-82.9869605,,,,human,true,
Jones Cemetery,United States,North Carolina,Henderson County,Oak Hill Court,Oak Hill Court,,35.3990039,-82.5453996,,,,human,true,
Ledford Cemetery,United States,North Carolina,Haywood County,Cove,Cove,,35.7141292,-82.9289036,,,,human,true,
Lonon Cemetery,United States,North Carolina,McDowell County,North Cove Crossing,North Cove Crossing,,35.8367911,-82.0203902,,,,human,true,
Sid Lunsford Cemetery,United States,North Carolina,Madison County,Worley,Worley,,35.7631448,-82.7637427,,,,human,true,
Maple Cemetery,United States,North Carolina,Buncombe County,Dillingham,Dillingham,,35.7583456,-82.3992155,,,,human,true,
Mc Kinney Cemetery,United States,North Carolina,Buncombe County,Democrat,Democrat,,35.7851109,-82.4970749,,,,human,true,
McCarson Cemetery,United States,North Carolina,Henderson County,Sycamore,Sycamore,,35.3442834,-82.5020648,,,,human,true,
McDevitt Cemetery,United States,North Carolina,Madison County,Walnut,Walnut,,35.8564937,-82.7348613,,,,human,true,
Noland Cemetery,United States,North Carolina,Haywood County,Panther Creek,Panther Creek,,35.6419104,-82.9758342,,,,human,true,
Palmer Cemetery,United States,North Carolina,Haywood County,Cove Creek,Cove Creek,,35.6223241,-82.9934736,,,,human,true,
Parks Cemetery,United States,North Carolina,Burke County,Perkinsville,Perkinsville,,35.8848515,-81.750936,,,,human,true,
Phillips Cemetery,United States,North Carolina,Yancey County,Lewisburg,Lewisburg,,35.9934442,-82.3815217,,,,human,true,
Rector Cemetery,United States,North Carolina,Madison County,Redmon,Redmon,,35.7887159,-82.7429156,,,,human,true,
Roberson Cemetery,United States,North Carolina,Madison County,Rollins,Rollins,,35.7703842,-82.6781909,,,,human,true,
Roberts Cemetery,United States,North Carolina,Madison County,Big Pine,Big Pine,,35.7962146,-82.8093065,,,,human,true,
Robinson Cemetery,United States,North Carolina,Yancey County,Blue Rock,Blue Rock,,35.8856732,-82.1920665,,,,human,true,
Roland Cemetery,United States,North Carolina,Yancey County,Riverside,Riverside,,35.9212237,-82.3448515,,,,human,true,
Round Top Cemetery,United States,North Carolina,Transylvania County,Morgan Heights,Morgan Heights,,35.2095591,-82.7156812,,,,human,true,
Sentell Cemetery,United States,North Carolina,Transylvania County,Pisgah Shadows,Pisgah Shadows,,35.2595602,-82.6059557,,,,human,true,
Sentell Cemetery,United States,North Carolina,Henderson County,Kanuga Ridge,Kanuga Ridge,,35.2753946,-82.5467879,,,,human,true,
Shady Grove Cemetery,United States,North Carolina,Transylvania County,Rocky Hill,Rocky Hill,,35.2151141,-82.7492929,,,,human,true,
Noah Shelton Cemetery,United States,North Carolina,Madison County,Allegheny,Allegheny,,35.9949375,-82.6615517,,,,human,true,
Silvers Cemetery,United States,North Carolina,Mitchell County,Estatoe,Estatoe,,35.9042876,-82.1120631,,,,human,true,
Stafford Cemetery,United States,North Carolina,Mitchell County,Estatoe,Estatoe,,35.8951205,-82.1206744,,,,human,true,
Treadway Cemetery,United States,North Carolina,Madison County,Sandy Bottom,Sandy Bottom,,35.8635375,-82.7721152,,,,human,true,
Wheeler Cemetery,United States,North Carolina,Yancey County,Murchison,Murchison,,35.8132403,-82.3532553,,,,human,true,
Wilson Cemetery,United States,North Carolina,McDowell County,Ashford,Ashford,,35.8945709,-81.9376105,,,,human,true,
Wilson Cemetery,United States,North Carolina,Yancey County,Bacchus,Bacchus,,35.9228943,-82.2090129,,,,human,true,
Wise Cemetery,United States,North Carolina,Avery County,Altamont,Altamont,,35.9837381,-81.94678,,,,human,true,
Wiseman Cemetery,United States,North Carolina,Avery County,Ingalls,Ingalls,,35.9634577,-82.0351166,,,,human,true,
McKinney Cemetery,United States,North Carolina,Mitchell County,Kalmia,Kalmia,,35.9195702,-81.9992802,,,,human,true,
Reeves Cemetery,United States,North Carolina,Haywood County,Tuscola Park,Tuscola Park,,35.5228892,-82.9564299,,,,human,true,
Ellis Cemetery,United States,North Carolina,Cleveland County,Erwinsville (historical),Erwinsville (historical),,35.1770715,-81.6237063,,,,human,true,
Jolley Cemetery,United States,North Carolina,Cleveland County,Byersville (historical),Byersville (historical),,35.2006801,-81.7284327,,,,human,true,
McCraw Cemetery,United States,North Carolina,Cleveland County,Byersville (historical),Byersville (historical),,35.1917912,-81.7353776,,,,human,true,
McCraw Cemetery,United States,North Carolina,Cleveland County,Nicholsville (historical),Nicholsville (historical),,35.1837374,-81.6578744,,,,human,true,
Wood Cemetery,United States,North Carolina,Cleveland County,Byersville (historical),Byersville (historical),,35.1992908,-81.7456556,,,,human,true,
Asa Edney Family Cemetery,United States,North Carolina,Henderson County,Fruitland,Fruitland,,35.3928204,-82.3708139,,,,human,true,
Robert F. Payne Cemetery,United States,North Carolina,Madison County,Worley,Worley,,35.7975491,-82.7594533,,,,human,true,
Ben Chandler Cemetery,United States,North Carolina,Madison County,Andy Cove,Andy Cove,,35.8897527,-82.7151916,,,,human,true,
Chandler Ramsey Cemetery,United States,North Carolina,Madison County,Andy Cove,Andy Cove,,35.8918129,-82.7142637,,,,human,true,
Judith Shelton Cemetery,United States,North Carolina,Madison County,Allegheny,Allegheny,,35.9907421,-82.6692268,,,,human,true,
Hensley Cemetery,United States,North Carolina,Madison County,Carmen,Carmen,,35.9990506,-82.637229,,,,human,true,
Roberts Cemetery,United States,North Carolina,Madison County,Lumptown,Lumptown,,35.9098447,-82.7294168,,,,human,true,
Chandler Cemetery,United States,North Carolina,Madison County,Lumptown,Lumptown,,35.9066515,-82.7264538,,,,human,true,
Norton Cemetery,United States,North Carolina,Madison County,Lumptown,Lumptown,,35.8944524,-82.7288089,,,,human,true,
Haynie Cemetery,United States,North Carolina,Madison County,Marshall,Marshall,,35.801287,-82.6713227,,,,human,true,
County Home Cemetery,United States,North Carolina,Madison County,Marshall,Marshall,,35.8132002,-82.6939358,,,,human,true,
Nelson Cemetery,United States,North Carolina,Madison County,Rollins,Rollins,,35.8121815,-82.6475516,,,,human,true,
Kent Cemetery,United States,North Carolina,Madison County,Redmon,Redmon,,35.7839434,-82.7395347,,,,human,true,
Randall Cemetery,United States,North Carolina,Madison County,Barnard,Barnard,,35.8237469,-82.7416625,,,,human,true,
Jack Goforth Cemetery,United States,North Carolina,Madison County,Worley,Worley,,35.8458788,-82.8111128,,,,human,true,
Jacob Ramsey Cemetery,United States,North Carolina,Madison County,Ivy Ridge,Ivy Ridge,,35.8777297,-82.5702619,,,,human,true,
Edmonds Cemetery,United States,North Carolina,Madison County,Little Creek,Little Creek,,35.9070048,-82.5669643,,,,human,true,
Reed Cemetery,United States,North Carolina,Madison County,Faust,Faust,,35.913197,-82.5388461,,,,human,true,
Miller Cemetery,United States,North Carolina,Yancey County,Swiss,Swiss,,35.9148137,-82.480863,,,,human,true,
Angel Cemetery,United States,North Carolina,Yancey County,Swiss,Swiss,,35.9144219,-82.4809129,,,,human,true,
James M Chandler Cemetery,United States,North Carolina,Madison County,Bethel,Bethel,,35.8918791,-82.4808867,,,,human,true,
English Robinson Cemetery,United States,North Carolina,Madison County,Bethel,Bethel,,35.8958478,-82.4763925,,,,human,true,
Taylor Cemetery,United States,North Carolina,Madison County,Bethel,Bethel,,35.8858522,-82.4703687,,,,human,true,
Holcombe Cemetery,United States,North Carolina,Madison County,Waverly,Waverly,,35.8723689,-82.445543,,,,human,true,
Brooks Cemetery,United States,North Carolina,Madison County,Bluff,Bluff,,35.8425011,-82.8732055,,,,human,true,
Marler Cemetery,United States,North Carolina,Madison County,Walnut Creek,Walnut Creek,,35.8546008,-82.68628,,,,human,true,
Hensley Cemetery,United States,North Carolina,Madison County,Jarrett Cove,Jarrett Cove,,35.9141,-82.6406254,,,,human,true,
Shelton Cemetery,United States,North Carolina,Madison County,Spillcorn,Spillcorn,,35.9493435,-82.6438927,,,,human,true,
Norton Cemetery,United States,North Carolina,Madison County,Spillcorn,Spillcorn,,35.9412269,-82.6538596,,,,human,true,
Cody Cemetery,United States,North Carolina,Madison County,Jarrett Cove,Jarrett Cove,,35.8747687,-82.6254144,,,,human,true,
Proffitt Cemetery,United States,North Carolina,Madison County,Foster Creek,Foster Creek,,35.9258347,-82.609047,,,,human,true,
Ottinger Chapel Cemetery,United States,North Carolina,Madison County,Shaleville,Shaleville,,35.9090215,-82.8512495,,,,human,true,
Swaney Cemetery,United States,North Carolina,Madison County,Antioch,Antioch,,35.895104,-82.8824608,,,,human,true,
Gragg Cemetery,United States,North Carolina,Madison County,Shaleville,Shaleville,,35.8767117,-82.8626625,,,,human,true,
Sexton Cemetery,United States,North Carolina,Madison County,Ebbs Mill,Ebbs Mill,,35.8332898,-82.925156,,,,human,true,
Elijah Fortner Cemetery,United States,North Carolina,Madison County,Big Pine,Big Pine,,35.7921316,-82.8092488,,,,human,true,
Wilson Cemetery,United States,North Carolina,Madison County,Redmon,Redmon,,35.8045056,-82.7411927,,,,human,true,
Calvin Lewis Cemetery,United States,North Carolina,Madison County,Redmon,Redmon,,35.7876582,-82.7352175,,,,human,true,
Allen Riddle Robertson Cemetery,United States,North Carolina,Yancey County,Murchison,Murchison,,35.8271165,-82.3248916,,,,human,true,
Ewart Wilson Cemetery,United States,North Carolina,Yancey County,Eskota,Eskota,,35.7959606,-82.3082205,,,,human,true,
Harrison Columbus Ray Cemetery,United States,North Carolina,Yancey County,Low Gap,Low Gap,,35.8747948,-82.3055406,,,,human,true,
Virginia Ray Cemetery,United States,North Carolina,Yancey County,Burnsville,Burnsville,,35.9031302,-82.3149769,,,,human,true,
Bear Branch Cemetery,United States,North Carolina,Madison County,Spillcorn,Spillcorn,,35.9584112,-82.6514899,,,,human,true,
Norton Cemetery,United States,North Carolina,Madison County,Spillcorn,Spillcorn,,35.9736412,-82.6273707,,,,human,true,
Cox Cemetery,United States,North Carolina,Madison County,Beech Glen,Beech Glen,,35.8403269,-82.5034337,,,,human,true,
Bale Chandler Cemetery,United States,North Carolina,Madison County,Lumptown,Lumptown,,35.884219,-82.7175404,,,,human,true,
Neilson Garrett Cemetery,United States,North Carolina,Madison County,Hot Springs,Hot Springs,,35.8991316,-82.8325931,,,,human,true,
Fisher Cemetery,United States,North Carolina,Madison County,Sexton,Sexton,,35.8037174,-82.6059322,,,,human,true,
John Rice Cemetery,United States,North Carolina,Madison County,Buckner,Buckner,,35.874212,-82.4832417,,,,human,true,
Piney Grove Church Cemetery,United States,North Carolina,Madison County,Beech Glen,Beech Glen,,35.8394271,-82.4911543,,,,human,true,
Reagan Worley Cemetery,United States,North Carolina,Madison County,Worley,Worley,,35.8114633,-82.8044884,,,,human,true,
Big Laurel Baptist Church Cemetery,United States,North Carolina,Madison County,Jarrett Cove,Jarrett Cove,,35.9113552,-82.6493707,,,,human,true,
Fox Family Cemetery,United States,North Carolina,Yancey County,Swiss,Swiss,,35.9264779,-82.4843894,,,,human,true,
Shepherd Cemetery,United States,North Carolina,Yancey County,Swiss,Swiss,,35.9158504,-82.4596636,,,,human,true,
Mathis Cemetery,United States,North Carolina,Yancey County,Elk Shoal,Elk Shoal,,35.9340039,-82.40339,,,,human,true,
Crain Webb Cemetery,United States,North Carolina,Yancey County,Swiss,Swiss,,35.934543,-82.456252,,,,human,true,
Moss Hollifield Cemetery,United States,North Carolina,Yancey County,Swiss,Swiss,,35.9346056,-82.4554887,,,,human,true,
Cornelius Ledford Cemetery,United States,North Carolina,Yancey County,Bald Mountain,Bald Mountain,,35.9794622,-82.4667435,,,,human,true,
Willis Bailey Cemetery,United States,North Carolina,Yancey County,Hensley (historical),Hensley (historical),,35.991961,-82.4569077,,,,human,true,
Hensley Bradford Cemetery,United States,North Carolina,Yancey County,Bee Log,Bee Log,,35.9979933,-82.4085712,,,,human,true,
Honeycutt Cemetery,United States,North Carolina,Yancey County,Bee Log,Bee Log,,35.9979931,-82.4068443,,,,human,true,
Elbert Peterson Cemetery,United States,North Carolina,Yancey County,Ramseytown,Ramseytown,,35.9974078,-82.3620268,,,,human,true,
Johnson Cemetery,United States,North Carolina,Yancey County,Lewisburg,Lewisburg,,35.9971432,-82.3826774,,,,human,true,
Peake Cemetery,United States,North Carolina,Yancey County,Lewisburg,Lewisburg,,35.9934983,-82.3939335,,,,human,true,
Simms Fork Cemetery,United States,North Carolina,Yancey County,Hensley (historical),Hensley (historical),,35.9526929,-82.4489222,,,,human,true,
Hilemon Cemetery,United States,North Carolina,Yancey County,Elk Shoal,Elk Shoal,,35.9578004,-82.3998801,,,,human,true,
Silas King Cemetery,United States,North Carolina,Yancey County,Elk Shoal,Elk Shoal,,35.9526348,-82.413176,,,,human,true,
Metcalf Cemetery,United States,North Carolina,Yancey County,Paint Gap,Paint Gap,,35.8788054,-82.4306563,,,,human,true,
Horton Cemetery,United States,North Carolina,Yancey County,Price Creek,Price Creek,,35.8814455,-82.3769585,,,,human,true,
Lum Honeycutt Cemetery,United States,North Carolina,Yancey County,Price Creek,Price Creek,,35.8556592,-82.3803558,,,,human,true,
Ball Cemetery,United States,North Carolina,Yancey County,Price Creek,Price Creek,,35.8568469,-82.3826994,,,,human,true,
Ray Laura Cemetery,United States,North Carolina,Yancey County,Riverside,Riverside,,35.8955252,-82.3620338,,,,human,true,
Capt David M Ray Cemetery,United States,North Carolina,Yancey County,Riverside,Riverside,,35.8970145,-82.3561969,,,,human,true,
Wilson Cemetery,United States,North Carolina,Yancey County,Riverside,Riverside,,35.9036119,-82.3574254,,,,human,true,
Gibbs Cemetery,United States,North Carolina,Yancey County,Riverside,Riverside,,35.9095849,-82.3524054,,,,human,true,
Roland Cemetery,United States,North Carolina,Yancey County,Riverside,Riverside,,35.9008313,-82.3416458,,,,human,true,
Byrd Cemetery,United States,North Carolina,Yancey County,Concord,Concord,,35.8900604,-82.3340171,,,,human,true,
Horton Hill Cemetery,United States,North Carolina,Yancey County,Riverside,Riverside,,35.9121657,-82.324025,,,,human,true,
Young Cemetery,United States,North Carolina,Yancey County,Newdale,Newdale,,35.9207765,-82.1853505,,,,human,true,
Edward Robinson Cemetery,United States,North Carolina,Yancey County,Celo,Celo,,35.8665039,-82.1996383,,,,human,true,
High Pastures Cemetery,United States,North Carolina,Yancey County,Windom,Windom,,35.8938757,-82.2548439,,,,human,true,
Thomas S Young Cemetery,United States,North Carolina,Yancey County,Micaville,Micaville,,35.9147375,-82.2193912,,,,human,true,
Hall Cemetery,United States,North Carolina,Yancey County,Double Island,Double Island,,35.9639242,-82.2121259,,,,human,true,
Letterman Cemetery,United States,North Carolina,Yancey County,Toledo,Toledo,,35.9630829,-82.2697254,,,,human,true,
John B Wheeler Cemetery,United States,North Carolina,Yancey County,Day Book,Day Book,,35.9927834,-82.3064837,,,,human,true,
Byrd Cemetery,United States,North Carolina,Yancey County,Day Book,Day Book,,35.9628862,-82.3228068,,,,human,true,
Bailey Byrd Cemetery,United States,North Carolina,Yancey County,Day Book,Day Book,,35.9638989,-82.3176034,,,,human,true,
McCurry Elwood Cemetery,United States,North Carolina,Yancey County,Day Book,Day Book,,35.9772683,-82.3167806,,,,human,true,
Marion Edwards Cemetery,United States,North Carolina,Yancey County,Day Book,Day Book,,35.9593722,-82.2843492,,,,human,true,
Stanley McCormick Cemetery,United States,North Carolina,Yancey County,Burnsville,Burnsville,,35.9163245,-82.3065837,,,,human,true,
Gibbs Cemetery,United States,North Carolina,Yancey County,Celo,Celo,,35.847527,-82.1943192,,,,human,true,
Ray Cemetery,United States,North Carolina,Yancey County,Cane,Cane,,35.903566,-82.3843507,,,,human,true,
James Wesley Renfro Cemetery,United States,North Carolina,Yancey County,Hawk Branch,Hawk Branch,,35.9613573,-82.3506431,,,,human,true,
George D Wilson Cemetery,United States,North Carolina,Yancey County,Riverside,Riverside,,35.9244567,-82.3524556,,,,human,true,
Anderson Cemetery,United States,North Carolina,Buncombe County,Paint Fork,Paint Fork,,35.7556811,-82.4578195,,,,human,true,
Alexander Baptist Chapel Cemetery,United States,North Carolina,Buncombe County,Leicester,Leicester,,35.6624932,-82.6960422,,,,human,true,
Lance Cemetery,United States,North Carolina,Buncombe County,Bent Creek,Bent Creek,,35.4922324,-82.5915242,,,,human,true,
Justice-Red_Hill School Cemetery,United States,North Carolina,Buncombe County,Turnpike,Turnpike,,35.5370257,-82.7899688,,,,human,true,
Happy Valley Missionary Baptist Church Cemetery,United States,North Carolina,Buncombe County,Camelot,Camelot,,35.5949759,-82.6261637,,,,human,true,
Warren Cemetery,United States,North Carolina,Buncombe County,Glady,Glady,,35.495564,-82.7142078,,,,human,true,
Branton Cemetery,United States,North Carolina,Buncombe County,Deaver View,Deaver View,,35.5852668,-82.6191282,,,,human,true,
Penland Cemetery,United States,North Carolina,Buncombe County,Stony Fork,Stony Fork,,35.4758198,-82.7108021,,,,human,true,
Gibbs Family Cemetery,United States,North Carolina,Buncombe County,Craggy,Craggy,,35.6224715,-82.6015618,,,,human,true,
Ledford Cemetery,United States,North Carolina,Madison County,Bluff,Bluff,,35.8179876,-82.8596425,,,,human,true,
James Lunsford Family Cemetery,United States,North Carolina,Madison County,Rollins,Rollins,,35.7367347,-82.6717039,,,,human,true,
Cherry Springs Memorial Park,United States,NC,McDowell County,Old Fort,461 Cherry Springs Road,28762,35.5754106,-82.1876243,,,,human,true,
Estes Cemetery,United States,NC,Caldwell County,Collettsville,Old Johns River Road,28611,35.9569906,-81.7109215,,,,human,true,
Hensley Family Cemetery,United States,North Carolina,Buncombe County,Canto,Canto,,35.7234071,-82.7393673,,,,human,true,
Glen Alpine Cemetery,United States,NC,Burke County,Morganton,599 Linville Street,28655,35.7280435,-81.7856795,,,,human,true,
Mt. Moriah Calvert Church Cemetery,United States,NC,Transylvania County,Brevard,Brevard,28712,35.1610606,-82.8065773,,,,human,true,
Crotts Cementary,United States,North Carolina,Burke County,Enola,Enola,,35.5936273,-81.673027,,,,human,true,
Hensley Cemetery,United States,North Carolina,Madison County,Marshall,Marshall,,35.818667,-82.6769422,,,,human,true,
Wallin Cemetery,United States,North Carolina,Madison County,Lumptown,Lumptown,,35.8795701,-82.7396602,,,,human,true,
Boswell-Wambles Cemetery,United States,North Carolina,Madison County,Walnut,Walnut,,35.8487354,-82.7435638,,,,human,true,
Bachelder Cemetery,United States,North Carolina,Buncombe County,Jugtown,Jugtown,,35.5507496,-82.7297428,,,,human,true,
Craggy Correctional Center Cemetery,United States,North Carolina,Buncombe County,Elk Mountain,Elk Mountain,,35.6666849,-82.6069,,,,human,true,
Warren-Howell Cemetery,United States,North Carolina,Buncombe County,Beaverdam,Beaverdam,,35.4964378,-82.7064143,,,,human,true,
Shoal Hill Freewill Baptist Church Cemetery,United States,North Carolina,Madison County,Redmon,Redmon,,35.7786312,-82.7563005,,,,human,true,
Payne Family Cemetery,United States,North Carolina,Buncombe County,Barnardsville,Barnardsville,,35.7929579,-82.4615191,,,,human,true,
Olive Hill Cemetery,United States,North Carolina,Burke County,Morganton,Morganton,,35.7365953,-81.689891,,,,human,true,
Brown Cemetery,United States,North Carolina,Madison County,Bluff,Bluff,,35.83505,-82.8490529,,,,human,true,
Polk Memorial Gardens,United States,North Carolina,Polk County,Columbus,Columbus,,35.2444628,-82.2085632,,,,human,true,
Bon-A-Venture Cemetery,United States,North Carolina,Haywood County,Gibsontown,Gibsontown,,35.5539808,-82.811002,,,,human,true,
City Cemetery,United States,North Carolina,Gaston County,Cherryville,Cherryville,,35.3847057,-81.3772851,,,,human,true,
Maney Cemetery,United States,North Carolina,Buncombe County,Barnardsville,Barnardsville,,35.7723611,-82.4545945,,,,human,true,
Gaston Memorial Cemetery,United States,North Carolina,Gaston County,Gardner Park,Gardner Park,,35.2490665,-81.1394192,,,,human,true,
Hollywood Cemetery,United States,North Carolina,Gaston County,Love Park,Love Park,,35.2715738,-81.1752774,,,,human,true,
Rose Hill Cemetery,United States,North Carolina,Gaston County,Beaverbrook,Beaverbrook,,35.2763146,-81.1907354,,,,human,true,
New Hope Cemetery,United States,North Carolina,Cleveland County,Earl,Earl,,35.2002774,-81.5339908,,,,human,true,
Greenwood Cemetery,United States,North Carolina,Gaston County,South Belmont,South Belmont,,35.2369619,-81.0441397,,,,human,true,
Pisgah Gardens,United States,North Carolina,Transylvania County,Benton Hills,Benton Hills,,35.2687227,-82.6878465,,,,human,true,
Forest Lawn Cemetery,United States,North Carolina,Henderson County,Barker Heights,Barker Heights,,35.3201976,-82.4364524,,,,human,true,
Riverside Cemetery,United States,North Carolina,Buncombe County,Montford Hills,Montford Hills,,35.6005423,-82.5712379,,,,human,true,
Long Creek Church Cemetary,United States,North Carolina,Gaston County,Vantine,Vantine,,35.2875876,-81.3282184,,,,human,true,
Hillcrest Memorial Gardens,United States,North Carolina,Haywood County,Fairway Hills,Fairway Hills,,35.506361,-82.9897586,,,,human,true,
Wilson Wheeler Cemetery,United States,North Carolina,Yancey County,Murchison,Murchison,,35.824794,-82.3394165,,,,human,true,
Hooker-Moore Cemetery,United States,North Carolina,Transylvania County,Hamilton Estates,Hamilton Estates,,35.2035454,-82.6230581,,,,human,true,
Evergreen Gillespie Cemetery,United States,North Carolina,Transylvania County,Forest Hills,Forest Hills,,35.2223047,-82.7381325,,,,human,true,
West Memorial Park Cemetery,United States,North Carolina,Buncombe County,Weaverville,Weaverville,,35.6974285,-82.5569378,,,,human,true,
Silver Chapel Cemetery,United States,North Carolina,Mitchell County,Bandana,Bandana,,35.9730896,-82.1779078,,,,human,true,
Berea Cemetery,United States,North Carolina,Buncombe County,Riceville,Riceville,,35.6188097,-82.4552132,,,,human,true,
Forest Hill Cemetery,United States,North Carolina,Burke County,Morganton,Morganton,,35.7513211,-81.6746438,,,,human,true,
Fairview Cemetery,United States,North Carolina,Catawba County,Longview,Longview,,35.7443831,-81.3687532,,,,human,true,
Rehobeth Cemetery,United States,North Carolina,Cleveland County,Rehobeth,Rehobeth,,35.3647622,-81.6553765,,,,human,true,
Westminster Baptist Church Cemetery,United States,North Carolina,Rutherford County,Mount Pisgah (historical),Mount Pisgah (historical),,35.4648719,-81.8927384,,,,human,true,
County Memorial Cemetery,United States,North Carolina,Rutherford County,Harris,Harris,,35.2463222,-81.8439171,,,,human,true,
Providence Cemetery,United States,North Carolina,Rutherford County,Sandy Mush,Sandy Mush,,35.263709,-81.8302965,,,,human,true,
Sardis Cemetery,United States,North Carolina,Caldwell County,Johnson Development,Johnson Development,,35.8537561,-81.5005467,,,,human,true,
Oakwood Cemetery,United States,North Carolina,Catawba County,Hickory,Hickory,,35.7396178,-81.3424012,,,,human,true,
Bethel Cemetery,United States,North Carolina,Catawba County,Longview,Longview,,35.7337626,-81.3848564,,,,human,true,
Catawba Memorial Park,United States,North Carolina,Catawba County,Fairgrove,Fairgrove,,35.6958122,-81.2736017,,,,human,true,
Ridgeview Cemetery,United States,North Carolina,Catawba County,Hickory,Hickory,,35.7208147,-81.3447394,,,,human,true,
Saint Pauls Memorial Park,United States,North Carolina,Catawba County,Startown,Startown,,35.6471004,-81.2637755,,,,human,true,
Pisgah Cemetery,United States,North Carolina,Alexander County,Bethlehem,Bethlehem,,35.8145532,-81.3194315,,,,human,true,
Saint Lukes Cemetery,United States,North Carolina,Catawba County,Saint Stephens,Saint Stephens,,35.7806881,-81.2271463,,,,human,true,
Mount Olive Cemetery,United States,North Carolina,Catawba County,Catfish,Catfish,,35.7284477,-81.1051417,,,,human,true,
Smyres Cemetery,United States,North Carolina,Catawba County,Catawba,Catawba,,35.696506,-81.0792392,,,,human,true,
Glenwood Cemetery,United States,North Carolina,McDowell County,Glenwood,Glenwood,,35.6117615,-81.9710405,,,,human,true,
McDowell Memorial Park,United States,North Carolina,McDowell County,Clinchfield,Clinchfield,,35.7044329,-81.9770868,,,,human,true,
Southwest Cemetery,United States,NC,Catawba County,Newton,1635 Southwest Boulevard,28658,35.6397775,-81.2246249,,,,human,true,
Dana United Methodist Church Cemetery,United States,North Carolina,Henderson County,Dana,Dana,,35.3367239,-82.3739545,,,,human,true,
Carrs Hill Church Cemetery,United States,North Carolina,Transylvania County,Morgan Heights,Morgan Heights,,35.2056844,-82.7145665,,,,human,true,
Whitaker Cemetery,United States,North Carolina,Henderson County,Boylston,Boylston,,35.3889012,-82.6205167,,,,human,true,
Conover Cemetery,United States,North Carolina,Catawba County,Conover,Conover,,35.6999211,-81.2135607,,,,human,true,
Rose Hill Cemetery,United States,North Carolina,Cleveland County,Fallston,Fallston,,35.4253782,-81.5123473,,,,human,true,
New Salem Baptist Church Cemetery,United States,North Carolina,Buncombe County,Skyland,Skyland,,35.4846835,-82.5215831,,,,human,true,
Calvary Episcopal Church Cemetery,United States,North Carolina,Henderson County,Midway,Midway,,35.4436801,-82.5043338,,,,human,true,
Pace Cemetery,United States,North Carolina,Henderson County,Mountain Valley,Mountain Valley,,35.2135836,-82.4619017,,,,human,true,
Thomas Cemetery,United States,North Carolina,Transylvania County,Hamilton Estates,Hamilton Estates,,35.2005537,-82.6007375,,,,human,true,
Edney Family Cemetery,United States,North Carolina,Henderson County,Bat Cave,Bat Cave,,35.4403773,-82.2959488,,,,human,true,
Hoopers Creek Baptist Church Cemetery,United States,North Carolina,Henderson County,Goodluck,Goodluck,,35.4426736,-82.4355712,,,,human,true,
Henderson Cemetery,United States,North Carolina,Haywood County,Fibreville,Fibreville,,35.5587142,-82.8387845,,,,human,true,
Smathers Cemetery,United States,North Carolina,Haywood County,Fibreville,Fibreville,,35.5346617,-82.8503157,,,,human,true,
Patton Cemetery,United States,North Carolina,Haywood County,West Canton,West Canton,,35.5380628,-82.8710966,,,,human,true,
Eastview Cemetery,United States,North Carolina,Catawba County,Newton,Newton,,35.6603572,-81.2192357,,,,human,true,
Morning Star Cemetery,United States,North Carolina,Yancey County,Micaville,Micaville,,35.9088633,-82.2054359,,,,human,true,
Keever Cemetery,United States,North Carolina,Lincoln County,Triangle (historical),Triangle (historical),,35.4921568,-81.0537515,,,,human,true,
New Hope Church Cemetery,United States,North Carolina,Lincoln County,Machpelah,Machpelah,,35.442104,-81.0611685,,,,human,true,
Hills Chapel Cemetery,United States,North Carolina,Lincoln County,Lowesville,Lowesville,,35.4242245,-81.0101164,,,,human,true,
Cleveland Memorial Park,United States,North Carolina,Cleveland County,Poplar Springs,Poplar Springs,,35.2469969,-81.6357458,,,,human,true,
Beaver Dam Cemetery,United States,North Carolina,Cleveland County,Shanghai,Shanghai,,35.2923156,-81.6158804,,,,human,true,
Boiling Springs Cemetery,United States,North Carolina,Cleveland County,Boiling Springs,Boiling Springs,,35.2488687,-81.6661244,,,,human,true,
Lattimore Cemetery,United States,North Carolina,Cleveland County,Lattimore,Lattimore,,35.3140349,-81.6673354,,,,human,true,
Elizabeth Cemetery,United States,North Carolina,Cleveland County,Elizabeth City,Elizabeth City,,35.2903176,-81.4921461,,,,human,true,
Ross Grove Cemetery,United States,North Carolina,Cleveland County,Ross Grove,Ross Grove,,35.3166386,-81.5245594,,,,human,true,
Kistlers Chapel Cemetery,United States,North Carolina,Rutherford County,Shiloh,Shiloh,,35.2678109,-81.9581681,,,,human,true,
Union Cemetery,United States,North Carolina,Rutherford County,Union,Union,,35.3158391,-81.9925348,,,,human,true,
Weat Point Church Cemetery,United States,North Carolina,Rutherford County,Union,Union,,35.3282457,-81.989479,,,,human,true,
Shiloh Baptist Church Cemetery,United States,North Carolina,Rutherford County,Shiloh,Shiloh,,35.2974412,-81.9424443,,,,human,true,
Alexander Mills Cemetery,United States,North Carolina,Rutherford County,Alexander Mills,Alexander Mills,,35.3057777,-81.8562736,,,,human,true,
Gold Hill Cemetery,United States,North Carolina,Rutherford County,Thermal Valley,Thermal Valley,,35.4057326,-81.9578326,,,,human,true,
Oak Springs Church Cemetery,United States,North Carolina,Rutherford County,Gilkey,Gilkey,,35.4438774,-81.9397647,,,,human,true,
Oakdale Cemetery,United States,North Carolina,Henderson County,East Flat Rock,East Flat Rock,,35.2841014,-82.4296327,,,,human,true,
Beulah Cemetery,United States,North Carolina,Henderson County,Bowman Bluff,Bowman Bluff,,35.3047838,-82.5572619,,,,human,true,
Oak Forest Cemetery,United States,North Carolina,Henderson County,Etowah,Etowah,,35.3081609,-82.5856428,,,,human,true,
Sunset Cemetery,United States,North Carolina,Buncombe County,Shiloh,Shiloh,,35.5446472,-82.5204529,,,,human,true,
West Chapel Cemetery,United States,North Carolina,Buncombe County,Shiloh,Shiloh,,35.5457781,-82.5204292,,,,human,true,
Jolly Cemetery,United States,North Carolina,Alexander County,Taylorsville,Taylorsville,,35.9645161,-81.1792807,,,,human,true,
Lebanon Cemetery,United States,North Carolina,Wilkes County,Thankful,Thankful,,35.9999122,-81.2415691,,,,human,true,
Mount Carmel Cemetery,United States,North Carolina,Alexander County,Taylorsville,Taylorsville,,35.9046712,-81.1855123,,,,human,true,
Hiddenite Cemetery,United States,North Carolina,Alexander County,Hiddenite,Hiddenite,,35.902224,-81.0971264,,,,human,true,
Rhoney Chapel Cemetery,United States,North Carolina,Catawba County,Blackburn,Blackburn,,35.6196833,-81.3199575,,,,human,true,
Hollybrook Cemetery,United States,North Carolina,Lincoln County,Lincolnton,Lincolnton,,35.4803841,-81.2454179,,,,human,true,
David Memorial Church Cemetery,United States,North Carolina,Lincoln County,Lithia Springs,Lithia Springs,,35.4582907,-81.2052939,,,,human,true,
Pearl Church Cemetery,United States,North Carolina,Lincoln County,Iron Station,Iron Station,,35.4504709,-81.1558268,,,,human,true,
Salem Cemetery,United States,North Carolina,Lincoln County,Salem,Salem,,35.4329607,-81.1946885,,,,human,true,
Mount Vernon Church Cemetery,United States,North Carolina,Lincoln County,Iron Station,Iron Station,,35.4624952,-81.1738988,,,,human,true,
Forest Lawn Cemetery,United States,North Carolina,Lincoln County,Goodsonville,Goodsonville,,35.4950469,-81.1930298,,,,human,true,
Mount Zion Cemetery,United States,North Carolina,Lincoln County,Mariposa,Mariposa,,35.4143626,-81.0910415,,,,human,true,
Morningside Cemetery,United States,North Carolina,Gaston County,Mountain Island,Mountain Island,,35.3315374,-81.0096058,,,,human,true,
Cool Springs Cemetery,United States,North Carolina,Rutherford County,Forest City,Forest City,,35.3396171,-81.8712036,,,,human,true,
Hillcrest Cemetery,United States,North Carolina,Gaston County,Woodland (historical),Woodland (historical),,35.3220156,-81.0470938,,,,human,true,
Pineview Cemetery,United States,North Carolina,Gaston County,Hutchinson,Hutchinson,,35.2926099,-81.0301799,,,,human,true,
Central Cemetery,United States,North Carolina,Catawba County,Newton,Newton,,35.6589976,-81.2133045,,,,human,true,
Piney Mountain Cemetery,United States,North Carolina,Buncombe County,Glady,Glady,,35.512598,-82.7140657,,,,human,true,
Luther Cemetery,United States,North Carolina,Buncombe County,Hominy,Hominy,,35.5436377,-82.6734983,,,,human,true,
Forest Lawn Cemetery,United States,North Carolina,Buncombe County,Enka,Enka,,35.5431114,-82.6620356,,,,human,true,
Pisgah View Memorial Park,United States,North Carolina,Buncombe County,New Candler,New Candler,,35.5454255,-82.6857118,,,,human,true,
Beaverdam Freewill Baptist Church Cemetery,United States,North Carolina,Buncombe County,Beaverdam,Beaverdam,,35.4996715,-82.6902707,,,,human,true,
Laurel Hill United Methodist Church Cemetery,United States,North Carolina,Buncombe County,Beaverdam,Beaverdam,,35.4946347,-82.6874349,,,,human,true,
Mount Pisgah Baptist Church Cemetery,United States,North Carolina,Buncombe County,South Hominy,South Hominy,,35.4868551,-82.7363607,,,,human,true,
White Rock Cemetery,United States,North Carolina,Buncombe County,Glady,Glady,,35.5055692,-82.7331545,,,,human,true,
Hominy Baptist Church Cemetery,United States,North Carolina,Buncombe County,Candler Heights,Candler Heights,,35.5382765,-82.7031191,,,,human,true,
Mount Moriah Wesleyan Church Cemetery,United States,North Carolina,Buncombe County,Candler Heights,Candler Heights,,35.5480041,-82.7134703,,,,human,true,
Reeves Chapel Methodist Church Cemetery,United States,North Carolina,Buncombe County,Sand Hill,Sand Hill,,35.5383452,-82.6262128,,,,human,true,
Oak Forest Presbyterian Cemetery,United States,North Carolina,Buncombe County,Sand Hill,Sand Hill,,35.5522428,-82.629866,,,,human,true,
Beulah Baptist Church Cemetery,United States,North Carolina,Buncombe County,Sandymush,Sandymush,,35.6414813,-82.7763439,,,,human,true,
Union Baptist Church Cemetery,United States,North Carolina,Buncombe County,Canto,Canto,,35.7034692,-82.7435593,,,,human,true,
Jones Valley Baptist Church Cemetery,United States,North Carolina,Buncombe County,Sandymush,Sandymush,,35.6771879,-82.7905657,,,,human,true,
Chestnut Grove Cemetery,United States,North Carolina,Buncombe County,Sandymush,Sandymush,,35.6704059,-82.8379264,,,,human,true,
Western Chapel United Methodist Church Cemetery,United States,North Carolina,Buncombe County,Newfound,Newfound,,35.6325162,-82.7554124,,,,human,true,
Bell United Methodist Church Cemetery,United States,North Carolina,Buncombe County,Leicester,Leicester,,35.6540575,-82.6986005,,,,human,true,
Zion Hill Baptist Church Cemetery,United States,North Carolina,Buncombe County,Newfound,Newfound,,35.6084875,-82.7266184,,,,human,true,
Grace United Methodist Church Cemetery,United States,North Carolina,Buncombe County,Owltown,Owltown,,35.6136462,-82.7169046,,,,human,true,
Redmon Baptist Church Cemetery,United States,North Carolina,Buncombe County,Canto,Canto,,35.7241072,-82.7011423,,,,human,true,
Leicester Episcopal Church Yard,United States,North Carolina,Buncombe County,Leicester,Leicester,,35.6573162,-82.6933048,,,,human,true,
Macedonia Baptist Church Cemetery,United States,North Carolina,Buncombe County,Juno,Juno,,35.654088,-82.6342755,,,,human,true,
French Broad Missionary Baptist Church Cemetery,United States,North Carolina,Buncombe County,Alexander,Alexander,,35.6990313,-82.629599,,,,human,true,
Oak Grove Baptist Church Cemetery,United States,North Carolina,Buncombe County,Alexander,Alexander,,35.6759415,-82.6372255,,,,human,true,
Sluder Cemetery,United States,North Carolina,Buncombe County,Juno,Juno,,35.6344544,-82.6375389,,,,human,true,
Mount Sheba Cemetery,United States,North Carolina,Buncombe County,Alexander,Alexander,,35.706387,-82.5923629,,,,human,true,
Gunter Cemetery,United States,North Carolina,Buncombe County,Jupiter,Jupiter,,35.746341,-82.6337423,,,,human,true,
Flint Hill Cemetery,United States,North Carolina,Buncombe County,Jupiter,Jupiter,,35.7453741,-82.6345467,,,,human,true,
Ashelawn Gardens of Memory,United States,North Carolina,Buncombe County,Stoney Knob,Stoney Knob,,35.6711844,-82.5967214,,,,human,true,
Locust Grove Cemetery,United States,North Carolina,Buncombe County,Flat Creek,Flat Creek,,35.7750446,-82.5617471,,,,human,true,
Jupiter Cemetery,United States,North Carolina,Buncombe County,Jupiter,Jupiter,,35.7623698,-82.5911067,,,,human,true,
Sheppard Cemetery,United States,North Carolina,Buncombe County,Jupiter,Jupiter,,35.735999,-82.6026026,,,,human,true,
Clarks Chapel Cemetery,United States,North Carolina,Buncombe County,Weaverville,Weaverville,,35.7149473,-82.5630851,,,,human,true,
Big Ivy Cemetery,United States,North Carolina,Buncombe County,Barnardsville,Barnardsville,,35.7843055,-82.464895,,,,human,true,
Absalom Dillingham Cemetery;Williams Branch Cemetery,United States,North Carolina,Buncombe County,Rockview,Rockview,,35.7675079,-82.4308069,,,,human,true,
Mountain View Cemetery,United States,North Carolina,Buncombe County,Walkertown,Walkertown,,35.6492755,-82.3393676,,,,human,true,
Homers Chapel Cemetery,United States,North Carolina,Buncombe County,Black Mountain,Black Mountain,,35.6295115,-82.3365352,,,,human,true,
Nanney Family Cemetery,United States,North Carolina,Buncombe County,Grovestone,Grovestone,,35.6202864,-82.3489643,,,,human,true,
Western Carolina State Veterans Cemetery,United States,North Carolina,Buncombe County,Grovestone,Grovestone,,35.6114101,-82.3557733,,,,human,true,
Piney Grove Cemetery,United States,North Carolina,Buncombe County,Swannanoa,Swannanoa,,35.6071753,-82.4130119,,,,human,true,
Bethel Cemetery,United States,North Carolina,Buncombe County,Riceville,Riceville,,35.6179931,-82.4759839,,,,human,true,
Bald Mountain Cemetery,United States,North Carolina,Buncombe County,Shumont,Shumont,,35.4704719,-82.2637461,,,,human,true,
Patterson Springs Cemetery,United States,North Carolina,Cleveland County,Patterson Springs,Patterson Springs,,35.22924,-81.5130736,,,,human,true,
Ellis Chapel Cemetery,United States,North Carolina,Cleveland County,Patterson Springs,Patterson Springs,,35.2259723,-81.5221495,,,,human,true,
Belmont Abbey Cemetery,United States,North Carolina,Gaston County,North Belmont,North Belmont,,35.2633093,-81.0399613,,,,human,true,
Davidson River Cemetery,United States,North Carolina,Transylvania County,Benton Hills,Benton Hills,,35.2649288,-82.6898544,,,,human,true,
Banks Cemetery,United States,North Carolina,Yancey County,Mount Mitchell,Mount Mitchell,,35.9009477,-82.2932176,,,,human,true,
Honeycutt Cemetery,United States,North Carolina,Yancey County,Windom,Windom,,35.9097613,-82.2585372,,,,human,true,
Silver Cemetery,United States,North Carolina,Yancey County,Windom,Windom,,35.9074491,-82.2470032,,,,human,true,
Edge Cemetery,United States,North Carolina,Yancey County,Windom,Windom,,35.9102958,-82.2350032,,,,human,true,
Spruce Pine Memorial Cemetery,United States,North Carolina,Mitchell County,Spruce Pine,Spruce Pine,,35.9035848,-82.0732843,,,,human,true,
Mountain View Cemetery,United States,North Carolina,Burke County,Rutherford College,Rutherford College,,35.7412825,-81.5221432,,,,human,true,
Belleview Cemetery,United States,North Carolina,Caldwell County,Lenoir,Lenoir,,35.9229136,-81.5380448,,,,human,true,
Oakwood Cemetery,United States,North Carolina,Gaston County,Gastonia,Gastonia,,35.2614101,-81.1884747,,,,human,true,
Race Path Baptist Cemetery,United States,North Carolina,Rutherford County,Six Points,Six Points,,35.2943904,-81.7505247,,,,human,true,
Southern Church Cemetery,United States,North Carolina,Rutherford County,Ruth,Ruth,,35.3783382,-81.9436663,,,,human,true,
Gilboa Cemetery,United States,North Carolina,Rutherford County,Gilkey,Gilkey,,35.423509,-81.9781325,,,,human,true,
Bearwallow Mountain Cemetery,United States,NC,Henderson County,Gerton,159 Bearwallow Cemetery Road,28735,35.4809721,-82.351057,,,,human,true,
Inanda Cemetery,United States,North Carolina,Buncombe County,Venable Community,Venable Community,,35.5530634,-82.5997252,,,,human,true,
Firestone Memorial Cemetery,United States,North Carolina,Gaston County,Gastonia,Gastonia,,35.2489233,-81.1768773,,,,human,true,
Stuart Cemetery,United States,North Carolina,Henderson County,Boylston,Boylston,,35.4061559,-82.6347678,,,,human,true,
Mud Creek Baptist Church Cemetery,United States,North Carolina,Henderson County,Chanteloupe Country Estates,Chanteloupe Country Estates,,35.2902972,-82.45377,,,,human,true,
Ivey United Methodist Cemetery,United States,North Carolina,Lincoln County,Pumpkin Center,Pumpkin Center,,35.5444007,-81.1721501,,,,human,true,
Pleasant Hill Church Cemetery,United States,North Carolina,Mecklenburg County,Pine Harbor,Pine Harbor,,35.0954983,-81.020323,,,,human,true,
Old White Church Cemetery,United States,North Carolina,Lincoln County,Lincolnton,Lincolnton,,35.4699703,-81.2556098,,,,human,true,
O'Conner's Grove Methodist Church Cemetery,United States,North Carolina,Gaston County,Belmont,Belmont,,35.2549192,-81.0433629,,,,human,true,
St. Benedict (St. Leo) Cemetery,United States,North Carolina,Gaston County,Belmont,Belmont,,35.2566915,-81.0443625,,,,human,true,
Wells Cemetery,United States,North Carolina,Gaston County,Brown Town,Brown Town,,35.2426135,-81.0149215,,,,human,true,
Bentley Cemetery,United States,North Carolina,Alexander County,Little River,Little River,,35.871449,-81.2752397,,,,human,true,
Davis Chapel Cemetery,United States,North Carolina,Haywood County,Iron Duff,Iron Duff,,35.5796089,-82.9682021,,,,human,true,
Crabtree Baptist Church Cemetery,United States,North Carolina,Haywood County,Crabtree,Crabtree,,35.5992261,-82.9400578,,,,human,true,
Gashes Creek Baptist Church Cemetery,United States,North Carolina,Buncombe County,Gashes Creek,Gashes Creek,,35.5664342,-82.4934997,,,,human,true,
Bear Creek Baptist Church Cemetery,United States,North Carolina,Mitchell County,Normanville,Normanville,,35.9657499,-82.1106429,,,,human,true,
Old Blue Rock Cemetery,United States,North Carolina,Yancey County,Blue Rock,Blue Rock,,35.8894114,-82.1821973,,,,human,true,
New Morgan Hill Baptist Church Cemetery,United States,North Carolina,Buncombe County,Enka Village,Enka Village,,35.5300499,-82.6550004,,,,human,true,
Cane River Church Cemetery,United States,North Carolina,Yancey County,Cane,Cane,,35.9128144,-82.3711628,,,,human,true,
Gilbert Wilson Cemetery,United States,North Carolina,Yancey County,Cane,Cane,,35.9008662,-82.391071,,,,human,true,
Penland Cemetery,United States,North Carolina,Yancey County,Cane,Cane,,35.9004126,-82.3946438,,,,human,true,
Crain Cemetery,United States,North Carolina,Yancey County,Cane River,Cane River,,35.907137,-82.4035869,,,,human,true,
Gibbs Cemetery,United States,North Carolina,Yancey County,Bald Creek,Bald Creek,,35.9150765,-82.4115056,,,,human,true,
Phillips Family Cemetery,United States,North Carolina,Yancey County,Bald Creek,Bald Creek,,35.9202439,-82.4143321,,,,human,true,
Chandler Cemetery,United States,North Carolina,Yancey County,Swiss,Swiss,,35.9079443,-82.4705993,,,,human,true,
Jess Buckner Cemetery,United States,North Carolina,Yancey County,Swiss,Swiss,,35.9157202,-82.455968,,,,human,true,
Mount Pleasant Cemetery,United States,North Carolina,Yancey County,Swiss,Swiss,,35.9138764,-82.444168,,,,human,true,
J R Pate Cemetery,United States,North Carolina,Yancey County,Bald Creek,Bald Creek,,35.9137968,-82.4347562,,,,human,true,
Elbert Proffitt Cemetery,United States,North Carolina,Yancey County,Elk Shoal,Elk Shoal,,35.9313712,-82.4082236,,,,human,true,
