name,country,state,county,city,street_address,zip_code,latitude,longitude,email,website,phone_number,type,is_operational,description
Abbott Cemetery,United States,Ohio,Pike County,Elm Grove,Elm Grove,,39.0586806,-83.1904617,,,,human,true,
Adams Cemetery,United States,Ohio,Scioto County,Days Mobile Home Park,Days Mobile Home Park,,38.773131,-83.0560098,,,,human,true,
Alderman Cemetery,United States,Ohio,Pike County,Spellman Crossing,Spellman Crossing,,39.1503453,-83.2471314,,,,human,true,
Alkire Cemetery,United States,Ohio,Pickaway County,Woodlyn,Woodlyn,,39.565062,-83.1226869,,,,human,true,
Arron Kellar Farm Cemetery,United States,Ohio,Pickaway County,Crownover Mill,Crownover Mill,,39.6031175,-83.2371357,,,,human,true,
Arthur Dunlap Farm Cemetery,United States,Ohio,Pickaway County,Williamsport,Williamsport,,39.6178398,-83.1429657,,,,human,true,
Bamber Cemetery,United States,Ohio,Brown County,Kirbyville,Kirbyville,,39.131175,-83.974098,,,,human,true,
Barnett Cemetery,United States,Ohio,Ross County,Nipgen,Nipgen,,39.1745114,-83.1337943,,,,human,true,
Barton Cemetery,United States,Ohio,Pike County,Latham,Latham,,39.1147905,-83.2271303,,,,human,true,
Benner Cemetery,United States,Ohio,Ross County,Bainbridge,Bainbridge,,39.2403434,-83.267133,,,,human,true,
Bennington Cemetery,United States,Ohio,Brown County,Ash Ridge,Ash Ridge,,38.8986808,-83.7007553,,,,human,true,
Bethel Cemetery,United States,Ohio,Warren County,Mathers Mills,Mathers Mills,,39.4058936,-84.1071565,,,,human,true,
Bigger Cemetery,United States,Ohio,Warren County,Otterbein,Otterbein,,39.4600587,-84.3032728,,,,human,true,
Bohrer Cemetery,United States,Ohio,Brown County,Arnheim,Arnheim,,38.9020134,-83.8257592,,,,human,true,
Branham Cemetery,United States,Ohio,Scioto County,Henley,Henley,,38.7953521,-83.1926814,,,,human,true,
Bratton Cemetery,United States,Ohio,Highland County,Sicily (historical),Sicily (historical),,39.0242331,-83.8610392,,,,human,true,
Brewer Cemetery,United States,Ohio,Pike County,Tennyson,Tennyson,,39.0517365,-83.1368485,,,,human,true,
Brown Cemetery,United States,Ohio,Pike County,Camp,Camp,,38.9775713,-83.1479593,,,,human,true,
Burk Cemetery,United States,Ohio,Butler County,Reily,Reily,,39.4347759,-84.7513411,,,,human,true,
Burris Cemetery,United States,Ohio,Adams County,Emerald,Emerald,,39.0064567,-83.6874227,,,,human,true,
Butters Cemetery,United States,Ohio,Highland County,Turkey,Turkey,,39.1389557,-83.4363038,,,,human,true,
Caesar Creek Cemetery,United States,Ohio,Greene County,Shawnee Hills,Shawnee Hills,,39.6806161,-83.7827029,,,,human,true,
Calkins Cemetery,United States,Ohio,Pike County,R and J Mobile Home Park,R and J Mobile Home Park,,39.048681,-83.0790687,,,,human,true,
Carmean Cemetery,United States,Ohio,Fayette County,Staunton,Staunton,,39.4786739,-83.4696402,,,,human,true,
Cassel Cemetery,United States,Ohio,Adams County,Blue Creek,Blue Creek,,38.7981289,-83.3521313,,,,human,true,
Chipman Cemetery,United States,Ohio,Pickaway County,Westfall,Westfall,,39.5689509,-83.0107384,,,,human,true,
Clayton Number 2 Cemetery,United States,Ohio,Pike County,Morgantown,Morgantown,,39.1075685,-83.1837953,,,,human,true,
Cole Cemetery,United States,Ohio,Scioto County,Coles Park,Coles Park,,38.789242,-83.0148974,,,,human,true,
Conley Cemetery,United States,Ohio,Scioto County,Dry Run,Dry Run,,38.7806309,-83.0448984,,,,human,true,
Copas Cemetery,United States,Ohio,Adams County,Selig,Selig,,38.7717403,-83.3649093,,,,human,true,
Correll Cemetery,United States,Ohio,Madison County,Florence,Florence,,39.7903377,-83.55381,,,,human,true,
Cowman Cemetery,United States,Ohio,Highland County,Bridges,Bridges,,39.3086752,-83.4863063,,,,human,true,
Craig Cemetery,United States,Ohio,Warren County,Pleasant Plain,Pleasant Plain,,39.2856255,-84.111323,,,,human,true,
Creek Cemetery,United States,Ohio,Highland County,Boston,Boston,,39.2017317,-83.5451963,,,,human,true,
Curp Cemetery,United States,Ohio,Highland County,Carmel,Carmel,,39.1542333,-83.4182478,,,,human,true,
Daley Cemetery,United States,Ohio,Pike County,Sargents,Sargents,,39.0053489,-83.0173993,,,,human,true,
Davis Cemetery,United States,Ohio,Fayette County,Boyds,Boyds,,39.4697851,-83.3946385,,,,human,true,
Dixon Cemetery,United States,Ohio,Preble County,Corvin (historical),Corvin (historical),,39.7264395,-84.7366226,,,,human,true,
Duncan Cemetery,United States,Ohio,Scioto County,Owensville,Owensville,,38.867018,-83.0671221,,,,human,true,
Dungan Farm Cemetery,United States,Ohio,Ross County,Yellowbud,Yellowbud,,39.5164507,-83.0379615,,,,human,true,
Dunham Cemetery,United States,Ohio,Brown County,Fayetteville,Fayetteville,,39.204785,-83.9421524,,,,human,true,
Dwyer Cemetery,United States,Ohio,Highland County,The Point,The Point,,39.2667316,-83.3651916,,,,human,true,
Early Cemetery,United States,Ohio,Scioto County,Youngs,Youngs,,38.8900726,-83.2032382,,,,human,true,
Edger Cemetery,United States,Ohio,Pike County,Morgantown,Morgantown,,39.1486787,-83.1932405,,,,human,true,
Ellis Cemetery,United States,Ohio,Highland County,Sharpsville (historical),Sharpsville (historical),,39.2453401,-83.7621466,,,,human,true,
English Cemetery,United States,Ohio,Miami County,Tipp City,Tipp City,,39.9520004,-84.1766084,,,,human,true,
Evans Cemetery,United States,Ohio,Madison County,Newport,Newport,,39.8458934,-83.4721422,,,,human,true,
Eyeman-Bryant Cemetery,United States,Ohio,Fayette County,McLean,McLean,,39.4850627,-83.332415,,,,human,true,
Fenner Cemetery,United States,Ohio,Highland County,Fairfax,Fairfax,,39.0245124,-83.5938084,,,,human,true,
Forney Cemetery,United States,Ohio,Montgomery County,Liberty,Liberty,,39.7220014,-84.3393889,,,,human,true,
Frazer Cemetery,United States,Ohio,Highland County,Belfast,Belfast,,39.0522899,-83.5510293,,,,human,true,
Friends Cemetery,United States,Ohio,Preble County,West Elkton,West Elkton,,39.5864436,-84.5538377,,,,human,true,
Gheils Cemetery,United States,Ohio,Warren County,Rossburg,Rossburg,,39.3131159,-84.1221566,,,,human,true,
Gibler Cemetery,United States,Ohio,Highland County,Fairview,Fairview,,39.1970079,-83.7349238,,,,human,true,
Gilbert Cemetery,United States,Ohio,Warren County,Mason,Mason,,39.3809127,-84.3225372,,,,human,true,
Gladstone Cemetery,United States,Ohio,Ross County,Denver,Denver,,39.1728449,-83.0846259,,,,human,true,
Golden Gate Cemetery,United States,Ohio,Ross County,Brownsville,Brownsville,,39.2770092,-83.0151803,,,,human,true,
Grey Cemetery,United States,Ohio,Ross County,Humboldt,Humboldt,,39.2789538,-83.320746,,,,human,true,
Hall Cemetery,United States,Ohio,Scioto County,Days Mobile Home Park,Days Mobile Home Park,,38.7672978,-83.0448983,,,,human,true,
Hansbrough Cemetery,United States,Ohio,Highland County,Samantha,Samantha,,39.2545082,-83.5693637,,,,human,true,
Hanson Cemetery,United States,Ohio,Pickaway County,Woodlyn,Woodlyn,,39.5514509,-83.1037973,,,,human,true,
Henry Cemetery,United States,Ohio,Pike County,Elm Grove,Elm Grove,,39.0395144,-83.1693495,,,,human,true,
Higgins Cemetery,United States,Ohio,Highland County,Sicily (historical),Sicily (historical),,39.0322884,-83.8668726,,,,human,true,
Hinton Farm Cemetery,United States,Ohio,Pickaway County,Grange Hall,Grange Hall,,39.6139508,-83.1743556,,,,human,true,
Howard Cemetery,United States,Ohio,Warren County,Blackhawk,Blackhawk,,39.3317273,-84.0885449,,,,human,true,
Huff Cemetery,United States,Ohio,Highland County,Bridges,Bridges,,39.3145084,-83.4938065,,,,human,true,
Hurst Cemetery,United States,Ohio,Highland County,North Uniontown,North Uniontown,,39.0817342,-83.50075,,,,human,true,
Hyattsville Cemetery,United States,Ohio,Miami County,Tipp City,Tipp City,,39.9639446,-84.1796642,,,,human,true,
Hymiller Cemetery,United States,Ohio,Ross County,Humboldt,Humboldt,,39.2672346,-83.3215626,,,,human,true,
Independence Cemetery,United States,Ohio,Brown County,Macon,Macon,,38.9281247,-83.7138117,,,,human,true,
Johnson Cemetery,United States,Ohio,Highland County,Bridges,Bridges,,39.2733975,-83.5093622,,,,human,true,
Keller Cemetery,United States,Ohio,Warren County,Pleasant Plain,Pleasant Plain,,39.2914494,-84.1027118,,,,human,true,
Kelley Cemetery,United States,Ohio,Adams County,Louden,Louden,,39.0409017,-83.47436,,,,human,true,
Kelly Cemetery,United States,Ohio,Scioto County,Arion,Arion,,38.8486849,-83.102401,,,,human,true,
Kelly Cemetery,United States,Ohio,Highland County,Prospect,Prospect,,39.1597876,-83.5890863,,,,human,true,
Kennard Cemetery,United States,Ohio,Butler County,Newkirk,Newkirk,,39.391165,-84.7730078,,,,human,true,
Kilgore Cemetery,United States,Ohio,Madison County,Newport,Newport,,39.8161712,-83.4635306,,,,human,true,
Klutz Cemetery,United States,Ohio,Ross County,Summithill,Summithill,,39.2056219,-83.113794,,,,human,true,
Knob Cemetery,United States,Ohio,Highland County,Sugar Tree Ridge,Sugar Tree Ridge,,39.0511782,-83.6482547,,,,human,true,
Landaker Cemetery,United States,Ohio,Warren County,Rossburg,Rossburg,,39.3281159,-84.1210455,,,,human,true,
Leavell Cemetery,United States,Ohio,Fayette County,Yankeetown,Yankeetown,,39.6558947,-83.2813037,,,,human,true,
Leeth Creek Cemetery,United States,Ohio,Pike County,Idaho,Idaho,,39.1114573,-83.1493497,,,,human,true,
Lewis Farm Cemetery,United States,Ohio,Pickaway County,Kozy Corners,Kozy Corners,,39.5903398,-83.1796335,,,,human,true,
Long Cemetery,United States,Ohio,Brown County,Ferristown,Ferristown,,39.2214514,-83.9135404,,,,human,true,
Lunbeck Cemetery,United States,Ohio,Ross County,New Salem (historical),New Salem (historical),,39.2953423,-83.3857479,,,,human,true,
Lutz Cemetery,United States,Ohio,Ross County,Clarksburg,Clarksburg,,39.5006179,-83.191578,,,,human,true,
Martin Cemetery,United States,Ohio,Brown County,Port Chardon Mobile Home Park,Port Chardon Mobile Home Park,,38.7820157,-83.8546474,,,,human,true,
McDermitt Cemetery,United States,Ohio,Scioto County,McGaw,McGaw,,38.6372986,-83.229348,,,,human,true,
McFaddin Cemetery,United States,Ohio,Brown County,Eastland Mobile Home Park,Eastland Mobile Home Park,,38.8820136,-83.8735381,,,,human,true,
Mechlin Cemetery,United States,Ohio,Pike County,Camp,Camp,,38.9870156,-83.1354589,,,,human,true,
Miller Cemetery,United States,Ohio,Pike County,Wetmore,Wetmore,,38.94785,-83.0232323,,,,human,true,
Milliron Cemetery,United States,Ohio,Pike County,Riverdale,Riverdale,,39.015904,-83.0882352,,,,human,true,
Mitchell Cemetery,United States,Ohio,Clinton County,Mount Pleasant,Mount Pleasant,,39.5347833,-83.8482604,,,,human,true,
Moats Cemetery,United States,Ohio,Pike County,Daleyville,Daleyville,,39.1270125,-83.0612912,,,,human,true,
Mount Auburn Cemetery,United States,Ohio,Ross County,Nipgen,Nipgen,,39.1634006,-83.1596284,,,,human,true,
Mustard Cemetery,United States,Ohio,Pike County,Elm Grove,Elm Grove,,39.0586807,-83.1529604,,,,human,true,
Narrows Pet Cemetery,United States,Ohio,Montgomery County,Shiloh,Shiloh,,39.840335,-84.2277202,,,,pet,true,
Nicholas Cemetery,United States,Ohio,Montgomery County,Liberty,Liberty,,39.709224,-84.3282772,,,,human,true,
Nuckols Cemetery,United States,Ohio,Ross County,Fruitdale,Fruitdale,,39.2886758,-83.3365799,,,,human,true,
Null Cemetery,United States,Ohio,Warren County,Flat Iron,Flat Iron,,39.5286705,-84.2263268,,,,human,true,
Old Clay Cemetery,United States,Ohio,Pike County,Idaho,Idaho,,39.0997909,-83.1571276,,,,human,true,
Old Creamer Cemetery,United States,Ohio,Fayette County,Parrott,Parrott,,39.6175612,-83.5401978,,,,human,true,
Old Johnston Cemetery,United States,Ohio,Madison County,Chrisman,Chrisman,,39.7908935,-83.412696,,,,human,true,
Osborne Cemetery,United States,Ohio,Warren County,Edwardsville,Edwardsville,,39.3225616,-84.0038209,,,,human,true,
Parker Cemetery,United States,Ohio,Scioto County,Henley,Henley,,38.7950743,-83.1999039,,,,human,true,
Pinchey Cemetery,United States,Ohio,Brown County,Brown County Mobile Home Park,Brown County Mobile Home Park,,38.9908999,-83.9296522,,,,human,true,
Pisgah Cemetery,United States,Ohio,Miami County,Brown,Brown,,39.9495017,-84.1027166,,,,human,true,
Pope Cemetery,United States,Ohio,Highland County,East Monroe,East Monroe,,39.336175,-83.4660281,,,,human,true,
Postle Cemetery,United States,Ohio,Franklin County,Westwoods Village,Westwoods Village,,39.9428407,-83.1437999,,,,human,true,
Poyner Cemetery,United States,Ohio,Preble County,Muttonville,Muttonville,,39.6739408,-84.6852316,,,,human,true,
Pumill Cemetery,United States,Ohio,Highland County,Coon Crossing,Coon Crossing,,39.1417336,-83.4015806,,,,human,true,
Ralston Cemetery,United States,Ohio,Brown County,Whiteoak Springs (historical),Whiteoak Springs (historical),,38.9403453,-83.943263,,,,human,true,
Reader Cemetery,United States,Ohio,Brown County,Ellsberry,Ellsberry,,38.6745181,-83.7346428,,,,human,true,
Rehoboth Cemetery,United States,Ohio,Montgomery County,Manor (historical),Manor (historical),,39.5833929,-84.1668815,,,,human,true,
Rickey Cemetery,United States,Ohio,Brown County,Ash Ridge,Ash Ridge,,38.8914587,-83.7165891,,,,human,true,
Rock Mills Cemetery,United States,Ohio,Fayette County,Rock Mills,Rock Mills,,39.4408964,-83.4015829,,,,human,true,
Rossella Cemetery,United States,Ohio,Warren County,Edwardsville,Edwardsville,,39.3245056,-84.042155,,,,human,true,
Runyan Cemetery,United States,Ohio,Warren County,Butlerville,Butlerville,,39.3014496,-84.088267,,,,human,true,
Russell Number 1 Cemetery,United States,Ohio,Pike County,Idaho,Idaho,,39.0842357,-83.1471271,,,,human,true,
Salem Cemetery,United States,Ohio,Warren County,Springboro,Springboro,,39.5375595,-84.2082709,,,,human,true,
Sallee Cemetery,United States,Ohio,Brown County,Higginsport,Higginsport,,38.8331253,-83.9763183,,,,human,true,
Satterfield Cemetery,United States,Ohio,Adams County,Beasley Fork,Beasley Fork,,38.7853504,-83.4793577,,,,human,true,
Sewell Cemetery,United States,Ohio,Clinton County,Clarksville,Clarksville,,39.3783948,-83.9552083,,,,human,true,
Shanks Cemetery,United States,Ohio,Pike County,Latham,Latham,,39.0970131,-83.2143518,,,,human,true,
Sifrit Cemetery,United States,Ohio,Madison County,Newport,Newport,,39.8164489,-83.4721419,,,,human,true,
Snyder Cemetery,United States,Ohio,Ross County,Humboldt,Humboldt,,39.2733983,-83.309079,,,,human,true,
Spurling Cemetery,United States,Ohio,Warren County,Pleasant Plain,Pleasant Plain,,39.2725607,-84.0952116,,,,human,true,
Stiles Cemetery,United States,Ohio,Warren County,Pleasant Plain,Pleasant Plain,,39.2697826,-84.115212,,,,human,true,
Stout Cemetery,United States,Ohio,Adams County,Stout,Stout,,38.6656306,-83.3865759,,,,human,true,
Stuckey Cemetery,United States,Ohio,Fayette County,Ghormley (historical),Ghormley (historical),,39.4133967,-83.3524148,,,,human,true,
Sugar Creek Cemetery,United States,Ohio,Fayette County,Luray,Luray,,39.5486731,-83.5093636,,,,human,true,
Sugar Valley Cemetery,United States,Ohio,Preble County,Sugar Valley,Sugar Valley,,39.6850513,-84.7155104,,,,human,true,
Templin Cemetery,United States,Ohio,Warren County,Blackhawk,Blackhawk,,39.3108943,-84.0621554,,,,human,true,
Thomas Cemetery,United States,Ohio,Pickaway County,Crownover Mill,Crownover Mill,,39.6308951,-83.2079681,,,,human,true,
Timmons Cemetery,United States,Ohio,Madison County,Chrisman,Chrisman,,39.8175608,-83.3388057,,,,human,true,
Turner Cemetery,United States,Ohio,Montgomery County,Drexel,Drexel,,39.7658908,-84.2954994,,,,human,true,
Tuttle Cemetery,United States,Ohio,Clark County,Garden Acres,Garden Acres,,39.9331158,-83.7213148,,,,human,true,
Tyler Cemetery,United States,Ohio,Highland County,Bridges,Bridges,,39.3136752,-83.4726949,,,,human,true,
Tyler Cemetery,United States,Ohio,Highland County,East Monroe,East Monroe,,39.3408972,-83.4524167,,,,human,true,
Underwood Cemetery,United States,Ohio,Clinton County,New Vienna,New Vienna,,39.2986738,-83.6749221,,,,human,true,
Vance Cemetery,United States,Ohio,Highland County,Sicily (historical),Sicily (historical),,39.0195108,-83.8665949,,,,human,true,
Walker Number 1 Cemetery,United States,Ohio,Highland County,Fairfax,Fairfax,,39.0572895,-83.5976975,,,,human,true,
Wardlow Cemetery,United States,Ohio,Brown County,White Oak,White Oak,,38.9981224,-83.8763174,,,,human,true,
Warwick-Rhodes Cemetery,United States,Ohio,Warren County,Red Lion,Red Lion,,39.4981149,-84.2535493,,,,human,true,
Waters Cemetery,United States,Ohio,Brown County,Macon,Macon,,38.9250692,-83.7127005,,,,human,true,
Weller Cemetery,United States,Ohio,Ross County,Humboldt,Humboldt,,39.2650651,-83.3138013,,,,human,true,
West Mary Cemetery,United States,Ohio,Clinton County,Blanchester,Blanchester,,39.3008948,-84.0152101,,,,human,true,
Westmont Cemetery,United States,Ohio,Montgomery County,New Chicago,New Chicago,,39.7247811,-84.2452194,,,,human,true,
Wildason Animal Cemetery,United States,Ohio,Clark County,Donnelsville,Donnelsville,,39.9195038,-83.9546553,,,,human,true,
Williamson Cemetery,United States,Ohio,Scioto County,Valley View,Valley View,,38.7772977,-83.0210086,,,,human,true,
Winters Cemetery,United States,Ohio,Miami County,Babbtown (historical),Babbtown (historical),,39.9758903,-84.1068837,,,,human,true,
Winterstein Cemetery,United States,Ohio,Scioto County,Pink,Pink,,38.7611855,-83.2826842,,,,human,true,
Wright Cemetery,United States,Ohio,Highland County,Sicily (historical),Sicily (historical),,39.0072889,-83.8513167,,,,human,true,
Yale Cemetery,United States,Ohio,Clark County,Garden Acres,Garden Acres,,39.9258935,-83.7257592,,,,human,true,
Johnson Cemetery,United States,Ohio,Fayette County,Johnson,Johnson,,39.5511733,-83.3307487,,,,human,true,
Union Chapel Cemetery,United States,Ohio,Fayette County,Yatesville,Yatesville,,39.6789496,-83.4504741,,,,human,true,
Young Cemetery,United States,Ohio,Adams County,Squirrel Town,Squirrel Town,,38.7000744,-83.4060212,,,,human,true,
Gutzwillers Grove Cemetery,United States,Ohio,Hamilton County,White Oak East,White Oak East,,39.2036689,-84.5874452,,,,human,true,
Juterboch Farm Cemetery,United States,Ohio,Warren County,Foster,Foster,,39.3275589,-84.2493815,,,,human,true,
Seyforth Cemetery,United States,Ohio,Hamilton County,Loveland,Loveland,,39.2745034,-84.2343809,,,,human,true,
Tiger Cemetery,United States,Ohio,Warren County,Cozaddale,Cozaddale,,39.2695043,-84.1568794,,,,human,true,
Hyer Cemetery,United States,Ohio,Fayette County,Staunton,Staunton,,39.4928405,-83.4676959,,,,human,true,
Kirk Cemetery,United States,Ohio,Fayette County,Prairie Knolls Mobile Home Park,Prairie Knolls Mobile Home Park,,39.6411721,-83.5040861,,,,human,true,
Barnes Number 2 Cemetery,United States,Ohio,Pike County,Lake White Mobile Home Park,Lake White Mobile Home Park,,39.1322902,-83.0235121,,,,human,true,
Russell Number 2 Cemetery,United States,Ohio,Pike County,Riverdale,Riverdale,,38.9847936,-83.0640675,,,,human,true,
Bartlow Cemetery,United States,Ohio,Clermont County,Utopia,Utopia,,38.7786816,-84.0393747,,,,human,true,
Bingamon Cemetery,United States,Ohio,Highland County,Sicily (historical),Sicily (historical),,39.0395104,-83.8782618,,,,human,true,
Brush Creek Cemetery,United States,Ohio,Brown County,Five Points,Five Points,,38.9813382,-83.7564777,,,,human,true,
Devore Family Cemetery,United States,Ohio,Brown County,Redoak,Redoak,,38.8053488,-83.8199245,,,,human,true,
Dye Cemetery,United States,Ohio,Brown County,Eastland Mobile Home Park,Eastland Mobile Home Park,,38.8586809,-83.8515928,,,,human,true,
Methodist Colored Cemetery,United States,Ohio,Brown County,Five Points,Five Points,,38.9892344,-83.7649252,,,,human,true,
Fairfield Trustees Cemetery,United States,Ohio,Hamilton County,Dunlap,Dunlap,,39.3131119,-84.621336,,,,human,true,
Fenton Cemetery,United States,Ohio,Butler County,Auburn,Auburn,,39.3772771,-84.7030056,,,,human,true,
Smalley Cemetery,United States,Ohio,Butler County,Country Club Highlands,Country Club Highlands,,39.4236684,-84.4641108,,,,human,true,
County Home Cemetery,United States,Ohio,Highland County,Hillsboro Mobile Home Park,Hillsboro Mobile Home Park,,39.1831209,-83.5449184,,,,human,true,
Parks Cemetery,United States,Ohio,Highland County,Berrysville,Berrysville,,39.1064555,-83.5688078,,,,human,true,
Dille Cemetery,United States,Ohio,Montgomery County,Crown Village Mobile Park,Crown Village Mobile Park,,39.8039475,-84.1221604,,,,human,true,
Methodist Cemetery,United States,Ohio,Madison County,Mount Sterling,Mount Sterling,,39.7178389,-83.2635259,,,,human,true,
Brower Cemetery,United States,Ohio,Preble County,Enterprise,Enterprise,,39.6792209,-84.4991153,,,,human,true,
Brower Cemetery,United States,Ohio,Preble County,West Alexandria,West Alexandria,,39.7217197,-84.5446727,,,,human,true,
County Home Cemetery,United States,Ohio,Preble County,Eaton,Eaton,,39.7619957,-84.6480095,,,,human,true,
Davis Cemetery,United States,Ohio,Preble County,Quail Trail,Quail Trail,,39.6333868,-84.5974507,,,,human,true,
Fort Saint Clair Cemetery,United States,Ohio,Preble County,Eaton,Eaton,,39.7381071,-84.6552316,,,,human,true,
John Ramsey Cemetery,United States,Ohio,Preble County,Fosterville,Fosterville,,39.6044967,-84.7135647,,,,human,true,
Kirven-Pottenger Cemetery,United States,Ohio,Preble County,Quail Trail,Quail Trail,,39.647553,-84.6266184,,,,human,true,
Muttonville Cemetery,United States,Ohio,Preble County,Muttonville,Muttonville,,39.660052,-84.6885648,,,,human,true,
Myers Cemetery,United States,Ohio,Preble County,New Lexington,New Lexington,,39.7775522,-84.5580071,,,,human,true,
Patterson Cemetery,United States,Ohio,Preble County,Camden,Camden,,39.600331,-84.6510629,,,,human,true,
Ray Cemetery,United States,Ohio,Preble County,Gratis,Gratis,,39.6575539,-84.5427273,,,,human,true,
Teague Cemetery,United States,Ohio,Butler County,Jericho,Jericho,,39.5700531,-84.6846745,,,,human,true,
Cassel Cemetery,United States,Ohio,Montgomery County,Tadmor (historical),Tadmor (historical),,39.8941717,-84.1722861,,,,human,true,
Farmersville United Brethren Cemetery,United States,Ohio,Montgomery County,Farmersville,Farmersville,,39.6789445,-84.4291132,,,,human,true,
Kaylor Family Cemetery,United States,Ohio,Montgomery County,Frytown,Frytown,,39.7086698,-84.2616086,,,,human,true,
Kreider Cemetery,United States,Ohio,Montgomery County,Brookville Lakes Estates,Brookville Lakes Estates,,39.8414433,-84.3871693,,,,human,true,
Moyer Cemetery,United States,Ohio,Montgomery County,Pineview Estates,Pineview Estates,,39.6661695,-84.2829974,,,,human,true,
Reed Cemetery,United States,Ohio,Miami County,Ginghamsburg,Ginghamsburg,,39.9111675,-84.1854972,,,,human,true,
Troxel Cemetery,United States,Ohio,Montgomery County,Ellerton,Ellerton,,39.6717247,-84.3021647,,,,human,true,
Weaver Cemetery,United States,Ohio,Montgomery County,Liberty,Liberty,,39.71089,-84.3574448,,,,human,true,
Gerlaugh Cemetery,United States,Ohio,Montgomery County,Beverly Gardens,Beverly Gardens,,39.7708923,-84.094659,,,,human,true,
Hering Cemetery,United States,Ohio,Greene County,Alpha,Alpha,,39.7314484,-84.0213228,,,,human,true,
Union Schoolhouse Cemetery,United States,Ohio,Greene County,Huber Mobile Home Park,Huber Mobile Home Park,,39.8153365,-84.0932705,,,,human,true,
Thomas Adams Cemetery,United States,Ohio,Franklin County,Margies Cove,Margies Cove,,39.8595075,-83.0707413,,,,human,true,
Eleazor Cemetery,United States,Ohio,Greene County,Middleton Corner,Middleton Corner,,39.5811719,-83.8757614,,,,human,true,
Morgan Cemetery,United States,Ohio,Greene County,Oldtown,Oldtown,,39.7414485,-83.9499313,,,,human,true,
Zoar Church Cemetery,United States,Ohio,Greene County,Maple Corner,Maple Corner,,39.5906162,-83.903818,,,,human,true,
Hagler Cemetery,United States,Ohio,Greene County,Silver Springs,Silver Springs,,39.6331161,-83.8552054,,,,human,true,
McClellan Cemetery,United States,Ohio,Greene County,Clifton,Clifton,,39.816171,-83.8388169,,,,human,true,
Shook Cemetery,United States,Ohio,Greene County,Silver Springs,Silver Springs,,39.6467272,-83.8477051,,,,human,true,
Baptist Cemetery,United States,Ohio,Clinton County,Clarksville,Clarksville,,39.3872836,-83.9671531,,,,human,true,
Canney Cemetery,United States,Ohio,Clinton County,Memphis,Memphis,,39.3875629,-83.5963093,,,,human,true,
Brannock Cemetery,United States,Ohio,Warren County,Oregonia,Oregonia,,39.4828381,-84.10299,,,,human,true,
Ertel Cemetery,United States,Ohio,Warren County,Zoar,Zoar,,39.3242264,-84.1749355,,,,human,true,
Gibbs Cemetery,United States,Ohio,Warren County,Comargo,Comargo,,39.2953377,-84.158824,,,,human,true,
Graham Cemetery,United States,Ohio,Warren County,Ridgeville,Ridgeville,,39.5297819,-84.17827,,,,human,true,
Greenwood Cemetery,United States,Ohio,Warren County,Mathers Mills,Mathers Mills,,39.4286712,-84.128546,,,,human,true,
Hatfield Cemetery,United States,Ohio,Warren County,Ridge (historical),Ridge (historical),,39.4064486,-84.1854917,,,,human,true,
Old Milton Cemetery,United States,Ohio,Miami County,West Milton,West Milton,,39.9575535,-84.3243909,,,,human,true,
Palmer Chapel Cemetery,United States,Ohio,Clark County,Fairway Terrace Mobile Home Park,Fairway Terrace Mobile Home Park,,39.8811695,-84.0660479,,,,human,true,
Brown Cemetery,United States,Ohio,Clermont County,Bethel,Bethel,,38.9889543,-84.0796555,,,,human,true,
Milford Independent Order of Oddfellows Cemetery,United States,Ohio,Clermont County,Milford,Milford,,39.1795071,-84.2906877,,,,human,true,
Simpkins Cemetery,United States,Ohio,Clermont County,Ashdale,Ashdale,,39.1733946,-84.1532681,,,,human,true,
Caldwell Farm Cemetery,United States,Ohio,Pickaway County,Carvel Manor Mobile Home Park,Carvel Manor Mobile Home Park,,39.7539518,-83.0168503,,,,human,true,
Curt Knisley Farm Cemetery,United States,Ohio,Pickaway County,Grange Hall,Grange Hall,,39.6486441,-83.1679977,,,,human,true,
Herrenstine Cemetery,United States,Ohio,Pickaway County,Fox,Fox,,39.6536734,-83.0376842,,,,human,true,
James Borrer Farm Cemetery,United States,Ohio,Pickaway County,Carvel Manor Mobile Home Park,Carvel Manor Mobile Home Park,,39.7520073,-83.0154615,,,,human,true,
Lewis Farm Cemetery,United States,Ohio,Fayette County,Yankeetown,Yankeetown,,39.6511727,-83.2357469,,,,human,true,
McKinley Cemetery,United States,Ohio,Pickaway County,Darbyville,Darbyville,,39.7120063,-83.1326879,,,,human,true,
Barnes Cemetery,United States,Ohio,Pike County,Sargents,Sargents,,39.0036822,-83.0240662,,,,human,true,
Bond Chapel Cemetery,United States,Ohio,Pike County,Buchanan,Buchanan,,39.1478454,-83.1587949,,,,human,true,
Kincaid Cemetery,United States,Ohio,Pike County,Kincaid Springs,Kincaid Springs,,39.1034017,-83.2701872,,,,human,true,
Old German Number 1 Cemetery,United States,Ohio,Pike County,Peck,Peck,,39.1692339,-83.0018451,,,,human,true,
Parmore Cemetery,United States,Ohio,Pike County,Tennyson,Tennyson,,39.0489588,-83.1107364,,,,human,true,
Pfeifer Cemetery,United States,Ohio,Pike County,Daleyville,Daleyville,,39.1225682,-83.0701804,,,,human,true,
Ware Cemetery,United States,Ohio,Pike County,Idaho,Idaho,,39.0772914,-83.1293485,,,,human,true,
Malone Cemetery,United States,Ohio,Scioto County,West Portsmouth,West Portsmouth,,38.754798,-83.0371201,,,,human,true,
Mershon-Swords Cemetery,United States,Ohio,Scioto County,Lombardsville,Lombardsville,,38.782575,-83.0929557,,,,human,true,
Aills Cemetery,United States,Ohio,Adams County,Stout,Stout,,38.6345799,-83.382232,,,,human,true,
Hoggard Family Cemetery,United States,Ohio,Ross County,Slate Mills,Slate Mills,,39.3351349,-83.0629056,,,,human,true,
Kerr Cemetery,United States,Ohio,Hamilton County,Twightwee,Twightwee,,39.2573191,-84.2834796,,,,human,true,
Union Cemetery,United States,OH,Hamilton County,Cincinnati,9235 Union Cemetery Road,45249,39.2855708,-84.3052444,,,,human,true,
Rose Hill Cemetery,United States,Ohio,Warren County,Mason,Mason,,39.3546134,-84.3111076,,,,human,true,
Brookside Cemetery,United States,Ohio,Butler County,Westchester,Westchester,,39.3247188,-84.4143149,,,,human,true,
Wesleyan Cemetery,United States,Ohio,Hamilton County,Cumminsville,Cumminsville,,39.1605107,-84.5472866,,,,human,true,
Pierce Township Cemetery,United States,OH,Clermont County,Cincinnati,959 Locust Corner Road,45245,39.0262881,-84.2734013,,https://piercetownship.org/cemetery/,,human,true,
Sunset Cemetery,United States,Ohio,Franklin County,Alton,Alton,,39.9460689,-83.1854297,,,,human,true,
Woodside Cemetery,United States,Ohio,Butler County,Bon Veue,1401 Woodside Blvd.,,39.4978689,-84.4062146,,,+1-513-422-3291,human,true,
Hopewell Cemetery,United States,Ohio,Hamilton County,Jones Farm,Jones Farm,,39.2441931,-84.3481444,,,,human,true,
United Jewish Cemetery,United States,Ohio,Hamilton County,Fairwind Acres,Fairwind Acres,,39.2437066,-84.3522941,,,,human,true,
Arlington Memorial Gardens Cemetery,United States,Ohio,Hamilton County,Skyline Acres,Skyline Acres,,39.2280891,-84.5637974,,,,human,true,
Rest Haven Memorial Park,United States,Ohio,Hamilton County,Evendale,Evendale,,39.2503605,-84.3997023,,,,human,true,
Saint Anthony Cemetery,United States,Ohio,Hamilton County,Dillionvale,Dillionvale,,39.2375497,-84.3959741,,,,human,true,
Carpenter’s Run Pioneer Cemetery,United States,Ohio,Hamilton County,Dillionvale,Dillionvale,,39.2376552,-84.396644,,,,human,true,
Mount Moriah Cemetery,United States,OH,Clermont County,Cincinnati,686 Mount Moriah Drive,45245,39.0697589,-84.2893352,,,,human,true,
Laurel Memorial Gardens,United States,Ohio,Hamilton County,Foxhunter Lane,Foxhunter Lane,,39.2350629,-84.3124578,,,,human,true,
Calvary Cemetery,United States,OH,Montgomery County,Dayton,1625 Calvary Drive,45409-2038,39.7225723,-84.2040344,,https://calvarycemeterydayton.org/,+1-937-293-1227,human,true,
Vine Street Hill Cemetery,United States,Ohio,Hamilton County,Clifton,Clifton,,39.1569302,-84.5093284,,,,human,true,
Saint Mary’s Cemetery,United States,Ohio,Hamilton County,Saint Bernard,Saint Bernard,,39.1664723,-84.4880615,,https://cccsohio.org/who-we-are/cemeteries-we-operate/st.-mary-catholic-cemetery.html,,human,true,
Maple Grove Cemetery,United States,Ohio,Hamilton County,Valley Junction,Valley Junction,,39.1669979,-84.7662258,,,,human,true,
Pleasant Cemetery,United States,Ohio,Pickaway County,Sun Set Mobile Home Park,Sun Set Mobile Home Park,,39.7378973,-83.2504575,,,,human,true,
Oak Grove Cemetery,United States,Ohio,Franklin County,Georgesville,Georgesville,,39.8947599,-83.212469,,,,human,true,
Oak Hill Cemetery,United States,Ohio,Madison County,Wilson (historical),Wilson (historical),,39.8998349,-83.4315893,,,,human,true,
Saint John’s Cemetery,United States,Ohio,Hamilton County,Ivorydale Junction,Ivorydale Junction,,39.1652358,-84.504779,,,,human,true,
Hopkinsville Cemetery,United States,Ohio,Warren County,Hopkinsville,Hopkinsville,,39.3370627,-84.2219597,,,,human,true,
Murdock Cemetery,United States,Ohio,Warren County,Dallasburg,Dallasburg,,39.2813475,-84.1988262,,,,human,true,
Maineville Cemetery,United States,Ohio,Warren County,Maineville,Maineville,,39.3152985,-84.2092423,,,,human,true,
Price Hill Cemetery,United States,Ohio,Hamilton County,West Price Hill,West Price Hill,,39.1192928,-84.5849331,,,,human,true,
Bridgetown Protestant Cemetery,United States,Ohio,Hamilton County,Bridgetown North,Bridgetown North,,39.1601954,-84.6256781,,,,human,true,
Mount Saint Joseph Cemetery,United States,Ohio,Hamilton County,Cotillion Village,Cotillion Village,,39.0996185,-84.6483208,,,,human,true,
Miami Cemetery,United States,Ohio,Hamilton County,Miamitown,Miamitown,,39.2113517,-84.7058825,,,,human,true,
Oak Hill Cemetery,United States,Ohio,Hamilton County,Glendale,Glendale,,39.2797886,-84.4642351,,,,human,true,
Crown Hill Memorial Park,United States,Ohio,Hamilton County,Pleasant Run,Pleasant Run,,39.2986685,-84.5734465,,,,human,true,
Saint Joseph’s Cemetery,United States,Ohio,Hamilton County,Price Hill,Price Hill,,39.1039569,-84.5767843,,,,human,true,
Baltimore Pike Cemetery,United States,Ohio,Hamilton County,English Woods,English Woods,,39.1386622,-84.5666327,,,,human,true,
Union Cemetery,United States,Ohio,Hamilton County,Covedale,Covedale,,39.1167276,-84.6025881,,,,human,true,
Beech Grove Cemetery,United States,Ohio,Hamilton County,Wyoming Meadows,Wyoming Meadows,,39.2369391,-84.4922482,,,,human,true,
Saint Andrew’s Cemetery,United States,Ohio,Clermont County,South Milford,South Milford,,39.1633705,-84.2943299,,,,human,true,
New Haven Cemetery,United States,Ohio,Hamilton County,New Haven,New Haven,,39.278948,-84.7400802,,,,human,true,
Saint John the Baptist Cemetery,United States,Ohio,Hamilton County,Dry Ridge,Dry Ridge,,39.259584,-84.6198207,,,,human,true,
Cedar Grove Cemetery,United States,Ohio,Hamilton County,Bevis,Bevis,,39.2582891,-84.6032177,,,,human,true,
Middletown Pioneer Cemetery,United States,Ohio,Butler County,Middletown,Middletown,,39.5116607,-84.3952392,,,,human,true,
Dayton Memorial Park,United States,Ohio,Montgomery County,Murlin Heights,Murlin Heights,,39.8484828,-84.2036274,,,,human,true,
Graceland Memorial Gardens,United States,Ohio,Clermont County,Elenor,Elenor,,39.1946302,-84.2003012,,,,human,true,
Poplar Hill Cemetery,United States,Ohio,Montgomery County,Vandalia,Vandalia,,39.8752142,-84.2000462,,,,human,true,
Reading Lockland Cemetery,United States,Ohio,Hamilton County,Reading,Reading,,39.2296679,-84.4415204,,,,human,true,
Camp Dennison Cemetery,United States,Ohio,Hamilton County,Camp Dennison,Camp Dennison,,39.1945233,-84.2875096,,,,human,true,
Guardian Angel Cemetery,United States,Ohio,Hamilton County,Fruit Hill,Fruit Hill,,39.0741031,-84.3616799,,,,human,true,
Flag Spring Cemetery,United States,OH,Hamilton County,Newtown,3541 Round Bottom Road,45244,39.127659,-84.3554585,,,,human,true,
Saints Peter and Paul Cemetery,United States,Ohio,Hamilton County,Reading,Reading,,39.2318029,-84.4335643,,,,human,true,
Saint John’s Evangelical Protestant Cemetery,United States,Ohio,Hamilton County,Cotillion Village,Cotillion Village,,39.1146305,-84.6372537,,,,human,true,
Indian Hill Methodist Episcopal Cemetery,United States,Ohio,Hamilton County,South Clippinger,South Clippinger,,39.1602302,-84.3465947,,,,human,true,
Lebanon Cemetery,United States,Ohio,Warren County,Lebanon,Lebanon,,39.439583,-84.2141793,,,,human,true,
Old Saint Mary’s Cemetery,United States,Ohio,Hamilton County,Springdale,Springdale,,39.2806036,-84.4854553,,,,human,true,
Saint Joseph’s Cemetery,United States,Ohio,Hamilton County,Monterey,Monterey,,39.1076487,-84.6047732,,,,human,true,
Pleasant Ridge Cemetery,United States,Ohio,Hamilton County,Norwood Heights,Norwood Heights,,39.1796674,-84.4332333,,,,human,true,
Covedale Cemeteries,United States,Ohio,Hamilton County,Summit,Summit,,39.1279639,-84.6166934,,,,human,true,
Beavertown Cemetery,United States,Ohio,Montgomery County,Lindenhall,Lindenhall,,39.6980756,-84.1285243,,,,human,true,
Woodland Cemetery and Arboretum,United States,OH,Montgomery County,Dayton,118 Woodland Avenue,45409,39.7416008,-84.1741327,,,,human,true,
Spring Hill Cemetery,United States,Ohio,Butler County,Hunting Creek Estates,Hunting Creek Estates,,39.3919035,-84.3914472,,,,human,true,
Glen Forest Cemetery,United States,Ohio,Greene County,Yellow Springs,Yellow Springs,,39.8102831,-83.8843254,,,,human,true,
Saint Paul’s Catholic Cemetery,United States,Ohio,Greene County,Yellow Springs,Yellow Springs,,39.8111034,-83.9011601,,,,human,true,
Maple Hill Cemetery,United States,Ohio,Miami County,Tipp City,Tipp City,,39.9470468,-84.1716512,,,,human,true,
Hickory Flats Cemetery,United States,Ohio,Butler County,Overpeck,Overpeck,,39.4621132,-84.5064167,,,,human,true,
Saint Mary’s Cemetery,United States,Ohio,Butler County,Fairfield,Fairfield,,39.3553059,-84.5574184,,,,human,true,
Jewish Cemetery,United States,Ohio,Butler County,Fairfield,Fairfield,,39.3550726,-84.5594992,,,,human,true,
Greenwood Cemetery,United States,Ohio,Butler County,Fordson Heights,Fordson Heights,,39.4031564,-84.5424462,,,,human,true,
Saint Stephen’s Cemetery,United States,Ohio,Butler County,Fordson Heights,Fordson Heights,,39.407416,-84.5413868,,,,human,true,
Rose Hill Cemetery,United States,Ohio,Butler County,Normandy Heights,Normandy Heights,,39.3887454,-84.5267257,,,,human,true,
Miltonville Cemetery,United States,Ohio,Butler County,Miltonville,Miltonville,,39.5000415,-84.4657612,,,,human,true,
Goshen Cemetery,United States,Ohio,Clermont County,Goshen,Goshen,,39.2382295,-84.1591975,,,,human,true,
Hedges Cemetery,United States,Ohio,Butler County,Ross,Ross,,39.2939613,-84.6562588,,,,human,true,
Venice Cemetery,United States,Ohio,Butler County,Ross,Ross,,39.3180749,-84.6523057,,,,human,true,
Mount Pleasant Cemetery,United States,Ohio,Hamilton County,Mount Healthy,Mount Healthy,,39.2327753,-84.5419811,,,,human,true,
Saint James Cemetery,United States,Ohio,Hamilton County,Saint Jacobs,Saint Jacobs,,39.2057443,-84.6019318,,https://www.stjameswhiteoak.com/ParishInfo/StJamesCemetery.aspx,,human,true,
Pioneer Cemetery,United States,Ohio,Warren County,Lebanon,Lebanon,,39.4343277,-84.2148195,,,,human,true,
Amelia Independent Order of Oddfellows Cemetery,United States,OH,Clermont County,Amelia,145 Main Street,45102,39.0350869,-84.2261005,,,,human,true,
Bethel Cemetery,United States,Ohio,Miami County,Phoneton,Phoneton,,39.8916826,-84.1366416,,,,human,true,
North Monroe Cemetery,United States,Ohio,Butler County,Monroe,Monroe,,39.4500879,-84.3582263,,,,human,true,
Mound Cemetery,United States,Ohio,Butler County,Monroe,Monroe,,39.435617,-84.3599526,,,,human,true,
Byron Cemetery,United States,Ohio,Greene County,Byron,Byron,,39.781199,-83.9845313,,,,human,true,
Mount Olivet Cemetery,United States,Ohio,Butler County,Oxford,Oxford,,39.5125415,-84.7501336,,,,human,true,
Gate of Heaven Cemetery,United States,Ohio,Hamilton County,Sixteen Mile Stand,Sixteen Mile Stand,,39.2605249,-84.3316281,,,,human,true,
David's Cemetery,United States,Ohio,Montgomery County,Kettering,Kettering,,39.6779569,-84.1693514,,,,human,true,
Independent Order of Odd Fellows Cemetery,United States,Ohio,Clinton County,Blanchester,Blanchester,,39.2923045,-83.9956101,,,,human,true,
Woodland Cemetery,United States,Ohio,Greene County,Xenia,Xenia,,39.6896763,-83.9402727,,,,human,true,
Miami Valley Memory Garden,United States,Ohio,Greene County,Trebein,Trebein,,39.6938134,-83.9927555,,,,human,true,
Miami Cemetery,United States,Ohio,Warren County,Corwin,Corwin,,39.5220172,-84.0703835,,,,human,true,
Mount Washington Cemetery,United States,Ohio,Hamilton County,Mount Washington,Mount Washington,,39.0906694,-84.3879,,,,human,true,
Fairview Cemetery,United States,Ohio,Montgomery County,Englewood,Englewood,,39.8756305,-84.3111594,,,,human,true,
Concord Cemetery,United States,Ohio,Montgomery County,Morgan Place,Morgan Place,,39.8598506,-84.2843902,,,,human,true,
Calvary Cemetery,United States,Ohio,Clark County,Locustgrove,Locustgrove,,39.8847581,-83.7588035,,,,human,true,
Berea Cemetery,United States,Ohio,Hamilton County,Hooven,Hooven,,39.1761927,-84.7620913,,,,human,true,
Deerfield Cemetery,United States,Ohio,Warren County,South Lebanon,South Lebanon,,39.3747922,-84.2043467,,,,human,true,
Union Cemetery,United States,Ohio,Clermont County,Batavia,Batavia,,39.0783935,-84.1689323,,,,human,true,
Kirkwood Cemetery,United States,Ohio,Madison County,London Terrace,London Terrace,,39.8746618,-83.4836117,,,,human,true,
Plattsburg Cemetery,United States,Ohio,Clark County,Plattsburg,Plattsburg,,39.8939005,-83.603685,,,,human,true,
Rose Hill Cemetery,United States,Ohio,Clark County,Thorps,Thorps,,39.8912817,-83.7202573,,,,human,true,
Ferncliff Cemetery,United States,Ohio,Clark County,Snyder Terrace,Snyder Terrace,,39.93697,-83.8229148,,,,human,true,
Masonic Home Cemetery,United States,Ohio,Clark County,Clearview Mobile Home Park,Clearview Mobile Home Park,,39.9180957,-83.863174,,,,human,true,
Saint Bernard Cemetery,United States,Ohio,Clark County,Ridgewood,Ridgewood,,39.9527398,-83.8106086,,,,human,true,
Richland Methodist Cemetery,United States,Ohio,Clinton County,Melvin,Melvin,,39.4705207,-83.7132018,,,,human,true,
Sabina Cemetery,United States,Ohio,Clinton County,Rolfe Mobile Home Park,Rolfe Mobile Home Park,,39.4936365,-83.6418767,,,,human,true,
Spurgeon Cemetery,United States,Ohio,Clinton County,Reesville,Reesville,,39.4828883,-83.6677539,,,,human,true,
Old Jeffersonville Cemetery,United States,Ohio,Fayette County,Jeffersonville,Jeffersonville,,39.6560232,-83.5638047,,,,human,true,
Massies Creek Cemetery,United States,Ohio,Greene County,Cedarville,Cedarville,,39.7384548,-83.8406958,,,,human,true,
Massies Creek Cemetery,United States,Ohio,Greene County,Wilberforce,Wilberforce,,39.7292831,-83.8932219,,,,human,true,
Baptist Cemetery,United States,Ohio,Greene County,Cedarville,Cedarville,,39.7355289,-83.7877895,,,,human,true,
North Cemetery,United States,Ohio,Greene County,Cedarville,Cedarville,,39.7547935,-83.8120342,,,,human,true,
Old Silver Creek Cemetery,United States,Ohio,Greene County,Jamestown,Jamestown,,39.6538593,-83.7312639,,,,human,true,
Miami Valley Memorial Garden,United States,Ohio,Warren County,Kenricksville,Kenricksville,,39.566698,-84.1613552,,,,human,true,
Bellbrook Cemetery,United States,Ohio,Greene County,Bellbrook,Bellbrook,,39.6435955,-84.0685285,,,,human,true,
Shoup Cemetery,United States,Ohio,Greene County,Beavercreek,Beavercreek,,39.693428,-84.0640277,,,,human,true,
Mount Zion Cemetery,United States,Ohio,Greene County,Beavercreek,Beavercreek,,39.6928573,-84.0677304,,,,human,true,
Centerville Cemetery,United States,Ohio,Montgomery County,Centerville,Centerville,,39.6307779,-84.1538365,,,,human,true,
Old Centerville Cemetery,United States,Ohio,Montgomery County,Centerville,Centerville,,39.636301,-84.1570358,,,,human,true,
Cline Family Cemetery,United States,Ohio,Warren County,Landen,Landen,,39.3373924,-84.2869218,,,,human,true,
Willow View Cemetery,United States,Ohio,Montgomery County,Woodland Hills Mobile Home Park,Woodland Hills Mobile Home Park,,39.8021452,-84.181834,,,,human,true,
Bethany Cemetery,United States,Ohio,Warren County,Lelan (historical),Lelan (historical),,39.4166893,-84.1557548,,,,human,true,
Wood Hill Cemetery,United States,Ohio,Warren County,Franklin,Franklin,,39.547625,-84.3206465,,,,human,true,
Riverside Cemetery,United States,Ohio,Miami County,West Milton,West Milton,,39.9659288,-84.3260531,,,,human,true,
Harrison Park Cemetery,United States,Ohio,Hamilton County,Harrison,Harrison,,39.2633616,-84.8138667,,,,human,true,
Saint Colman’s Cemetery,United States,Ohio,Fayette County,Tower Mobile Home Park,Tower Mobile Home Park,,39.5368034,-83.4247505,,,,human,true,
Washington Cemetery,United States,Ohio,Fayette County,Tower Mobile Home Park,Tower Mobile Home Park,,39.5385159,-83.4175417,,,,human,true,
Clayton Cemetery,United States,Ohio,Montgomery County,Clayton,Clayton,,39.8644201,-84.3637703,,,,human,true,
Roselawn Cemetery,United States,Ohio,Preble County,Euphemia,Euphemia,,39.8514427,-84.54141,,,,human,true,
Amelia Methodist Episcopal Cemetery,United States,Ohio,Clermont County,Amelia,Amelia,,39.0283777,-84.2152787,,,,human,true,
Olive Branch Cemetery,United States,OH,Clermont County,Batavia,4335 Olive Branch Cemetery Road,45103,39.085363,-84.2264892,,,,human,true,
Woodlawn Cemetery,United States,Ohio,Hamilton County,Harrison,Harrison,,39.2674168,-84.8094603,,,,human,true,
Glen Haven Cemetery,United States,Ohio,Hamilton County,Harrison,Harrison,,39.2677645,-84.8108074,,,,human,true,
Saint John’s Catholic Cemetery,United States,Ohio,Hamilton County,Harrison,Harrison,,39.2685189,-84.8130872,,,,human,true,
Fairview Cemetery,United States,Ohio,Fayette County,Jeffersonville,Jeffersonville,,39.6674553,-83.58269,,,,human,true,
Saint Raphael's Cemetery,United States,Ohio,Clark County,Warder Park,Warder Park,,39.9306828,-83.7866339,,,,human,true,
Hamersville Cemetery,United States,Ohio,Brown County,Hamersville,Hamersville,,38.9277625,-83.9925791,,,,human,true,
Alton Cemetery,United States,Ohio,Franklin County,Alton,Alton,,39.9547767,-83.1683994,,,,human,true,
Camp Chase Confederate Cemetery,United States,Ohio,Franklin County,Valley View,Valley View,,39.9438384,-83.0759671,,,,human,true,
Feebleminded Cemetery,United States,Ohio,Franklin County,Grandview Heights,Grandview Heights,,39.9507555,-83.0421815,,,,human,true,
Mount Calvary Cemetery,United States,Ohio,Franklin County,Columbus,Columbus,,39.9474162,-83.0246381,,,,human,true,
Clime Cemetery,United States,Ohio,Franklin County,Sullivants (historical),Sullivants (historical),,39.9290746,-83.0991432,,,,human,true,
Chenoweth Cemetery,United States,Ohio,Franklin County,Harrisburg,Harrisburg,,39.8223097,-83.1790743,,,,human,true,
Gundy Cemetery,United States,Ohio,Franklin County,Post Oak Country Estates,Post Oak Country Estates,,39.8828561,-83.1556807,,,,human,true,
Clover Cemetery,United States,Ohio,Franklin County,The Village At Thornapple,The Village At Thornapple,,39.9625139,-83.1687425,,,,human,true,
Edenton Cemetery,United States,Ohio,Clermont County,Edenton,Edenton,,39.2218514,-84.0649215,,,,human,true,
Otterbein-Shaker Cemetery,United States,Ohio,Warren County,Otterbein,Otterbein,,39.4383191,-84.2806987,,,,human,true,
Beckett Cemetery,United States,Ohio,Pickaway County,Commercial Point,Commercial Point,,39.7763836,-83.0597384,,,,human,true,
Saint Bernard Cemetery,United States,Ohio,Hamilton County,Taylors Creek,Taylors Creek,,39.2143097,-84.6747948,,,,human,true,
Pisgah Cemetery,United States,Ohio,Greene County,Knollwood,Knollwood,,39.7564139,-84.0541627,,,,human,true,
Arlington Cemetery,United States,Ohio,Montgomery County,Arlington,Arlington,,39.8644747,-84.4289258,,,,human,true,
Pyrmont Cemetery,United States,Ohio,Montgomery County,Pyrmont,Pyrmont,,39.8161968,-84.4619479,,,,human,true,
Royal Oak Memorial Gardens,United States,Ohio,Montgomery County,Swanktown,Swanktown,,39.8716375,-84.3902681,,,,human,true,
Swank Cemetery,United States,Ohio,Montgomery County,Swanktown,Swanktown,,39.8756008,-84.3853091,,,,human,true,
Landis Cemetery,United States,Ohio,Montgomery County,Brookville,Brookville,,39.8186985,-84.3986928,,,,human,true,
Woodside Cemetery,United States,Ohio,Butler County,Oxford,Oxford,,39.4995988,-84.7379697,,,,human,true,
Saint Charles Cemetery,United States,Ohio,Butler County,Saint Charles,Saint Charles,,39.391534,-84.7414074,,,,human,true,
Catholic Cemetery,United States,Ohio,Butler County,Middletown,Middletown,,39.5199681,-84.395838,,,,human,true,
East Shaker Cemetery,United States,Ohio,Warren County,Otterbein,Otterbein,,39.4560734,-84.2788568,,,,human,true,
Fort McKinley Cemetery,United States,Ohio,Montgomery County,Fort McKinley,Fort McKinley,,39.7976433,-84.254481,,,,human,true,
Morrow Cemetery,United States,Ohio,Warren County,Morrow,Morrow,,39.351057,-84.1238048,,,,human,true,
Institution Cemetery,United States,Ohio,Madison County,London Terrace,London Terrace,,39.8961014,-83.4891442,,,,human,true,
Basinger Cemetery,United States,Ohio,Warren County,Pleasant Plain,Pleasant Plain,,39.281278,-84.1311928,,,,human,true,
Old Greencastle Cemetery,United States,Ohio,Montgomery County,Patterson,Patterson,,39.737136,-84.2146743,,,,human,true,
Rapps Cemetery,United States,Ohio,Clermont County,Owensville,Owensville,,39.1427643,-84.1520946,,,,human,true,
Harshman Cemetery,United States,Ohio,Montgomery County,Riverside,Riverside,,39.7793995,-84.1177814,,,,human,true,
Mount Zion Cemetery,United States,Ohio,Brown County,Maple,Maple,,38.8643637,-84.0378932,,,,human,true,
Mount Holly Christian Chapel Cemetery,United States,OH,Clermont County,Amelia,1822 East Ohio Pike,45102,39.0186875,-84.1963885,,,,human,true,
Saint Paul Evangeline Cemetery,United States,Ohio,Hamilton County,Barnesburg,Barnesburg,,39.2299398,-84.6233942,,,,human,true,
Springdale Road Baptist Cemetery,United States,Ohio,Hamilton County,Mount Healthy Heights,Mount Healthy Heights,,39.2581591,-84.5718531,,,,human,true,
Hill Crest Cemetery,United States,OH,Hamilton County,Cincinnati,749 Sutton Road,45230,39.0685915,-84.4044351,,,,human,true,
Salem Methodist Episcopal Cemetery,United States,Ohio,Hamilton County,Mount Washington,Mount Washington,,39.0750635,-84.3917069,,,,human,true,
Ten Mile Cemetery,United States,OH,Clermont County,New Richmond,997 Bristol Road,45157,39.0104379,-84.2696775,,,,human,true,
Forest Hills Cemetery,United States,Ohio,Miami County,Ginghamsburg,Ginghamsburg,,39.9208452,-84.1963186,,,,human,true,
New Burlington Cemetery,United States,Ohio,Hamilton County,New Burlington,New Burlington,,39.2623044,-84.5467443,,,,human,true,
Bethel Cemetery,United States,Ohio,Hamilton County,Barnesburg,Barnesburg,,39.2283995,-84.6355617,,,,human,true,
Lingo Cemetery,United States,Ohio,Hamilton County,Monfort Heights East,Monfort Heights East,,39.1903715,-84.5896848,,,,human,true,
Westwood Baptist Cemetery,United States,Ohio,Hamilton County,Cheviot,Cheviot,,39.1567155,-84.6116797,,,,human,true,
Zion United Brethren Cemetery,United States,Ohio,Hamilton County,Miami Heights,Miami Heights,,39.1813113,-84.704406,,,,human,true,
Old Bethel Cemetery,United States,Ohio,Clermont County,Bantam,Bantam,,39.0079527,-84.1389052,,,,human,true,
Stonelick Cemetery,United States,Ohio,Clermont County,Owensville,Owensville,,39.1180752,-84.1356137,,,,human,true,
Saint Louis Catholic Cemetery,United States,Ohio,Clermont County,Owensville,Owensville,,39.1251005,-84.1336485,,,,human,true,
Independent Order of Odd Fellows Cemetery,United States,Ohio,Clermont County,Owensville,Owensville,,39.1215754,-84.1548459,,,,human,true,
Butler County Memorial Garden,United States,Ohio,Butler County,Busenbark,Busenbark,,39.4851981,-84.5031815,,,,human,true,
Baptist Cemetery,United States,Ohio,Hamilton County,New Haven,New Haven,,39.2690475,-84.7651852,,,,human,true,
Sears Cemetery,United States,Ohio,Montgomery County,Centerville,Centerville,,39.6201858,-84.1395333,,,,human,true,
Flankinstein Cemetery,United States,Ohio,Butler County,Queen Acres,Queen Acres,,39.3834827,-84.6400022,,,,human,true,
Beth Jacob Cemetery,United States,Ohio,Montgomery County,Hooks Corner,Hooks Corner,,39.8133723,-84.1482974,,,,human,true,
Keltner Cemetery,United States,Ohio,Warren County,Mason Mobile Home Park,Mason Mobile Home Park,,39.3373907,-84.347904,,,,human,true,
Augsberger Memorial Cemetery,United States,Ohio,Butler County,Busenbark,Busenbark,,39.4664436,-84.4777854,,,,human,true,
Millville Cemetery,United States,Ohio,Butler County,Queen Acres,Queen Acres,,39.3971569,-84.6348613,,,,human,true,
Collinsville Cemetery,United States,Ohio,Butler County,Collinsville,Collinsville,,39.5115141,-84.6116193,,,,human,true,
Somerville Cemetery,United States,Ohio,Butler County,Somerville,Somerville,,39.5601924,-84.642184,,,,human,true,
Amanda Cemetery,United States,Ohio,Butler County,North Excello,North Excello,,39.4905486,-84.4118596,,,,human,true,
Holy Name of Jesus Catholic Cemetery,United States,Ohio,Butler County,Trenton,Trenton,,39.4796075,-84.4608783,,,,human,true,
Pioneer Cemetery,United States,Ohio,Butler County,Trenton,Trenton,,39.4804283,-84.459502,,,,human,true,
Saint John’s Cemetery,United States,Ohio,Butler County,Trenton,Trenton,,39.4842238,-84.4575986,,,,human,true,
Mount Pleasant Cemetery,United States,Ohio,Butler County,Catalina Mobile Home Park,Catalina Mobile Home Park,,39.5633325,-84.3830202,,,,human,true,
Landmark Memorial Gardens,United States,Ohio,Hamilton County,Glendale,Glendale,,39.2643805,-84.4453034,,,,human,true,
Oxford Cemetery,United States,Ohio,Butler County,Oxford,Oxford,,39.4959627,-84.7293552,,,,human,true,
Springdale Cemetery,United States,Ohio,Butler County,Reily,Reily,,39.4399802,-84.7704343,,,,human,true,
Fulton-Presbyterian Cemetery,United States,OH,Hamilton County,Cincinnati,4142 Dumont Street,45226,39.1065516,-84.4323884,,,,human,true,
Mount Orab Cemetery,United States,Ohio,Brown County,J D Smith Mobile Home Park,J D Smith Mobile Home Park,,39.0360675,-83.9170646,,,,human,true,
Watkins Cemetery,United States,Ohio,Clermont County,New Richmond,New Richmond,,38.9518639,-84.2706926,,,,human,true,
Greenmound Cemetery,United States,OH,Clermont County,New Richmond,808 Greenmound Road,45157,38.944113,-84.2697862,,,,human,true,
Saint Peters Cemetery,United States,Ohio,Clermont County,New Richmond,New Richmond,,38.9701596,-84.2615028,,,,human,true,
Moreland Cemetery,United States,Ohio,Clermont County,Mount Pisgah,Mount Pisgah,,38.9645483,-84.252119,,,,human,true,
Jefferson-Jasper Township Cemetery,United States,Ohio,Fayette County,Milledgeville,Milledgeville,,39.6105443,-83.5905699,,,,human,true,
Booco-Ryan Cemetery,United States,Ohio,Fayette County,West Lancaster,West Lancaster,,39.6304183,-83.6077179,,,,human,true,
Mount Pisgah Cemetery,United States,Ohio,Clermont County,Mount Pisgah,Mount Pisgah,,38.9856374,-84.227478,,,,human,true,
Germantown Cemetery,United States,Ohio,Montgomery County,Mudlick,Mudlick,,39.6251637,-84.3880261,,,,human,true,
Cherry Grove Cemetery,United States,Ohio,Greene County,Xenia,Xenia,,39.6807822,-83.9473945,,,,human,true,
Saint Brigid’s Cemetery,United States,Ohio,Greene County,Waynetta Mobile Home Park,Waynetta Mobile Home Park,,39.6827139,-83.9633451,,,,human,true,
Aley Cemetery,United States,Ohio,Greene County,New Germany,New Germany,,39.756914,-84.0870526,,,,human,true,
Hawker Church Cemetery,United States,Ohio,Montgomery County,Clement,Clement,,39.738216,-84.0909264,,,,human,true,
Beaver Cemetery,United States,Ohio,Greene County,Alpha,Alpha,,39.7128887,-84.0100188,,,,human,true,
Franklin Chapel Cemetery,United States,OH,Clermont County,New Richmond,2324 Franklin Laurel Road,45157,38.9456465,-84.227535,,,,human,true,
Plainview Cemetery,United States,Ohio,Clermont County,Belfast,Belfast,,39.179424,-84.1177792,,,,human,true,
Fair View Cemetery,United States,Ohio,Preble County,West Alexandria,West Alexandria,,39.7347838,-84.5331728,,,,human,true,
Sugar Hill German Baptist Cemetery,United States,Ohio,Preble County,West Alexandria,West Alexandria,,39.7441634,-84.5178835,,,,human,true,
Point Isabel Cemetery,United States,Ohio,Clermont County,Point Isabel,Point Isabel,,38.8977069,-84.1340948,,,,human,true,
Point Pleasant Cemetery,United States,OH,Clermont County,Moscow,1649 Point Pleasant Cemetery Road,45153,38.897385,-84.2299809,,,,human,true,
New Vienna Cemetery,United States,Ohio,Clinton County,Emerald Pines Mobile Home Park,Emerald Pines Mobile Home Park,,39.3279723,-83.6915738,,,,human,true,
Hill Grove Cemetery,United States,Ohio,Montgomery County,Miamisburg,Miamisburg,,39.6383118,-84.2736496,,,,human,true,
Greencastle Cemetery,United States,Ohio,Montgomery County,Circle Z Mobile Home Park,Circle Z Mobile Home Park,,39.7343232,-84.2264392,,,,human,true,
Verona Cemetery,United States,Ohio,Preble County,Verona,Verona,,39.8961189,-84.4951669,,,,human,true,
Wares Chapel Cemetery,United States,Ohio,Preble County,Hamburg,Hamburg,,39.8638798,-84.6469987,,,,human,true,
Monroe Cemetery,United States,Ohio,Preble County,Hamburg,Hamburg,,39.8879481,-84.6561159,,,,human,true,
Spring Lawn Cemetery,United States,Ohio,Preble County,New Paris,New Paris,,39.8491885,-84.7921473,,,,human,true,
Petry Cemetery,United States,Ohio,Preble County,Hamburg,Hamburg,,39.8598154,-84.6675963,,,,human,true,
Zion Church Graveyard,United States,Ohio,Preble County,Oklahoma (historical),Oklahoma (historical),,39.8099756,-84.6310045,,,,human,true,
Fairmound Cemetery,United States,Ohio,Preble County,West Elkton,West Elkton,,39.5927058,-84.5554703,,,,human,true,
Twin Valley Cemetery,United States,Ohio,Preble County,Gratis,Gratis,,39.6591381,-84.4981341,,,,human,true,
Phillips Cemetery,United States,Ohio,Preble County,Gratis,Gratis,,39.6508719,-84.5386618,,,,human,true,
Preble Memorial Gardens,United States,OH,Preble County,West Alexandria,3377 US 35,,39.7456282,-84.574986,,,,human,true,
Fair View Cemetery,United States,Ohio,Preble County,Gratis,Gratis,,39.6486963,-84.5361089,,,,human,true,
Fairmount Cemetery,United States,Ohio,Preble County,Camden,Camden,,39.6394748,-84.6422107,,,,human,true,
Hopewell Cemetery,United States,Ohio,Preble County,Claysburg (historical),Claysburg (historical),,39.6033528,-84.760614,,,,human,true,
Friends Cemetery,United States,Ohio,Preble County,Fosterville,Fosterville,,39.639268,-84.703722,,,,human,true,
Old Cemetery,United States,Ohio,Preble County,Camden,Camden,,39.6289085,-84.6548712,,,,human,true,
Sugar Grove Cemetery,United States,Ohio,Preble County,New Lexington,New Lexington,,39.7671647,-84.5315973,,,,human,true,
New London Cemetery,United States,Ohio,Butler County,Shandon,Shandon,,39.3250707,-84.7273295,,,,human,true,
Range Cemetery,United States,Ohio,Madison County,Midway,Midway,,39.7317102,-83.4650984,,,,human,true,
Old Lutheran Cemetery,United States,Ohio,Montgomery County,Germantown,Germantown,,39.6274133,-84.3715006,,,,human,true,
Trinity Evangelical Lutheran Cemetery,United States,Ohio,Hamilton County,Barnesburg,Barnesburg,,39.217355,-84.6362353,,,,human,true,
Glen Haven Memorial Cemetery,United States,Ohio,Clark County,Donnelsville,Donnelsville,,39.9189664,-83.9645711,,,,human,true,
Huber Mennonite Cemetery,United States,Ohio,Clark County,Park Layne,Park Layne,,39.8915136,-84.0483428,,,,human,true,
Galloway Cemetery,United States,Ohio,Franklin County,Galloway,Galloway,,39.9091961,-83.1613543,,,,human,true,
Macedonia Cemetery,United States,Ohio,Butler County,Macedonia,Macedonia,,39.3487565,-84.7963772,,,,human,true,
Vera Cruz Cemetery,United States,Ohio,Brown County,Vera Cruz,Vera Cruz,,39.1693574,-83.9676519,,,,human,true,
Mount Notre Dame Cemetery,United States,Ohio,Hamilton County,Whitetree,Whitetree,,39.2220674,-84.4292479,,,,human,true,
Huston Cemetery,United States,Ohio,Greene County,Bellbrook,Bellbrook,,39.6576017,-84.0756751,,http://www.communitywalk.com/xenia/oh/greene_co_cemetery_map_beta2/map/235812#00047PkT,,human,true,
Fellowship Cemetery,United States,Ohio,Warren County,Hageman,Hageman,,39.3764934,-84.2509106,,,,human,true,
Mote Cemetery,United States,Ohio,Darke County,Miller Grove,Miller Grove,,39.9901194,-84.456664,,,,human,true,
Shiloh Cemetery,United States,Ohio,Montgomery County,Shiloh,Shiloh,,39.8187283,-84.2374706,,,,human,true,
Milledgeville-Plymouth Cemetery,United States,Ohio,Fayette County,South Plymouth,South Plymouth,,39.585692,-83.5844559,,,,human,true,
Highlawn Memory Gardens,United States,Ohio,Fayette County,Jonesboro,Jonesboro,,39.5234107,-83.493393,,,,human,true,
Woodville Cemetery,United States,Ohio,Clermont County,Woodville,Woodville,,39.256264,-84.0117353,,,,human,true,
Mitman Cemetery,United States,Ohio,Greene County,Thomas Trailer Park,Thomas Trailer Park,,39.8359417,-84.0162918,,,,human,true,
University of Dayton Cemetery,United States,Ohio,Montgomery County,Walnut Hills,Walnut Hills,,39.7385352,-84.1730417,,,,human,true,
Ursuline Cemetery,United States,Ohio,Brown County,Saint Martin,Saint Martin,,39.2079045,-83.8877038,,,,human,true,
Saint Martins Cemetery,United States,Ohio,Brown County,Saint Martin,Saint Martin,,39.2139256,-83.8908245,,,,human,true,
Woods Hill Cemetery,United States,Ohio,Clermont County,Chilo,Chilo,,38.8056658,-84.1484923,,,,human,true,
New Harmony Cemetery,United States,Ohio,Brown County,New Harmony,New Harmony,,39.0152036,-84.0079769,,,,human,true,
Saint Mary's Cemetery,United States,Ohio,Brown County,Arnheim,Arnheim,,38.9407845,-83.8302395,,,,human,true,
Presbyterian Cemetery,United States,Ohio,Brown County,Arnheim,Arnheim,,38.9336332,-83.8307558,,,,human,true,
Browns Chapel Cemetery,United States,Ohio,Brown County,White Oak,White Oak,,38.9964891,-83.889186,,,,human,true,
Sardinia Cemetery,United States,Ohio,Brown County,Sardinia,Sardinia,,39.0093726,-83.8047131,,,,human,true,
Fincastle Cemetery,United States,Ohio,Brown County,Fincastle,Fincastle,,38.9991547,-83.7116103,,,,human,true,
Concord Cemetery,United States,Ohio,Clermont County,Concord,Concord,,39.0238506,-84.0741644,,,,human,true,
Clover Cemetery,United States,Ohio,Clermont County,Clover,Clover,,38.9990206,-84.0420709,,,,human,true,
First Universalist Cemetery,United States,Ohio,Darke County,New Madison,New Madison,,39.9667788,-84.7058078,,,,human,true,
Greenmound Cemetery,United States,Ohio,Darke County,New Madison,New Madison,,39.9619502,-84.706085,,,,human,true,
Washington Cemetery,United States,Ohio,Montgomery County,Shanersville,Shanersville,,39.6331034,-84.2059967,,,,human,true,
Hidy Cemetery,United States,Ohio,Fayette County,Bookwalter,Bookwalter,,39.669898,-83.5215199,,,,human,true,
Winchester Union Cemetery,United States,Ohio,Adams County,Winchester,Winchester,,38.9384582,-83.6475765,,,,human,true,
Mount Leigh Cemetery,United States,Ohio,Adams County,Mount Leigh (historical),Mount Leigh (historical),,38.9561085,-83.5747021,,,,human,true,
Arnheim Cemetery,United States,Ohio,Brown County,Arnheim,Arnheim,,38.9278623,-83.8282369,,,,human,true,
Shaw Cemetery,United States,Ohio,Brown County,Russellville,Russellville,,38.8739751,-83.7897617,,,,human,true,
Shandon Cemetery,United States,Ohio,Butler County,Shandon,Shandon,,39.3257005,-84.7125749,,,,human,true,
Pioneer Cemetery,United States,Ohio,Greene County,Bellbrook,Bellbrook,,39.646794,-84.0687836,,https://www.cityofbellbrook.org/about/cemeteries.html,,human,true,
Bachman Cemetery,United States,Ohio,Montgomery County,Bachman,Bachman,,39.8615827,-84.460212,,,,human,true,
Staunton Cemetery,United States,Ohio,Fayette County,Staunton,Staunton,,39.4758472,-83.4809355,,,,human,true,
Waterloo Cemetery,United States,Ohio,Fayette County,Pancoastburg,Pancoastburg,,39.6269464,-83.2673868,,,,human,true,
New Holland Cemetery,United States,Ohio,Pickaway County,New Holland,New Holland,,39.559562,-83.2613411,,,,human,true,
White Oak Grove Cemetery,United States,Ohio,Fayette County,Georgetown,Georgetown,,39.428558,-83.5046731,,,,human,true,
Clark Cemetery,United States,Ohio,Highland County,Willettsville,Willettsville,,39.2788004,-83.6860154,,,,human,true,
Mount Olive Cemetery,United States,Ohio,Highland County,Willettsville,Willettsville,,39.2843553,-83.6972071,,,,human,true,
Tanquary Cemetery,United States,Ohio,Pickaway County,Atlanta,Atlanta,,39.535668,-83.2012958,,,,human,true,
Grant Campbell Farm Cemetery,United States,Ohio,Pickaway County,Atlanta,Atlanta,,39.5431339,-83.2061481,,,,human,true,
Tarbill Cemetery,United States,Ohio,Pickaway County,Atlanta,Atlanta,,39.5367459,-83.1722329,,,,human,true,
Cedar Grove Cemetery,United States,Ohio,Pickaway County,New Holland,New Holland,,39.5241255,-83.2341947,,,,human,true,
Waugh Cemetery,United States,Ohio,Ross County,Thornton (historical),Thornton (historical),,39.411955,-83.2968697,,,,human,true,
Keiter Cemetery,United States,Ohio,Clinton County,McKays,McKays,,39.561858,-83.8816869,,,,human,true,
Highbee Cemetery,United States,Ohio,Fayette County,Parrott,Parrott,,39.6285764,-83.5308434,,,,human,true,
Hogue-Allen Cemetery,United States,Ohio,Fayette County,West Lancaster,West Lancaster,,39.6472326,-83.6094241,,,,human,true,
South Solon Cemetery,United States,Ohio,Madison County,South Solon,South Solon,,39.7355624,-83.6168378,,,,human,true,
Lisbon Cemetery,United States,Ohio,Clark County,Lisbon,Lisbon,,39.8592272,-83.639837,,,,human,true,
Pleasant Grove Cemetery,United States,Ohio,Clark County,Pitchin,Pitchin,,39.845706,-83.7288897,,,,human,true,
Creamer Cemetery,United States,Ohio,Fayette County,Parrott,Parrott,,39.6221064,-83.5423882,,,,human,true,
Bloomingburg Cemetery,United States,Ohio,Fayette County,Bloomingburg,Bloomingburg,,39.601348,-83.3946655,,,,human,true,
Independent Order of Oddfellows Cemetery,United States,Ohio,Adams County,West Union,West Union,,38.79833,-83.5301375,,,,human,true,
Yankeetown Cemetery,United States,Ohio,Fayette County,Yankeetown,Yankeetown,,39.6583433,-83.2559296,,,,human,true,
Hampton Cemetery,United States,Ohio,Madison County,West Jefferson,West Jefferson,,39.9392304,-83.2687341,,,,human,true,
Cook Cemetery,United States,Ohio,Fayette County,White Oak,White Oak,,39.6896692,-83.340142,,,,human,true,
Clarksville Independent Order of Odd Fellows Cemetery,United States,Ohio,Clinton County,Clarksville,Clarksville,,39.3964543,-83.9831717,,,,human,true,
Greenlawn Cemetery,United States,Ohio,Clark County,South Charleston,South Charleston,,39.8339771,-83.6354952,,,,human,true,
Bush Cemetery,United States,Ohio,Fayette County,Jasper Mills,Jasper Mills,,39.5234092,-83.5081153,,,,human,true,
Myers Cemetery,United States,Ohio,Clark County,Hampton Woods,Hampton Woods,,39.9689335,-83.9510446,,,,human,true,
Madison Mills Cemetery,United States,Ohio,Fayette County,Madison Mills,Madison Mills,,39.6457759,-83.3261627,,,,human,true,
Shiloh Cemetery,United States,Ohio,Hamilton County,Eileen Gardens,Eileen Gardens,,39.1034461,-84.616962,,,,human,true,
Friendship Cemetery,United States,Ohio,Scioto County,Friendship,Friendship,,38.6964442,-83.104169,,,,human,true,
Kramer Cemetery,United States,Ohio,Clermont County,Marathon,Marathon,,39.1579313,-83.9873475,,,,human,true,
Sycamore Township Memorial Cemetery,United States,Ohio,Hamilton County,Kenwood Knolls,Kenwood Knolls,,39.211822,-84.3794233,,,,human,true,
New Maple Grove Cemetery,United States,Ohio,Clinton County,Port William,Port William,,39.5547043,-83.7809631,,,,human,true,
Bethel Lane Cemetery,United States,Ohio,Clinton County,Morrisville,Morrisville,,39.3782985,-83.8064585,,,,human,true,
Highland Cemetery,United States,Ohio,Highland County,Highland,Highland,,39.342727,-83.6015868,,,,human,true,
Fairfield Cemetery,United States,Ohio,Greene County,Fairborn,Fairborn,,39.8200786,-84.0297268,,,,human,true,
Cherry Fork Cemetery,United States,Ohio,Adams County,Cherry Fork,Cherry Fork,,38.8803553,-83.6164955,,,,human,true,
Newman Cemetery,United States,Ohio,Adams County,Jaybird,Jaybird,,38.9328658,-83.274554,,,,human,true,
Crabtree Cemetery,United States,Ohio,Scioto County,Sedan,Sedan,,38.9228742,-83.1300822,,,,human,true,
Locust Grove Cemetery,United States,Ohio,Adams County,Locust Grove,Locust Grove,,38.97845,-83.3878357,,,,human,true,
Hoffer Hill Cemetery,United States,Ohio,Scioto County,Youngs,Youngs,,38.890185,-83.2365009,,,,human,true,
Baldwin Cemetery,United States,Ohio,Fayette County,White Oak,White Oak,,39.7009317,-83.3569312,,,,human,true,
Brown Run Cemetery,United States,Ohio,Montgomery County,Browns Chapel,Browns Chapel,,39.6125951,-84.4589677,,,,human,true,
Saint Patricks Cemetery,United States,Ohio,Madison County,London,London,,39.8748041,-83.430442,,,,human,true,
Rittenour Cemetery,United States,Ohio,Pike County,Riverview Mobile Home Park,Riverview Mobile Home Park,,39.0680725,-83.0202819,,,,human,true,
Mound Cemetery,United States,Ohio,Pike County,Van Meter,Van Meter,,39.0526755,-83.0180934,,,,human,true,
Pumpkin Ridge Cemetery,United States,Ohio,Adams County,West Union,West Union,,38.7889191,-83.5469059,,,,human,true,
Lovejoy Cemetery,United States,Ohio,Adams County,West Union,West Union,,38.7887049,-83.5334929,,,,human,true,
Lawshe Cemetery,United States,Ohio,Adams County,Lawshe,Lawshe,,38.9427477,-83.4672192,,,,human,true,
Byrd Cemetery,United States,Ohio,Highland County,Sinking Spring,Sinking Spring,,39.0744394,-83.3904653,,,,human,true,
Pleasant Hill Cemetery,United States,Ohio,Highland County,Sinking Spring,Sinking Spring,,39.0751977,-83.3818505,,,,human,true,
Chillicothe Correctional Institute Cemetery,United States,Ohio,Ross County,Pleasant Valley,Pleasant Valley,,39.3666345,-83.0227972,,,,human,true,
Springbank Cemetery,United States,Ohio,Ross County,Yellowbud,Yellowbud,,39.4820223,-83.0151988,,,,human,true,
Hillsboro Cemetery,United States,Ohio,Highland County,Lynwood Terrace,Lynwood Terrace,,39.2149292,-83.6038956,,,,human,true,
Saint Mary's Cemetery,United States,Ohio,Highland County,Lynwood Terrace,Lynwood Terrace,,39.2120621,-83.6103751,,,,human,true,
Prospect Cemetery,United States,Ohio,Highland County,Prospect,Prospect,,39.1358687,-83.5631968,,,,human,true,
Bainbridge Cemetery,United States,Ohio,Ross County,Bainbridge,Bainbridge,,39.2242888,-83.2715863,,,,human,true,
Scott Cemetery,United States,Ohio,Hamilton County,Fernald,Fernald,,39.2757217,-84.6847787,,,,human,true,
Pleasant Hill Cemetery,United States,Ohio,Madison County,Oakwood Acres,Oakwood Acres,,39.94462,-83.2851403,,,,human,true,
Tranquility Cemetery,United States,Ohio,Adams County,Tranquility,Tranquility,,38.9621078,-83.53076,,,,human,true,
Mount Pleasant Cemetery,United States,Ohio,Clermont County,Stringtown,Stringtown,,38.8239973,-84.1011613,,,,human,true,
Greenfield Cemetery,United States,Ohio,Highland County,Greenfield,Greenfield,,39.3589854,-83.3830925,,,,human,true,
Saint Joseph's Cemetery,United States,Ohio,Highland County,Greenfield,Greenfield,,39.356743,-83.3821135,,,,human,true,
Ludlow Cemetery,United States,Ohio,Miami County,Laura,Laura,,39.9867559,-84.4125121,,,,human,true,
Hollansburg Cemetery,United States,Ohio,Darke County,Hollansburg,Hollansburg,,39.9986107,-84.7900918,,,,human,true,
Union Cemetery,United States,Ohio,Ross County,View (historical),View (historical),,39.3903331,-83.0522871,,,,human,true,
Funderburg Cemetery,United States,Ohio,Clark County,Funderberg (historical),Funderberg (historical),,39.9324278,-84.0005186,,,,human,true,
St. Margaret's Cemetery,United States,OH,Ross County,Chillicothe,510 Worthington Avenue,45601,39.3470703,-83.0051022,reception@OLQAParish.com,https://olqaparish.com/st-margaret-cemetery,+1-740-466-6807,human,true,
McDill Cemetery,United States,Ohio,Ross County,North Fork Village,North Fork Village,,39.338797,-83.0328747,,,,human,true,
Mound Hill Cemetery,United States,Ohio,Preble County,Eaton,Eaton,,39.7417969,-84.6460341,,https://moundhillcemetery.com/,,human,true,
Mound Hill Cemetary,United States,Ohio,Preble County,Eaton,Eaton,,39.7410226,-84.6498834,,,,human,true,
Old Methodist Cemetery,United States,Ohio,Ross County,Frankfort,Frankfort,,39.3993362,-83.1799866,,,,human,true,
Baptist Cemetery,United States,Ohio,Ross County,Frankfort,Frankfort,,39.3998414,-83.1672384,,,,human,true,
Clarksburg Methodist Cemetery,United States,Ohio,Ross County,Clarksburg,Clarksburg,,39.5044696,-83.1546114,,,,human,true,
Old State Insane and Penal Cemetery,United States,Ohio,Franklin County,Valley View,Valley View,,39.965057,-83.0574512,,,,human,true,
State Insane Cemetery,United States,Ohio,Franklin County,Valley View,Valley View,,39.9632033,-83.0629515,,,,human,true,
State New Insane Cemetery,United States,Ohio,Franklin County,Valley View,Valley View,,39.9627684,-83.0538011,,,,human,true,
Union Methodist Cemetery,United States,Ohio,Franklin County,Briggsdale,Briggsdale,,39.9191986,-83.0503411,,,,human,true,
Franklinton Cemetery,United States,Ohio,Franklin County,Columbus,Columbus,,39.9628939,-83.0220442,,,,human,true,
Saint James Lutheran Cemetery,United States,Ohio,Franklin County,Hilliard Commons,Hilliard Commons,,39.980718,-83.1496848,,,,human,true,
Grove City Cemetery,United States,Ohio,Franklin County,Grove City,Grove City,,39.8811805,-83.0986743,,,,human,true,
Salem Cemetery,United States,Ohio,Franklin County,Alkire Place,Alkire Place,,39.9140592,-83.1076981,,,,human,true,
Springboro Cemetery,United States,Ohio,Warren County,Springboro,Springboro,,39.5487093,-84.2432163,,,,human,true,
Mount Calvary Cemetery,United States,Ohio,Madison County,West Jefferson,West Jefferson,,39.9365704,-83.2768926,,,,human,true,
Upper Gwynne Farm Cemetery,United States,Ohio,Madison County,Lafayette,Lafayette,,39.9363273,-83.4156967,,,,human,true,
Pisgah Ridge Cemetery,United States,Ohio,Brown County,Levanna,Levanna,,38.7813584,-83.8800209,,,,human,true,
Norman Cemetery,United States,Ohio,Brown County,Reeds,Reeds,,38.8089321,-83.9213361,,,,human,true,
Shearer Cemetery,United States,Ohio,Montgomery County,Huber Heights,Huber Heights,,39.8396978,-84.1213647,,,,human,true,
Orient Feeble Minded Institute Cemetery,United States,Ohio,Pickaway County,Orient,Orient,,39.7971521,-83.1542731,,,,human,true,
Reily Cemetery,United States,Ohio,Butler County,Reily,Reily,,39.4301799,-84.7702555,,,,human,true,
Pines Pet Cemetery & Cremation Center,United States,Ohio,Warren County,Pekin,Pekin,,39.510425,-84.1857397,,https://www.pinespetcemeteryandcremationcenter.com/,,pet,true,
Mallow Cemetery,United States,Ohio,Ross County,Austin,Austin,,39.4283806,-83.2234706,,,,human,true,
Stader Cemetery,United States,Ohio,Ross County,Austin,Austin,,39.435455,-83.2180419,,,,human,true,
Greenlawn Cemetery,United States,Ohio,Ross County,Frankfort,Frankfort,,39.4070952,-83.1924329,,,,human,true,
Smiley Cemetery,United States,Ohio,Hamilton County,Pleasant Run Farm,Pleasant Run Farm,,39.3056266,-84.5423375,,,,human,true,
Fairfax Cemetery,United States,Ohio,Highland County,Fairfax,Fairfax,,39.0472837,-83.5884572,,,,human,true,
Mount Zion Cemetery,United States,Ohio,Adams County,Mount Zion (historical),Mount Zion (historical),,38.9444359,-83.5922481,,,,human,true,
Harter Cemetery,United States,Ohio,Darke County,New Madison,New Madison,,39.9746487,-84.6957393,,,,human,true,
Darbyville Cemetery,United States,Ohio,Pickaway County,Darbyville,Darbyville,,39.6915952,-83.1140887,,,,human,true,
Spring Hill Cemetery,United States,Ohio,Butler County,Maustown,Maustown,,39.4013129,-84.4527374,,,,human,true,
Florence Cemetery,United States,Ohio,Montgomery County,Timberlane Mobile Village,Timberlane Mobile Village,,39.8165331,-84.2043253,,,,human,true,
Old Columbia Street Cemetery,United States,Ohio,Clark County,Springfield,Springfield,,39.9264503,-83.8130967,,,,human,true,
Bloom Rose Cemetery,United States,Ohio,Brown County,Bloom Rose (historical),Bloom Rose (historical),,39.1023912,-83.9984543,,,,human,true,
Hartman Cemetery,United States,OH,Clermont County,Williamsburg,3333 US 50,45176,39.1358137,-84.0499519,,,,human,true,
Osborn Cemetery,United States,OH,Clermont County,Williamsburg,5519 State Route 133,45176,39.1560516,-84.0657595,,,,human,true,
Ross Township Cemetery,United States,Ohio,Butler County,Layhigh,Layhigh,,39.3614411,-84.692336,,,,human,true,
Butterfield Cemetery,United States,Ohio,Butler County,Ross,Ross,,39.3084245,-84.6548868,,,,human,true,
Shaker Cemetery,United States,Ohio,Hamilton County,Shaker Village (historical),Shaker Village (historical),,39.2907986,-84.741143,,,,human,true,
Sater Cemetery,United States,Ohio,Hamilton County,Shaker Village (historical),Shaker Village (historical),,39.2877596,-84.7312027,,,,human,true,
Lindale Baptist Cemetery,United States,Ohio,Clermont County,Lindale,Lindale,,38.9951599,-84.2089965,,,,human,true,
Saint Angele Merici Cemetery,United States,Ohio,Brown County,Fayetteville,Fayetteville,,39.1856859,-83.9362746,,,,human,true,
Greenbush Cemetery,United States,Ohio,Brown County,Greenbush,Greenbush,,39.0737594,-83.9260065,,,,human,true,
Hendrixson Cemetery,United States,Ohio,Brown County,New Hope,New Hope,,38.9752123,-83.913652,,,,human,true,
Confidence Cemetery,United States,Ohio,Brown County,Georgetown,Georgetown,,38.8856318,-83.9006523,,,,human,true,
Presbyterian Cemetery,United States,Ohio,Brown County,Redoak,Redoak,,38.7961085,-83.7955064,,,,human,true,
Higginsport Cemetery,United States,Ohio,Brown County,Higginsport,Higginsport,,38.7923378,-83.9625656,,,,human,true,
Maplewood Cemetery,United States,Ohio,Brown County,Hestoria,Hestoria,,38.7358478,-83.837844,,https://villageofripley.com/index.php/maplewood-cemetery/,,human,true,
Charter Oak Cemetery,United States,Ohio,Brown County,Huntington Park,Huntington Park,,38.6713912,-83.7732716,,,,human,true,
Linwood Cemetery,United States,Ohio,Brown County,Russellville,Russellville,,38.8676907,-83.7670619,,,,human,true,
New Comer Cemetery,United States,Ohio,Clark County,Oakcrest,Oakcrest,,39.9498332,-83.7668785,,,,human,true,
Tecumseh Cemetery,United States,Ohio,Clark County,Snyderville,Snyderville,,39.9080287,-83.9063152,,,,human,true,
Greenmount Cemetery,United States,Ohio,Clark County,Warder Park,Warder Park,,39.922167,-83.7877617,,,,human,true,
Ash Ridge Cemetery,United States,Ohio,Brown County,Ash Ridge,Ash Ridge,,38.9166197,-83.7537243,,,,human,true,
Red Lion Cemetery,United States,Ohio,Warren County,Red Lion,Red Lion,,39.4914652,-84.2521839,,,,human,true,
Grace Memorial Gardens,United States,Ohio,Butler County,Blue Ball,Blue Ball,,39.4889625,-84.3202073,,,,human,true,
Westwood Cemetery,United States,Ohio,Pike County,Nace Corner,Nace Corner,,39.0967217,-83.3515748,,,,human,true,
Riverview Cemetery,United States,Ohio,Montgomery County,Southern Hills,Southern Hills,,39.7293918,-84.190025,,,,human,true,
Beth Abraham Cemetery,United States,Ohio,Montgomery County,Southern Hills,Southern Hills,,39.7282568,-84.1921035,,,,human,true,
Lucasville Cemetary,United States,Ohio,Scioto County,Lucasville,Lucasville,,38.8807281,-82.9998636,,,,human,true,
Scioto Burial Park,United States,Ohio,Scioto County,Rushtown,Rushtown,,38.8423164,-83.0255952,,,,human,true,
Decatur Cemetery,United States,Ohio,Brown County,Decatur,Decatur,,38.8180915,-83.7015174,,,,human,true,
Big Run Cemetary,United States,Ohio,Scioto County,Clifford,Clifford,,38.9032423,-83.04237,,,,human,true,
Hamer Township Cemetery,United States,Ohio,Highland County,Danville,Danville,,39.1388322,-83.7319954,,,,human,true,
Chapman Cemetery,United States,Ohio,Highland County,Danville,Danville,,39.140153,-83.7195244,,,,human,true,
Wilberforce Cemetery,United States,Ohio,Greene County,Wilberforce,Wilberforce,,39.715813,-83.8718412,,,,human,true,
Selma Methodist Episcopal Cemetery,United States,Ohio,Clark County,Cortsville,Cortsville,,39.7909863,-83.7166345,,,,human,true,
Laboiteaux-Cary Cemetery,United States,Ohio,Hamilton County,North College Hill,North College Hill,,39.2180857,-84.5496891,,,,human,true,
South Bend Baptist Cemetery,United States,Ohio,Hamilton County,The Pines,The Pines,,39.113336,-84.6354575,,,,human,true,
Our Lady of Victory Cemetery,United States,Ohio,Hamilton County,Cotillion Village,Cotillion Village,,39.1073463,-84.63374,,,,human,true,
Asbury Cemetery,United States,Ohio,Hamilton County,Asbury,Asbury,,39.0657984,-84.3437259,,,,human,true,
Newton Cemetery,United States,Ohio,Hamilton County,Sherwood Village,Sherwood Village,,39.0930463,-84.3661056,,,,human,true,
Pleasant Hill Cemetery,United States,Ohio,Clark County,Sylvan Shores,Sylvan Shores,,39.9444224,-83.5958172,,,,human,true,
Potsdam Cemetery,United States,Ohio,Miami County,Potsdam,Potsdam,,39.9651362,-84.4149113,,,,human,true,
Jonahs Run Cemetery,United States,Ohio,Warren County,Harveysburg,Harveysburg,,39.4965628,-83.9805094,,,,human,true,
Quaker Cemetery,United States,Ohio,Clinton County,Sligo,Sligo,,39.4513671,-83.9375618,,,,human,true,
Tapscott Cemetery,United States,Ohio,Warren County,Carlisle,Carlisle,,39.5770354,-84.3069578,,,,human,true,
Carlisle Cemetery,United States,Ohio,Warren County,Carlisle,Carlisle,,39.5852617,-84.3244569,,,,human,true,
Slifer Cemetery,United States,Ohio,Montgomery County,Shady Acres Mobile Home Court,Shady Acres Mobile Home Court,,39.6995661,-84.3958495,,,,human,true,
Holp Cemetery,United States,Ohio,Montgomery County,Shady Acres Mobile Home Court,Shady Acres Mobile Home Court,,39.7015139,-84.3959695,,,,human,true,
Sugar Grove Cemetery,United States,Ohio,Clinton County,Wilmington,Wilmington,,39.4405566,-83.8345852,,,,human,true,
New Burlington Cemetery,United States,Ohio,Clinton County,New Burlington,New Burlington,,39.5671691,-83.9515814,,,,human,true,
Old Quaker Cemetery,United States,Ohio,Warren County,Roachester,Roachester,,39.359017,-84.0953325,,,,human,true,
Miller Cemetery,United States,Ohio,Clinton County,Ogles (historical),Ogles (historical),,39.5504294,-83.8355646,,,,human,true,
Dry Fork Baptist Cemetery,United States,Ohio,Preble County,West Manchester,West Manchester,,39.8806089,-84.6148955,,,,human,true,
Twin Township Cemetery,United States,Ohio,Ross County,Bourneville,Bourneville,,39.2874706,-83.1494792,,,,human,true,
Perintown United Methodist Church Cemetery,United States,Ohio,Clermont County,Perintown,Perintown,,39.1371993,-84.2359062,,,,human,true,
Marsh Cemetery,United States,Ohio,Franklin County,Parkside Village,Parkside Village,,39.8986324,-83.0599649,,,,human,true,
Baptist Cemetery,United States,Ohio,Highland County,New Market,New Market,,39.1341548,-83.6656053,,,,human,true,
Concord Cemetery,United States,Ohio,Preble County,Corvin (historical),Corvin (historical),,39.7131918,-84.7685391,,,,human,true,
Warner Cemetery,United States,Ohio,Montgomery County,Clayton,Clayton,,39.8912057,-84.3551324,,,,human,true,
Bethel Cemetery,United States,Ohio,Miami County,Garland,Garland,,39.9063497,-84.3659529,,,,human,true,
Trustees Union Cemetery,United States,Ohio,Warren County,Kings Mills,Kings Mills,,39.3503602,-84.267802,,,,human,true,
St. Josephs Cemetery,United States,Ohio,Franklin County,Shadeville,Shadeville,,39.8223668,-82.9940456,,,,human,true,
Cynthiana Cemetery,United States,Ohio,Pike County,Cynthiana,Cynthiana,,39.1751099,-83.346384,,,,human,true,
Wesley Cemetery,United States,Ohio,Warren County,Windsor,Windsor,,39.2777223,-84.0350083,,,,human,true,
Second Creek Cemetery,United States,Ohio,Clinton County,Pansy,Pansy,,39.3162975,-83.9547773,,,,human,true,
Martinsville Cemetery,United States,Ohio,Clinton County,Martinsville,Martinsville,,39.3225721,-83.8100615,,,,human,true,
Independent Order of Odd Fellows Cemetery,United States,Ohio,Clinton County,Martinsville,Martinsville,,39.3185283,-83.8021052,,,,human,true,
Turner Family Cemetery,United States,Ohio,Clinton County,Martinsville,Martinsville,,39.3188291,-83.8032743,,,,human,true,
New Antioch Cemetery,United States,Ohio,Clinton County,New Antioch,New Antioch,,39.4102195,-83.7489638,,,,human,true,
Maple Grove Cemetery,United States,Ohio,Clinton County,Port William,Port William,,39.5556622,-83.7818997,,,,human,true,
Mount Hope Pet Cemetery,United States,Ohio,Hamilton County,New Haven,New Haven,,39.2559521,-84.7270793,,,,pet,true,
Old School Baptist Cemetery,United States,Ohio,Warren County,Ridgeville,Ridgeville,,39.5361617,-84.1699668,,,,human,true,
The Saint Kateri Preserve for Natural Burial at Calvary Cemetery,United States,Ohio,Montgomery County,Carmonte,Carmonte,,39.7203949,-84.2052574,,https://calvarycemeterydayton.org/services/natural-burial-st-kateri-preserve/,,human,true,
St. Francis Cemetery,United States,Ohio,Hamilton County,Pendleton,Pendleton,,39.1115595,-84.4546215,,,,human,true,
Dayton National Cemetery,United States,Ohio,Montgomery County,Crown Point,West 3rd Street,,39.7470281,-84.2607862,,https://www.cem.va.gov/cems/nchp/dayton.asp,,human,true,
Manchester Second Street Cemetery,United States,Ohio,Adams County,Manchester,Manchester,,38.6886628,-83.6039282,,,,human,true,
County Infirmary Cemetery,United States,Ohio,Montgomery County,Kingsville (historical),Kingsville (historical),,39.7385452,-84.2833956,,,,human,true,
Kirby Cemetery,United States,Ohio,Warren County,Merrittstown,Merrittstown,,39.4733136,-84.2028193,,,,human,true,
Renick Cemetery,United States,Ohio,Pickaway County,Pherson,Pherson,,39.6570255,-83.066511,,,,human,true,
Florence Cemetery,United States,Ohio,Pickaway County,Pherson,Pherson,,39.6678321,-83.0999692,,,,human,true,
Jester Cemetery,United States,Ohio,Pickaway County,New Holland,New Holland,,39.527619,-83.2462397,,,,human,true,
Hebron Cemetery,United States,Ohio,Pickaway County,Grange Hall,Grange Hall,,39.6255257,-83.1912422,,,,human,true,
Old Cardiff Family Farm Cemetery,United States,Ohio,Pickaway County,Grange Hall,Grange Hall,,39.6486527,-83.1680113,,,,human,true,
Hulse Farm Cemetery,United States,Ohio,Pickaway County,Fox,Fox,,39.6210549,-83.0210807,,,,human,true,
Mount Pleasant Cemetery,United States,Ohio,Pickaway County,Kinderhook,Kinderhook,,39.5669904,-83.0683573,,,,human,true,
Independent Order of Oddfellows Cemetery,United States,Ohio,Highland County,Lynchburg,Lynchburg,,39.245627,-83.7901028,,,,human,true,
Masonic Cemetery,United States,Ohio,Highland County,Lynchburg,Lynchburg,,39.2497509,-83.788886,,,,human,true,
West Chapel Cemetery,United States,Ohio,Clinton County,Farmers,Farmers,,39.2943415,-83.7604275,,,,human,true,
Bobbitt Cemetery,United States,Ohio,Highland County,Lynchburg,Lynchburg,,39.2402828,-83.793459,,,,human,true,
Asbury Cemetery,United States,Ohio,Hamilton County,Monfort Heights,Monfort Heights,,39.1895376,-84.6051137,,,,human,true,
Old Baptist Church Cemetery,United States,Ohio,Clermont County,Newtonsville,Newtonsville,,39.1787512,-84.0894466,,,,human,true,
Saint Patrick’s Cemetery,United States,Ohio,Brown County,Fayetteville,Fayetteville,,39.1924209,-83.9282029,,,,human,true,
Jesuit Cemetery,United States,Ohio,Clermont County,Milford,Milford,,39.1656221,-84.2934132,,,,human,true,
Sandy Springs Cemetery,United States,Ohio,Adams County,Sandy Springs,Sandy Springs,,38.6123982,-83.2974692,,,,human,true,
Point Cemetery,United States,Ohio,Adams County,Stout,Stout,,38.6730054,-83.3814167,,,,human,true,
Hamilton Cemetery,United States,Ohio,Adams County,Tulip,Tulip,,38.7525715,-83.3946289,,,,human,true,
Beavers Cemetery,United States,Ohio,Highland County,Henrys Trailer Court,Henrys Trailer Court,,39.1965563,-83.4263515,,,,human,true,
Beechwood Cemetery,United States,Ohio,Preble County,Morning Sun,Morning Sun,,39.5847966,-84.7207787,,,,human,true,
Jacksonville Cemetery,United States,Ohio,Adams County,Jacksonville,Jacksonville,,38.911248,-83.4362885,,,,human,true,
Hull Cemetery,United States,Ohio,Adams County,Wheat Ridge,Wheat Ridge,,38.873472,-83.4886903,,,,human,true,
Cremation Island,United States,Ohio,Franklin County,Briggsdale,Briggsdale,,39.9415131,-83.0290905,,,,human,true,
D,United States,Ohio,Franklin County,Briggsdale,Briggsdale,,39.9428918,-83.034504,,,,human,true,
A,United States,Ohio,Franklin County,Briggsdale,Briggsdale,,39.9431767,-83.0354921,,,,human,true,
B,United States,Ohio,Franklin County,Briggsdale,Briggsdale,,39.9433002,-83.0342005,,,,human,true,
C,United States,Ohio,Franklin County,Briggsdale,Briggsdale,,39.9424196,-83.0334072,,,,human,true,
Q,United States,Ohio,Franklin County,Briggsdale,Briggsdale,,39.942796,-83.0330721,,,,human,true,
S,United States,Ohio,Franklin County,Briggsdale,Briggsdale,,39.943015,-83.0322564,,,,human,true,
R,United States,Ohio,Franklin County,Briggsdale,Briggsdale,,39.9417508,-83.032032,,,,human,true,
Section 5,United States,Ohio,Franklin County,Briggsdale,Briggsdale,,39.9417483,-83.0326846,,,,human,true,
35,United States,Ohio,Franklin County,Briggsdale,Briggsdale,,39.9408816,-83.0311759,,,,human,true,
E,United States,Ohio,Franklin County,Briggsdale,Briggsdale,,39.9424923,-83.0345129,,,,human,true,
Z,United States,Ohio,Franklin County,Briggsdale,Briggsdale,,39.942761,-83.0358452,,,,human,true,
F,United States,Ohio,Franklin County,Briggsdale,Briggsdale,,39.9421278,-83.0347948,,,,human,true,
G,United States,Ohio,Franklin County,Briggsdale,Briggsdale,,39.941619,-83.033818,,,,human,true,
P,United States,Ohio,Franklin County,Briggsdale,Briggsdale,,39.941225,-83.0329024,,,,human,true,
Chapel Cemetery,United States,Ohio,Butler County,Shandon,Shandon,,39.3342199,-84.7403974,,,,human,true,
Cooks Cemetery,United States,Ohio,Montgomery County,Avondale Trailer Court,Avondale Trailer Court,,39.7982326,-84.1602472,,,,human,true,
East Concord Cemetery,United States,Ohio,Franklin County,Landings At Quail Creek,Landings At Quail Creek,,39.8369653,-83.0732546,,,,human,true,
Runyan Cemetery,United States,Ohio,Butler County,Rolling Woods,Rolling Woods,,39.2881118,-84.3953255,,,,human,true,
Caesars Creek Cemetery,United States,Ohio,Greene County,Cornstalk,Cornstalk,,39.5478148,-83.9835551,,,,human,true,
Big Plain Cemetery,United States,Ohio,Madison County,Big Plain,Big Plain,,39.837747,-83.2805795,,,,human,true,
Fitzgerald Cemetery,United States,Ohio,Madison County,McKendree,McKendree,,39.8133443,-83.2494455,,,,human,true,
112,United States,Ohio,Franklin County,Briggsdale,Briggsdale,,39.9394751,-83.0299555,,,,human,true,
120,United States,Ohio,Franklin County,Briggsdale,Briggsdale,,39.9397273,-83.0290465,,,,human,true,
122,United States,Ohio,Franklin County,Briggsdale,Briggsdale,,39.9396798,-83.0280785,,,,human,true,
124,United States,Ohio,Franklin County,Briggsdale,Briggsdale,,39.9396711,-83.0265699,,,,human,true,
103,United States,Ohio,Franklin County,Columbus,Columbus,,39.9405655,-83.0263954,,,,human,true,
102,United States,Ohio,Franklin County,Briggsdale,Briggsdale,,39.9407958,-83.0275896,,,,human,true,
101,United States,Ohio,Franklin County,Briggsdale,Briggsdale,,39.9408274,-83.0288398,,,,human,true,
110,United States,Ohio,Franklin County,Briggsdale,Briggsdale,,39.9409773,-83.0299105,,,,human,true,
48,United States,Ohio,Franklin County,Briggsdale,Briggsdale,,39.9415161,-83.0304133,,,,human,true,
49,United States,Ohio,Franklin County,Briggsdale,Briggsdale,,39.9420205,-83.030447,,,,human,true,
38,United States,Ohio,Franklin County,Briggsdale,Briggsdale,,39.9416806,-83.031107,,,,human,true,
T,United States,Ohio,Franklin County,Briggsdale,Briggsdale,,39.9426042,-83.031171,,,,human,true,
1,United States,Ohio,Franklin County,Briggsdale,Briggsdale,,39.9424994,-83.0317857,,,,human,true,
2,United States,Ohio,Franklin County,Briggsdale,Briggsdale,,39.9419979,-83.0314239,,,,human,true,
32,United States,Ohio,Franklin County,Briggsdale,Briggsdale,,39.9402314,-83.0313575,,,,human,true,
Pancake Cemetery,United States,Ohio,Madison County,South Solon,South Solon,,39.76524,-83.5678375,,,,human,true,
30,United States,Ohio,Franklin County,Briggsdale,Briggsdale,,39.9433801,-83.0310337,,,,human,true,
74,United States,Ohio,Franklin County,Briggsdale,Briggsdale,,39.9426832,-83.0302682,,,,human,true,
106,United States,Ohio,Franklin County,Briggsdale,Briggsdale,,39.9436439,-83.0289637,,,,human,true,
123,United States,Ohio,Franklin County,Columbus,Columbus,,39.9443411,-83.0245132,,,,human,true,
126,United States,Ohio,Franklin County,Columbus,Columbus,,39.9440237,-83.0244934,,,,human,true,
127,United States,Ohio,Franklin County,Columbus,Columbus,,39.9436992,-83.0251861,,,,human,true,
119,United States,Ohio,Franklin County,Columbus,Columbus,,39.9436855,-83.0259918,,,,human,true,
Baby Rest,United States,Ohio,Franklin County,Columbus,Columbus,,39.9438842,-83.0267011,,,,human,true,
113,United States,Ohio,Franklin County,Columbus,Columbus,,39.9435642,-83.0268317,,,,human,true,
Lullaby Land,United States,Ohio,Franklin County,Columbus,Columbus,,39.9439165,-83.0275597,,,,human,true,
108,United States,Ohio,Franklin County,Columbus,Columbus,,39.9431821,-83.0275722,,,,human,true,
104 (Military),United States,Ohio,Franklin County,Columbus,Columbus,,39.9417351,-83.0272614,,,,human,true,
114,United States,Ohio,Franklin County,Columbus,Columbus,,39.9429301,-83.0265526,,,,human,true,
105 (Military),United States,Ohio,Franklin County,Columbus,Columbus,,39.9424207,-83.0262125,,,,human,true,
125 (Military),United States,Ohio,Franklin County,Columbus,Columbus,,39.9412719,-83.0263102,,,,human,true,
93,United States,Ohio,Franklin County,Briggsdale,Briggsdale,,39.9424671,-83.0294107,,,,human,true,
95,United States,Ohio,Franklin County,Briggsdale,Briggsdale,,39.9424694,-83.0283999,,,,human,true,
39,United States,Ohio,Franklin County,Briggsdale,Briggsdale,,39.9397685,-83.0310957,,,,human,true,
Y,United States,Ohio,Franklin County,Briggsdale,Briggsdale,,39.9419262,-83.0358512,,,,human,true,
X,United States,Ohio,Franklin County,Briggsdale,Briggsdale,,39.9418775,-83.0352081,,,,human,true,
3,United States,Ohio,Franklin County,Briggsdale,Briggsdale,,39.9421212,-83.0342931,,,,human,true,
4,United States,Ohio,Franklin County,Briggsdale,Briggsdale,,39.941866,-83.0345442,,,,human,true,
H,United States,Ohio,Franklin County,Briggsdale,Briggsdale,,39.9416139,-83.0345588,,,,human,true,
O,United States,Ohio,Franklin County,Briggsdale,Briggsdale,,39.9403759,-83.0330651,,,,human,true,
56,United States,Ohio,Franklin County,Briggsdale,Briggsdale,,39.9403582,-83.0322678,,,,human,true,
W,United States,Ohio,Franklin County,Briggsdale,Briggsdale,,39.940996,-83.0357758,,,,human,true,
V,United States,Ohio,Franklin County,Briggsdale,Briggsdale,,39.9400783,-83.0361901,,,,human,true,
U,United States,Ohio,Franklin County,Briggsdale,Briggsdale,,39.9400234,-83.0355313,,,,human,true,
29,United States,Ohio,Franklin County,Briggsdale,Briggsdale,,39.9407407,-83.0368666,,,,human,true,
34,United States,Ohio,Franklin County,Briggsdale,Briggsdale,,39.9413362,-83.0368229,,,,human,true,
27,United States,Ohio,Franklin County,Briggsdale,Briggsdale,,39.939478,-83.0364029,,,,human,true,
28 ( Military),United States,Ohio,Franklin County,Briggsdale,Briggsdale,,39.9401462,-83.0369064,,,,human,true,
8,United States,Ohio,Franklin County,Briggsdale,Briggsdale,,39.9414168,-83.0341673,,,,human,true,
I,United States,Ohio,Franklin County,Briggsdale,Briggsdale,,39.9411928,-83.034414,,,,human,true,
J,United States,Ohio,Franklin County,Briggsdale,Briggsdale,,39.9408319,-83.034456,,,,human,true,
Military,United States,Ohio,Franklin County,Briggsdale,Briggsdale,,39.9392243,-83.0337061,,,,human,true,
L,United States,Ohio,Franklin County,Briggsdale,Briggsdale,,39.9399421,-83.0345188,,,,human,true,
K,United States,Ohio,Franklin County,Briggsdale,Briggsdale,,39.9403297,-83.0340425,,,,human,true,
N,United States,Ohio,Franklin County,Briggsdale,Briggsdale,,39.939688,-83.0334418,,,,human,true,
47,United States,Ohio,Franklin County,Briggsdale,Briggsdale,,39.9393563,-83.0312279,,,,human,true,
7,United States,Ohio,Franklin County,Briggsdale,Briggsdale,,39.9388437,-83.0310238,,,,human,true,
65/85,United States,Ohio,Franklin County,Briggsdale,Briggsdale,,39.9389058,-83.0319862,,,,human,true,
100,United States,Ohio,Franklin County,Briggsdale,Briggsdale,,39.9378253,-83.0317788,,,,human,true,
50,United States,Ohio,Franklin County,Briggsdale,Briggsdale,,39.9381164,-83.0327947,,,,human,true,
66,United States,Ohio,Franklin County,Briggsdale,Briggsdale,,39.9368845,-83.0328425,,,,human,true,
57,United States,Ohio,Franklin County,Briggsdale,Briggsdale,,39.9366697,-83.0336348,,,,human,true,
31,United States,Ohio,Franklin County,Briggsdale,Briggsdale,,39.9374492,-83.0341731,,,,human,true,
43,United States,Ohio,Franklin County,Briggsdale,Briggsdale,,39.9380986,-83.0346835,,,,human,true,
36,United States,Ohio,Franklin County,Briggsdale,Briggsdale,,39.9385099,-83.0346686,,,,human,true,
9,United States,Ohio,Franklin County,Briggsdale,Briggsdale,,39.9381975,-83.0343351,,,,human,true,
46,United States,Ohio,Franklin County,Briggsdale,Briggsdale,,39.9387392,-83.0357934,,,,human,true,
6,United States,Ohio,Franklin County,Briggsdale,Briggsdale,,39.9386551,-83.0353174,,,,human,true,
37,United States,Ohio,Franklin County,Briggsdale,Briggsdale,,39.9390916,-83.035098,,,,human,true,
33,United States,Ohio,Franklin County,Briggsdale,Briggsdale,,39.9389648,-83.0363096,,,,human,true,
M,United States,Ohio,Franklin County,Briggsdale,Briggsdale,,39.9382628,-83.0338204,,,,human,true,
116,United States,Ohio,Franklin County,Briggsdale,Briggsdale,,39.9389879,-83.0289011,,,,human,true,
128,United States,Ohio,Franklin County,Briggsdale,Briggsdale,,39.9387074,-83.0276978,,,,human,true,
121,United States,Ohio,Franklin County,Briggsdale,Briggsdale,,39.937591,-83.0270744,,,,human,true,
77,United States,Ohio,Franklin County,Briggsdale,Briggsdale,,39.9386468,-83.0304902,,,,human,true,
Baby Land,United States,Ohio,Franklin County,Briggsdale,Briggsdale,,39.9337308,-83.0362755,,,,human,true,
80,United States,Ohio,Franklin County,Briggsdale,Briggsdale,,39.9337054,-83.0356378,,,,human,true,
118,United States,Ohio,Hamilton County,Cumminsville,Cumminsville,,39.1738079,-84.5300716,,,,human,true,
116,United States,Ohio,Hamilton County,Winton Place,Winton Place,,39.1753484,-84.5285291,,,,human,true,
117,United States,Ohio,Hamilton County,Winton Place,Winton Place,,39.1750335,-84.5295402,,,,human,true,
13,United States,Ohio,Hamilton County,Cumminsville,Cumminsville,,39.1669516,-84.5287649,,,,human,true,
12,United States,Ohio,Hamilton County,Cumminsville,Cumminsville,,39.1678176,-84.5294467,,,,human,true,
16,United States,Ohio,Hamilton County,Cumminsville,Cumminsville,,39.1685428,-84.5293855,,,,human,true,
15,United States,Ohio,Hamilton County,Cumminsville,Cumminsville,,39.1694509,-84.5285727,,,,human,true,
41,United States,Ohio,Hamilton County,Winton Place,Winton Place,,39.1696732,-84.5276667,,,,human,true,
89,United States,Ohio,Hamilton County,Winton Place,Winton Place,,39.1760276,-84.5219601,,,,human,true,
111,United States,Ohio,Hamilton County,Winton Place,Winton Place,,39.1762262,-84.5231086,,,,human,true,
102,United States,Ohio,Hamilton County,Winton Place,Winton Place,,39.1766873,-84.524543,,,,human,true,
101,United States,Ohio,Hamilton County,Winton Place,Winton Place,,39.1758229,-84.5244732,,,,human,true,
Washburn / Countryman Cemetary,United States,Ohio,Highland County,Coon Crossing,Coon Crossing,,39.1287679,-83.4030303,,,,human,true,
Lewis Cemetery,United States,Ohio,Highland County,Sugar Tree Ridge,Sugar Tree Ridge,,39.0644037,-83.6428086,,,,human,true,
The Boneyard,United States,Ohio,Clermont County,Perintown,Perintown,,39.1282528,-84.2489091,,,,human,true,
Moscow Cemetery,United States,Ohio,Clermont County,Moscow,Moscow,,38.8602914,-84.2118198,,,,human,true,
Wheelock Cemetery,United States,Ohio,Miami County,Nashville,Nashville,,39.9650332,-84.2837453,,,,human,true,
West Branch Cemetery,United States,Ohio,Montgomery County,County Line (historical),County Line (historical),,39.9353493,-84.3324682,,,,human,true,
Martin Cemetery,United States,Ohio,Scioto County,Crabtree,Crabtree,,38.8905135,-83.0994379,,,,human,true,
Rockwell Cemetery,United States,Ohio,Scioto County,Crabtree,Crabtree,,38.892266,-83.1021939,,,,human,true,
Asbury Chapel Cemetery,United States,Ohio,Ross County,Denver,Denver,,39.197146,-83.0564278,,,,human,true,
Yankee Hill Cemetery,United States,Ohio,Ross County,Yankeetown,Yankeetown,,39.2457779,-83.0527094,,,,human,true,
Baptist Hill Cemetery,United States,Ohio,Ross County,Brownsville,Brownsville,,39.261984,-83.0487741,,,,human,true,
White Oak Cemetery,United States,Ohio,Pike County,Arkoe,Arkoe,,39.0511006,-83.2597959,,,,human,true,
Saint Charles Cemetery,United States,Ohio,Clark County,South Charleston,South Charleston,,39.8316997,-83.62418,,,,human,true,
Cotton Run Cemetery,United States,Ohio,Butler County,Overpeck,Overpeck,,39.4859086,-84.5152495,,,,human,true,
Spring Grove Cemetery and Arboretum,United States,Ohio,Hamilton County,Winton Place,Winton Place,,39.1753849,-84.5277568,,,,human,true,
Evans Cemetery,United States,Ohio,Adams County,Sandy Springs,Sandy Springs,,38.5892295,-83.2962014,,,,human,true,
Sheep Pen Cemetery,United States,Ohio,Fayette County,New Martinsburg,New Martinsburg,,39.3766641,-83.4248041,,,,human,true,
Kerr Cemetery,United States,Ohio,Brown County,Huntington Park,Huntington Park,,38.667108,-83.7879402,,,,human,true,
Pioneer Graveyard,United States,Ohio,Brown County,Aberdeen,Aberdeen,,38.6482444,-83.7673747,,,,human,true,
Lauman Cemetery,United States,Ohio,Scioto County,Clifford,Clifford,,38.9228966,-83.0424723,,,,human,true,
Enon Cemetery,United States,Ohio,Clark County,Enon,Enon,,39.8818767,-83.9259498,,,,human,true,
Mud Run Cemetery,United States,Ohio,Clark County,Houck Meadows,Houck Meadows,,39.8437724,-83.9390437,,,,human,true,
Booher Cemetery,United States,Ohio,Montgomery County,Taylorsville,Taylorsville,,39.8739256,-84.1698684,,,,human,true,
Phillipsburg Cemetery,United States,Ohio,Montgomery County,Phillipsburg,Phillipsburg,,39.9127631,-84.3972148,,,,human,true,
Hopewell Cemetery,United States,Ohio,Clermont County,Felicity,Felicity,,38.8330598,-84.1166848,,,,human,true,
Eakins Cemetery #2,United States,Ohio,Adams County,Jacksonville,Jacksonville,,38.9221354,-83.4538153,,,,human,true,
Farmersville Cemetery,United States,Ohio,Montgomery County,Farmersville,Farmersville,,39.6767207,-84.4246756,,,,human,true,
Fallis Cemetery,United States,Ohio,Greene County,Bellbrook,Bellbrook,,39.655236,-84.0881063,,,,human,true,
Huston Cemetery,United States,Ohio,Montgomery County,Hampstead,Hampstead,,39.6780518,-84.097251,,,,human,true,
Primitive Baptist Cemetery,United States,Ohio,Greene County,Bellbrook,Bellbrook,,39.6256456,-84.0817376,,,,human,true,
Brethren Cemetery,United States,Ohio,Hamilton County,Dent,Dent,,39.1985885,-84.6396678,,,,human,true,
White Oak Cemetery,United States,Ohio,Hamilton County,White Oak,White Oak,,39.2154144,-84.6019536,,,,human,true,
McMurry Cemetery,United States,Ohio,Hamilton County,Finney,Finney,,39.1044837,-84.8046262,,,,human,true,
Barnard Cemetery,United States,Ohio,Hamilton County,Finney,Finney,,39.1044443,-84.8087038,,,,human,true,
