name,country,state,county,city,street_address,zip_code,latitude,longitude,email,website,phone_number,type,is_operational,description
Albert Sweet Lot,United States,Rhode Island,Washington County,Gardners Corner,Gardners Corner,,41.5459467,-71.5531304,,,,human,true,
Allen Lot,United States,Rhode Island,Washington County,Fisherville,Fisherville,,41.5937209,-71.562444,,,,human,true,
Ancient Allen Lot,United States,Rhode Island,Washington County,Hamilton,Hamilton,,41.5276672,-71.444737,,,,human,true,
Arnold-Shearman Lot,United States,Rhode Island,Washington County,Kingston,Kingston,,41.5031568,-71.5139487,,,,human,true,
Avis Barber Lot,United States,Rhode Island,Washington County,Moscow,Moscow,,41.5314884,-71.720623,,,,human,true,
Barber Lot,United States,Rhode Island,Washington County,Lewis City,Lewis City,,41.5763847,-71.7136412,,,,human,true,
Barber Lot,United States,Rhode Island,Washington County,Arcadia,Arcadia,,41.5545439,-71.7231232,,,,human,true,
Barber Lot,United States,Rhode Island,Washington County,Wyoming,Wyoming,,41.5252992,-71.7069484,,,,human,true,
Bates Lot,United States,Rhode Island,Washington County,Tripps Corner,Tripps Corner,,41.5331561,-71.5903405,,,,human,true,
Bitgood Lot,United States,Rhode Island,Washington County,Barberville,Barberville,,41.5405593,-71.7073218,,,,human,true,
Bliven Burial Ground,United States,Rhode Island,Washington County,Arcadia,Arcadia,,41.5600995,-71.7281234,,,,human,true,
Boone Cemetery,United States,Rhode Island,Washington County,Wickford,Wickford,,41.5647111,-71.4621764,,,,human,true,
Boone Family Lot,United States,Rhode Island,Washington County,Millville,Millville,,41.589822,-71.6756216,,,,human,true,
Brainard Lot,United States,Rhode Island,Kent County,Escoheag,Escoheag,,41.57741,-71.7610071,,,,human,true,
Braman Lot,United States,Rhode Island,Washington County,Liberty,Liberty,,41.5181564,-71.5653395,,,,human,true,
Joseph Braman Lot,United States,Rhode Island,Washington County,Hope Valley,Hope Valley,,41.495153,-71.719726,,,,human,true,
Burlingame Cemetery,United States,Rhode Island,Washington County,Saunderstown,Saunderstown,,41.5207742,-71.4450132,,,,human,true,
Burton Lot,United States,Rhode Island,Washington County,Hopkinton,Hopkinton,,41.4694332,-71.7825724,,,,human,true,
Caleb Allen Cemetery,United States,Rhode Island,Washington County,Plum Point,Plum Point,,41.5301016,-71.435612,,,,human,true,
Card Lot,United States,Rhode Island,Washington County,Tripps Corner,Tripps Corner,,41.5553782,-71.598952,,,,human,true,
Carpenter Lot,United States,Rhode Island,Washington County,Hope Valley,Hope Valley,,41.502044,-71.7217341,,,,human,true,
Carr Cemetery,United States,Rhode Island,Washington County,Lafayette,Lafayette,,41.5698234,-71.4828365,,,,human,true,
Cashman Cemetery,United States,Rhode Island,Washington County,Saunderstown,Saunderstown,,41.5202348,-71.4344915,,,,human,true,
Cezar Onion Lot,United States,Rhode Island,Washington County,Millville,Millville,,41.5928776,-71.678955,,,,human,true,
Champlin Lot,United States,Rhode Island,Washington County,Gardners Corner,Gardners Corner,,41.5267676,-71.5497835,,,,human,true,
Congdon Cemetery,United States,Rhode Island,Washington County,Lafayette,Lafayette,,41.5523234,-71.4970038,,,,human,true,
Curtis Maine Lot,United States,Rhode Island,Washington County,Hopkinton,Hopkinton,,41.4628771,-71.7895135,,,,human,true,
Daniel Lewis Lot,United States,Rhode Island,Washington County,Ashaway,Ashaway,,41.434544,-71.7689568,,,,human,true,
Daniel Peckham Lot,United States,Rhode Island,Washington County,Ashaway,Ashaway,,41.4337107,-71.7739569,,,,human,true,
David Greene Cemetery,United States,Rhode Island,Washington County,Congdon Hill (historical),Congdon Hill (historical),,41.5204863,-71.4847403,,,,human,true,
Dawley Lot,United States,Rhode Island,Washington County,Liberty,Liberty,,41.5500284,-71.5827414,,,,human,true,
Dawley-Straight Lot,United States,Rhode Island,Washington County,Tripps Corner,Tripps Corner,,41.5517672,-71.589785,,,,human,true,
Dawley Lot,United States,Rhode Island,Washington County,Liberty,Liberty,,41.552045,-71.5758956,,,,human,true,
Eleazer Slocum Lot,United States,Rhode Island,Washington County,Pine Hill,Pine Hill,,41.5998224,-71.6139527,,,,human,true,
Eldred Cemetery,United States,Rhode Island,Washington County,Shady Lea,Shady Lea,,41.535665,-71.4647781,,,,human,true,
Elias Lewis Lot,United States,Rhode Island,Washington County,South Hopkinton,South Hopkinton,,41.4329784,-71.7635815,,,,human,true,
Elezer Slocum Lot,United States,Rhode Island,Washington County,Pine Hill,Pine Hill,,41.5948224,-71.616175,,,,human,true,
Flagg Lane Cemetery,United States,Rhode Island,Washington County,Shady Lea,Shady Lea,,41.5359347,-71.4664467,,,,human,true,
Fones Palmer Lot,United States,Rhode Island,Washington County,Woodville,Woodville,,41.4598219,-71.7370118,,,,human,true,
Fones-Haszard Cemetery,United States,Rhode Island,Washington County,Congdon Hill (historical),Congdon Hill (historical),,41.5315886,-71.4855433,,,,human,true,
Foster-Spencer Lot,United States,Rhode Island,Washington County,Canonchet,Canonchet,,41.4837105,-71.7600685,,,,human,true,
Gardiner Lot,United States,Rhode Island,Washington County,Tripps Corner,Tripps Corner,,41.5520447,-71.6167304,,,,human,true,
Gardner Lot,United States,Rhode Island,Washington County,Liberty,Liberty,,41.548434,-71.5628395,,,,human,true,
George Babcock Lot,United States,Rhode Island,Washington County,Brudickville,Brudickville,,41.4298221,-71.7289553,,,,human,true,
Hall Cemetery,United States,Rhode Island,Washington County,Wickford,Wickford,,41.5869225,-71.4595769,,,,human,true,
Hall-Geer Lot,United States,Rhode Island,Washington County,Burdickville,Burdickville,,41.418126,-71.7317303,,,,human,true,
Hazard Sherman Lot,United States,Rhode Island,Washington County,Gardners Corner,Gardners Corner,,41.518397,-71.5461052,,,,human,true,
Henry Family Lot,United States,Rhode Island,Washington County,Slocum,Slocum,,41.5102303,-71.5252986,,,,human,true,
Henry Maryott Monument,United States,Rhode Island,Washington County,Rockville,Rockville,,41.5170228,-71.7613314,,,,human,true,
Hoxsie-Cayer Lot,United States,Rhode Island,Washington County,Alton,Alton,,41.4356385,-71.7237285,,,,human,true,
Huling Cemetery,United States,Rhode Island,Washington County,Cranstons Corner (historical),Cranstons Corner (historical),,41.5859012,-71.4994929,,,,human,true,
Indian Rock Cemetery,United States,Rhode Island,Washington County,Pine Hill,Pine Hill,,41.5938818,-71.6186843,,,,human,true,
James Lot,United States,Rhode Island,Washington County,Black Plain,Black Plain,,41.5773223,-71.6428425,,,,human,true,
Job Kenyon Lot,United States,Rhode Island,Kent County,Escoheag,Escoheag,,41.568155,-71.741735,,,,human,true,
Joseph Burdick Lot,United States,Rhode Island,Washington County,Burdickville,Burdickville,,41.417419,-71.732583,,,,human,true,
Larkin Lot,United States,Rhode Island,Washington County,Moscow,Moscow,,41.5355095,-71.7448491,,,,human,true,
Lawton Foster Lot,United States,Rhode Island,Washington County,Hopkinton,Hopkinton,,41.4775994,-71.759235,,,,human,true,
Lewis Lot,United States,Rhode Island,Washington County,Austin,Austin,,41.5886623,-71.664539,,,,human,true,
Lewis-Himes-Tillinghast Lot,United States,Rhode Island,Washington County,Lewis City,Lewis City,,41.5925194,-71.6913128,,,,human,true,
Lillibridge Burial Ground,United States,Rhode Island,Washington County,Pine Hill,Pine Hill,,41.591489,-71.6364535,,,,human,true,
Lillibridge Lot,United States,Rhode Island,Washington County,Lewis City,Lewis City,,41.5956552,-71.7045116,,,,human,true,
Lock Cemetery,United States,Rhode Island,Kent County,Escoheag,Escoheag,,41.5779622,-71.7731207,,,,human,true,
Lockwood Lot,United States,Rhode Island,Washington County,Pine Hill,Pine Hill,,41.5706558,-71.6233974,,,,human,true,
Mary Lewis Lot,United States,Rhode Island,Washington County,Hopkinton,Hopkinton,,41.4498217,-71.7786796,,,,human,true,
Murre Lot,United States,Rhode Island,Washington County,Canonchet,Canonchet,,41.483155,-71.7575685,,,,human,true,
Nathan Kinyon Lot,United States,Rhode Island,Washington County,Woodville,Woodville,,41.4486684,-71.7270043,,,,human,true,
Nathaniel Hall Lot,United States,Rhode Island,Washington County,Rockville,Rockville,,41.5164334,-71.7606621,,,,human,true,
Oatley Lot,United States,Rhode Island,Washington County,Hopkinton,Hopkinton,,41.4759326,-71.7875692,,,,human,true,
Palmer Family Lot,United States,Rhode Island,Washington County,Canonchet,Canonchet,,41.477044,-71.7286784,,,,human,true,
Perkins Lot,United States,Rhode Island,Washington County,Black Plain,Black Plain,,41.5731556,-71.6536763,,,,human,true,
Perkins Lot,United States,Rhode Island,Kent County,Escoheag,Escoheag,,41.591439,-71.7713557,,,,human,true,
Peter Davis Lot,United States,Rhode Island,Washington County,Ashaway,Ashaway,,41.4370033,-71.7660577,,,,human,true,
Potter Lot,United States,Rhode Island,Washington County,Liberty,Liberty,,41.5203786,-71.5622839,,,,human,true,
Potter Lot,United States,Rhode Island,Washington County,West Kingston,West Kingston,,41.5152172,-71.5467802,,,,human,true,
Preacher Smart Burial Yard,United States,Rhode Island,Washington County,Gardners Corner,Gardners Corner,,41.5444404,-71.5366064,,,,human,true,
Reverend Solomon Sprague Lot,United States,Rhode Island,Washington County,Liberty,Liberty,,41.5467673,-71.5820069,,,,human,true,
Reynolds Lot,United States,Rhode Island,Washington County,Exeter,Exeter,,41.5752947,-71.5501161,,,,human,true,
Richmond Family Lot,United States,Rhode Island,Kent County,Escoheag,Escoheag,,41.5717661,-71.7411795,,,,human,true,
Richmond Lot,United States,Rhode Island,Kent County,Escoheag,Escoheag,,41.5861105,-71.7662259,,,,human,true,
Robert Browning Lot,United States,Rhode Island,Washington County,Hope Valley,Hope Valley,,41.5133702,-71.7291947,,,,human,true,
Rose Cemetery,United States,Rhode Island,Washington County,Mooresfield,Mooresfield,,41.5017691,-71.5065536,,,,human,true,
Rose Lot,United States,Rhode Island,Washington County,Fisherville,Fisherville,,41.5906844,-71.5604401,,,,human,true,
Sarah Larkin Lot,United States,Rhode Island,Washington County,Hopkinton,Hopkinton,,41.4639882,-71.7870134,,,,human,true,
Sheldon Lot,United States,Rhode Island,Washington County,Millville,Millville,,41.5934331,-71.680344,,,,human,true,
Sherman Burial Ground,United States,Rhode Island,Washington County,Liberty,Liberty,,41.545934,-71.5600617,,,,human,true,
Sherman Cemetery,United States,Rhode Island,Washington County,Congdon Hill (historical),Congdon Hill (historical),,41.5099936,-71.4939702,,,,human,true,
Sherman Cemetery,United States,Rhode Island,Washington County,Mooresfield,Mooresfield,,41.5011803,-71.5057327,,,,human,true,
Sherman Lot,United States,Rhode Island,Washington County,Slocum,Slocum,,41.5142679,-71.5139487,,,,human,true,
Sherman-Shearman Cemetery,United States,Rhode Island,Washington County,Congdon Hill (historical),Congdon Hill (historical),,41.5166003,-71.4967581,,,,human,true,
Straight Lot,United States,Rhode Island,Washington County,Austin,Austin,,41.593377,-71.6574484,,,,human,true,
Sweet Lot,United States,Rhode Island,Washington County,Slocum,Slocum,,41.5398233,-71.5192268,,,,human,true,
Sweet-Austin Cemetery,United States,Rhode Island,Washington County,Congdon Hill (historical),Congdon Hill (historical),,41.5202119,-71.4712171,,http://rihistoriccemeteries.org/newsearchcemeterydetail.aspx?ceme_no=NK086,,human,true,
Sweet-Tripp Lot,United States,Rhode Island,Washington County,Gardners Corner,Gardners Corner,,41.5443915,-71.5377778,,,,human,true,
Taylor Cemetery,United States,Rhode Island,Washington County,Shady Lea,Shady Lea,,41.5370833,-71.4700217,,,,human,true,
Tennabt Cemetery,United States,Rhode Island,Washington County,Wickford,Wickford,,41.5709346,-71.4578354,,,,human,true,
Thomas Cemetery,United States,Rhode Island,Washington County,Lafayette,Lafayette,,41.5581855,-71.4874091,,,,human,true,
Thomas Wilbur Lot,United States,Rhode Island,Washington County,Ashaway,Ashaway,,41.429544,-71.7761792,,,,human,true,
Thomas Wilcox Lot,United States,Rhode Island,Washington County,Lewis City,Lewis City,,41.5864885,-71.7039559,,,,human,true,
Thompson Wells Lot,United States,Rhode Island,Washington County,Bethel,Bethel,,41.4375995,-71.787013,,,,human,true,
Tillinghast Lot,United States,Rhode Island,Washington County,Pine Hill,Pine Hill,,41.5815674,-71.6043572,,,,human,true,
Tripp Family Lott,United States,Rhode Island,Washington County,Tripps Corner,Tripps Corner,,41.5453783,-71.5947852,,,,human,true,
Watson Cemetery,United States,Rhode Island,Washington County,Slocum,Slocum,,41.530379,-71.4978371,,,,human,true,
Welling Cemetery,United States,Rhode Island,Kent County,Potowomut,Potowomut,,41.6523234,-71.4178337,,,,human,true,
Wells Lot,United States,Rhode Island,Washington County,Bethel,Bethel,,41.4431777,-71.7885239,,,,human,true,
Whitford Lot,United States,Rhode Island,Washington County,Pine Hill,Pine Hill,,41.5776003,-71.6033967,,,,human,true,
Wilbur Lot,United States,Rhode Island,Washington County,Hopkinton,Hopkinton,,41.4492663,-71.7514565,,,,human,true,
Wilcox Lot,United States,Rhode Island,Washington County,Tripps Corner,Tripps Corner,,41.5403858,-71.5876493,,,,human,true,
Wilcox-Durfee Lot,United States,Rhode Island,Washington County,Glen Rock,Glen Rock,,41.5279705,-71.5926637,,,,human,true,
Willcox Lot,United States,Rhode Island,Washington County,Tripps Corner,Tripps Corner,,41.5409338,-71.595063,,,,human,true,
Willcox-Tate Lot,United States,Rhode Island,Washington County,Millville,Millville,,41.5912109,-71.6797884,,,,human,true,
Witter Lot,United States,Rhode Island,Washington County,South Hopkinton,South Hopkinton,,41.4378775,-71.7522897,,,,human,true,
Worden Lot,United States,Rhode Island,Washington County,Canonchet,Canonchet,,41.4789885,-71.7370121,,,,human,true,
Woodmansee Lot,United States,Rhode Island,Washington County,Wyoming,Wyoming,,41.5251616,-71.7022041,,,,human,true,
Nathaniel Cook Lot,United States,Rhode Island,Washington County,South Hopkinton,South Hopkinton,,41.4155952,-71.7509961,,,,human,true,
Chafee Lot,United States,Rhode Island,Kent County,Potowomut,Potowomut,,41.6529145,-71.4377974,,,,human,true,
Covill Lot,United States,Rhode Island,Kent County,Greenwood,Greenwood,,41.7191017,-71.452515,,,,human,true,
David Bennett Lot,United States,Rhode Island,Kent County,Cowesett,Cowesett,,41.6806563,-71.4800591,,,,human,true,
Capron-Bailey Lot,United States,Rhode Island,Kent County,Shippee Corner,Shippee Corner,,41.6446797,-71.5318912,,,,human,true,
Thomas Brayton Lot,United States,Rhode Island,Kent County,Shippee Corner,Shippee Corner,,41.6384496,-71.5220828,,,,human,true,
Spencer Shippee Lot,United States,Rhode Island,Kent County,Moosehorn Corner,Moosehorn Corner,,41.656741,-71.5381224,,,,human,true,
Cornelius Clark Lot,United States,Rhode Island,Kent County,Wightmans Corner,Wightmans Corner,,41.6026007,-71.5422835,,,,human,true,
Governor Green Lot,United States,Rhode Island,Kent County,East Greenwich,East Greenwich,,41.6661489,-71.4595014,,,,human,true,
John H Holden Lot,United States,Rhode Island,Kent County,Apponaug,Apponaug,,41.7090511,-71.463451,,,,human,true,
Marble Lot,United States,Rhode Island,Kent County,Nausauket,Nausauket,,41.6908678,-71.4365015,,,,human,true,
Reverend Sameul Littlefield Lot,United States,Rhode Island,Kent County,Wildes Corner,Wildes Corner,,41.7158146,-71.4236691,,,,human,true,
Rice Burial Yard,United States,Rhode Island,Kent County,East Natick,East Natick,,41.7205294,-71.4748756,,,,human,true,
Spring Greene Burial Ground,United States,Rhode Island,Kent County,Coles,Coles,,41.7367677,-71.3911659,,,,human,true,
Hopkins Cemetery,United States,Rhode Island,Providence County,Foster Center,Foster Center,,41.7535781,-71.7308751,,,,human,true,
Weaver Family Lot,United States,Rhode Island,Kent County,Bartons Corner,Bartons Corner,,41.6616471,-71.4930123,,,,human,true,
Andrews Lot,United States,Rhode Island,Kent County,Frys Corner,Frys Corner,,41.6458937,-71.4977547,,,,human,true,
Sprague Cemetery,United States,Rhode Island,Providence County,Wescott Beach,Wescott Beach,,41.90309,-71.6987742,,,,human,true,
Major William Taggary Cemetery,United States,Rhode Island,Newport County,Sachuest,Sachuest,,41.5051947,-71.2428913,,http://rihistoriccemeteries.org/newsearchcemeterydetail.aspx?ceme_no=MT055,,human,true,
Pocock Cemetery,United States,Rhode Island,Washington County,New Shoreham,Dickens Lane,,41.1570376,-71.5966126,,http://rihistoriccemeteries.org/newsearchcemeterydetail.aspx?ceme_no=BI004,,human,true,
United Congregational Churchyard,United States,Rhode Island,Newport County,Newport,Newport,,41.4856595,-71.3127553,,http://rihistoriccemeteries.org/newsearchcemeterydetail.aspx?ceme_no=NT012,,human,true,
Richard Card Lot,United States,Rhode Island,Newport County,Newport East,Newport East,,41.5078888,-71.2934348,,http://rihistoriccemeteries.org/newsearchcemeterydetail.aspx?ceme_no=MT012,,human,true,
Boston Neck Cemetery,United States,Rhode Island,Washington County,Saunderstown,Saunderstown,,41.5032685,-71.4356724,,http://rihistoriccemeteries.org/newsearchcemeterydetail.aspx?ceme_no=NG012,,human,true,
Timothy Collins Lot,United States,Rhode Island,Washington County,South Ferry,South Ferry,,41.4955088,-71.4245762,,http://rihistoriccemeteries.org/newsearchcemeterydetail.aspx?ceme_no=NG014,,human,true,
John Watson Lot,United States,Rhode Island,Washington County,Indian Lake Shores,Indian Lake Shores,,41.4766017,-71.4528861,,http://rihistoriccemeteries.org/newsearchcemeterydetail.aspx?ceme_no=SK088,,human,true,
Jeremiah Brown Lot,United States,Rhode Island,Washington County,Bridgetown,Bridgetown,,41.4842975,-71.4519763,,http://rihistoriccemeteries.org/newsearchcemeterydetail.aspx?ceme_no=SK103,,human,true,
George W Crandall Lot,United States,Rhode Island,Washington County,Bridgetown,Bridgetown,,41.4862957,-71.448959,,http://rihistoriccemeteries.org/newsearchcemeterydetail.aspx?ceme_no=SK108,,human,true,
William C Gardner Lot,United States,Rhode Island,Washington County,Bridgetown,Bridgetown,,41.4896291,-71.4484457,,http://rihistoriccemeteries.org/newsearchcemeterydetail.aspx?ceme_no=SK068,,human,true,
Ward and Perry Lot,United States,Rhode Island,Washington County,Charlestown Beach,Charlestown Beach,,41.3758374,-71.6308372,,http://rihistoriccemeteries.org/newsearchcemeterydetail.aspx?ceme_no=CH052,,human,true,
Deacon William Taggart Lot,United States,Rhode Island,Newport County,Middletown,Middletown,,41.5458312,-71.2925949,,http://rihistoriccemeteries.org/newsearchcemeterydetail.aspx?ceme_no=MT033,,human,true,
Jonathan Gibbs Lot,United States,Rhode Island,Newport County,Middletown,Middletown,,41.556583,-71.2851551,,http://rihistoriccemeteries.org/newsearchcemeterydetail.aspx?ceme_no=PO040,,human,true,
Brightman Stone,United States,Rhode Island,Newport County,Middletown,Middletown,,41.5553911,-71.2803452,,,,human,true,
Lawton Orchard Lot,United States,Rhode Island,Newport County,Middletown,Middletown,,41.5603524,-71.2819652,,http://rihistoriccemeteries.org/newsearchcemeterydetail.aspx?ceme_no=PO056,,human,true,
Town Farm Lot,United States,Rhode Island,Newport County,Melville,Melville,,41.5709608,-71.2847292,,http://rihistoriccemeteries.org/newsearchcemeterydetail.aspx?ceme_no=PO019,,human,true,
White Family Burying Ground,United States,Rhode Island,Newport County,Little Compton,Little Compton,,41.5143466,-71.1951324,,http://rihistoriccemeteries.org/newsearchcemeterydetail.aspx?ceme_no=LC050,,human,true,
Deacon Benjamin Hambly Lot,United States,Rhode Island,Newport County,North Tiverton,North Tiverton,,41.6579729,-71.1830689,,http://rihistoriccemeteries.org/newsearchcemeterydetail.aspx?ceme_no=TV057,,human,true,
Edward Bailey Lot,United States,Rhode Island,Newport County,North Tiverton,North Tiverton,,41.6595201,-71.1813259,,http://rihistoriccemeteries.org/newsearchcemeterydetail.aspx?ceme_no=TV060,,human,true,
William Sherman Lot,United States,Rhode Island,Newport County,North Tiverton,North Tiverton,,41.6594139,-71.1797001,,http://rihistoriccemeteries.org/newsearchcemeterydetail.aspx?ceme_no=TV059,,human,true,
Stephene Stafford Lot,United States,Rhode Island,Newport County,Eagleville,Eagleville,,41.6565226,-71.1627787,,http://rihistoriccemeteries.org/newsearchcemeterydetail.aspx?ceme_no=TV073,,human,true,
Captain Nathan Munro Junior Lot,United States,Rhode Island,Bristol County,Laurel Park,Laurel Park,,41.7233101,-71.2661334,,http://rihistoriccemeteries.org/newsearchcemeterydetail.aspx?ceme_no=WR013,,human,true,
Greene Family Cemetery,United States,Rhode Island,Newport County,Pottersville,Pottersville,,41.5406253,-71.1520652,,http://rihistoriccemeteries.org/newsearchcemeterydetail.aspx?ceme_no=LC044,,human,true,
Samuel Church Lot,United States,Rhode Island,Newport County,Adamsville,Adamsville,,41.5531871,-71.1269505,,http://rihistoriccemeteries.org/newsearchcemeterydetail.aspx?ceme_no=LC048,,human,true,
Gifford Lot South,United States,Rhode Island,Newport County,Adamsville,Adamsville,,41.552156,-71.1285385,,http://rihistoriccemeteries.org/newsearchcemeterydetail.aspx?ceme_no=LC032,,human,true,
Joseph Gifford Lot,United States,Rhode Island,Newport County,Adamsville,Adamsville,,41.5526321,-71.1287915,,http://rihistoriccemeteries.org/newsearchcemeterydetail.aspx?ceme_no=LC031,,human,true,
William Durfee Cemetery,United States,Rhode Island,Newport County,Eagleville,Eagleville,,41.6510424,-71.1409527,,http://rihistoriccemeteries.org/newsearchcemeterydetail.aspx?ceme_no=TV071,,human,true,
Stone Church Cemetery,United States,Rhode Island,Newport County,Adamsville,Adamsville,,41.56126,-71.144311,,http://rihistoriccemeteries.org/newsearchcemeterydetail.aspx?ceme_no=TV008,,human,true,
John Walker Lot,United States,Rhode Island,Bristol County,Bristol,Bristol,,41.6628316,-71.2703027,,http://rihistoriccemeteries.org/newsearchcemeterydetail.aspx?ceme_no=BR006,,human,true,
Nathaniel Shaw Lot,United States,Rhode Island,Newport County,Bliss Corners,Bliss Corners,,41.6005615,-71.1436631,,http://rihistoriccemeteries.org/newsearchcemeterydetail.aspx?ceme_no=TV015,,human,true,
Tiverton Cemetery 84,United States,Rhode Island,Newport County,Bliss Corners,Bliss Corners,,41.5990819,-71.1437957,,http://rihistoriccemeteries.org/newsearchcemeterydetail.aspx?ceme_no=TV084,,human,true,
Lake Cemetery,United States,Rhode Island,Newport County,Tiverton Four Corners,Tiverton Four Corners,,41.5836229,-71.162193,,http://rihistoriccemeteries.org/newsearchcemeterydetail.aspx?ceme_no=TV053,,human,true,
Constant Seabury Burying Ground,United States,Rhode Island,Newport County,Tiverton Four Corners,Tiverton Four Corners,,41.5481095,-71.1929106,,http://rihistoriccemeteries.org/newsearchcemeterydetail.aspx?ceme_no=LC040,,human,true,
Crawford Snell Cemetery,United States,Rhode Island,Newport County,Grayville,Grayville,,41.5963718,-71.1644341,,http://rihistoriccemeteries.org/newsearchcemeterydetail.aspx?ceme_no=TV032,,human,true,
Philip Gray Lot,United States,Rhode Island,Newport County,Grayville,Grayville,,41.5818068,-71.1905018,,http://rihistoriccemeteries.org/newsearchcemeterydetail.aspx?ceme_no=TV021,,human,true,
Town Farm Burial Ground,United States,Rhode Island,Newport County,Grayville,Grayville,,41.5821524,-71.1856058,,http://rihistoriccemeteries.org/newsearchcemeterydetail.aspx?ceme_no=TV081,,human,true,
George Seabury Lot,United States,Rhode Island,Newport County,Tiverton Four Corners,Tiverton Four Corners,,41.5499377,-71.1933436,,http://rihistoriccemeteries.org/newsearchcemeterydetail.aspx?ceme_no=TV029,,human,true,
Gardner Groves Lot,United States,Rhode Island,Newport County,Bliss Corners,Bliss Corners,,41.6075949,-71.1655785,,http://rihistoriccemeteries.org/newsearchcemeterydetail.aspx?ceme_no=TV013,,human,true,
Gideon Grinnel Lot,United States,Rhode Island,Newport County,Bliss Corners,Bliss Corners,,41.6272451,-71.1728674,,http://rihistoriccemeteries.org/newsearchcemeterydetail.aspx?ceme_no=TV038,,human,true,
Town Cemetery,United States,Rhode Island,Newport County,Tiverton,Tiverton,,41.6252624,-71.2080986,,http://rihistoriccemeteries.org/newsearchcemeterydetail.aspx?ceme_no=TV047,,human,true,
George Howland Lot,United States,Rhode Island,Newport County,Bridgeport (historical),Bridgeport (historical),,41.6206586,-71.2087538,,http://rihistoriccemeteries.org/newsearchcemeterydetail.aspx?ceme_no=TV077,,human,true,
Colonel Thomas Gray Lot,United States,Rhode Island,Newport County,Bridgeport (historical),Bridgeport (historical),,41.6205956,-71.2061647,,http://rihistoriccemeteries.org/newsearchcemeterydetail.aspx?ceme_no=TV076,,human,true,
William Anthony Lot,United States,Rhode Island,Newport County,Pocasset Heights,Pocasset Heights,,41.6326382,-71.2507117,,http://rihistoriccemeteries.org/newsearchcemeterydetail.aspx?ceme_no=PO051,,human,true,
Mccurrie Lot,United States,Rhode Island,Newport County,Portsmouth Park,Portsmouth Park,,41.6194266,-71.2487608,,http://rihistoriccemeteries.org/newsearchcemeterydetail.aspx?ceme_no=PO054,,human,true,
Thomas Brownell Lot,United States,Rhode Island,Newport County,Bristol Ferry,Bristol Ferry,,41.6193963,-71.263168,,http://rihistoriccemeteries.org/newsearchcemeterydetail.aspx?ceme_no=PO050,,human,true,
George Brownell Lot,United States,Rhode Island,Newport County,Bristol Ferry,Bristol Ferry,02871,41.6194809,-71.2677899,,http://rihistoriccemeteries.org/newsearchcemeterydetail.aspx?ceme_no=PO005,,human,true,
Freeborn Cemetery,United States,Rhode Island,Newport County,Portsmouth,Portsmouth,,41.6079625,-71.2702126,,http://rihistoriccemeteries.org/newsearchcemeterydetail.aspx?ceme_no=PO037,,human,true,
David Albro Lot,United States,Rhode Island,Newport County,South Portsmouth,South Portsmouth,,41.5365314,-71.2629823,,http://rihistoriccemeteries.org/newsearchcemeterydetail.aspx?ceme_no=PO026,,human,true,
Thomas Coggeshall Lot,United States,Rhode Island,Newport County,South Portsmouth,South Portsmouth,,41.5214486,-71.2494106,,http://rihistoriccemeteries.org/newsearchcemeterydetail.aspx?ceme_no=MT051,,human,true,
Almy Ground,United States,Rhode Island,Newport County,South Portsmouth,South Portsmouth,,41.5309372,-71.2407472,,http://rihistoriccemeteries.org/newsearchcemeterydetail.aspx?ceme_no=PO057,,human,true,
Darius Dennis Lot,United States,Rhode Island,Newport County,South Portsmouth,South Portsmouth,,41.5240727,-71.2419488,,http://rihistoriccemeteries.org/newsearchcemeterydetail.aspx?ceme_no=PO029,,human,true,
John Wood Lot,United States,Rhode Island,Newport County,South Portsmouth,South Portsmouth,,41.5226914,-71.2542574,,http://rihistoriccemeteries.org/newsearchcemeterydetail.aspx?ceme_no=MT046,,human,true,
John Peabody Lot,United States,Rhode Island,Newport County,Whitehall,Whitehall,,41.5100843,-71.2543213,,http://rihistoriccemeteries.org/newsearchcemeterydetail.aspx?ceme_no=MT026,,human,true,
Chase and Cory lot,United States,Rhode Island,Newport County,Portsmouth,Portsmouth,,41.6058783,-71.258831,,http://rihistoriccemeteries.org/newsearchcemeterydetail.aspx?ceme_no=PO042,,human,true,
Hessian's Hole,United States,Rhode Island,Newport County,Portsmouth,Portsmouth,,41.603767,-71.2614235,,http://rihistoriccemeteries.org/newsearchcemeterydetail.aspx?ceme_no=PO053,,human,true,
Almy-Reynolds Lot,United States,Rhode Island,Newport County,Portsmouth,Portsmouth,,41.5805137,-71.2480326,,http://rihistoriccemeteries.org/newsearchcemeterydetail.aspx?ceme_no=PO014,,human,true,
Place-Boyd Lot,United States,Rhode Island,Newport County,Melville,Melville,,41.5778554,-71.2699657,,http://rihistoriccemeteries.org/newsearchcemeterydetail.aspx?ceme_no=PO045,,human,true,
Thomas Potter Lot,United States,Rhode Island,Newport County,South Portsmouth,South Portsmouth,,41.5574839,-71.2640999,,http://rihistoriccemeteries.org/newsearchcemeterydetail.aspx?ceme_no=PO032,,human,true,
Giles Slocum Lot,United States,Rhode Island,Newport County,South Portsmouth,South Portsmouth,,41.5572019,-71.2456014,,http://rihistoriccemeteries.org/newsearchcemeterydetail.aspx?ceme_no=PO055,,human,true,
John Cook Jr Lot,United States,Rhode Island,Newport County,South Portsmouth,South Portsmouth,,41.5616481,-71.2486064,,http://rihistoriccemeteries.org/newsearchcemeterydetail.aspx?ceme_no=PO044,,human,true,
Doctor Peter Wales Lot,United States,Rhode Island,Newport County,South Portsmouth,South Portsmouth,,41.5623262,-71.2521858,,http://rihistoriccemeteries.org/newsearchcemeterydetail.aspx?ceme_no=PO035,,human,true,
Captain John Pendleton Ground,United States,Rhode Island,Washington County,Avondale,Avondale,,41.328508,-71.8465059,,http://rihistoriccemeteries.org/newsearchcemeterydetail.aspx?ceme_no=WY041,,human,true,
George Sheffield Lot,United States,Rhode Island,Washington County,Avondale,Avondale,,41.3283011,-71.8325995,,http://rihistoriccemeteries.org/newsearchcemeterydetail.aspx?ceme_no=WY006,,human,true,
Joshua Barber Ground,United States,Rhode Island,Washington County,Avondale,Avondale,,41.350592,-71.8193216,,http://rihistoriccemeteries.org/newsearchcemeterydetail.aspx?ceme_no=WY065,,human,true,
Dunham Ground,United States,Rhode Island,Washington County,Avondale,Avondale,,41.3536246,-71.8194072,,http://rihistoriccemeteries.org/newsearchcemeterydetail.aspx?ceme_no=WY063,,human,true,
Phetteplace-Smith Lot,United States,Rhode Island,Providence County,Tarkiln,Tarkiln,,41.9369122,-71.6171273,,,,human,true,
Smith Lot,United States,Rhode Island,Providence County,Tarkiln,Tarkiln,,41.9428454,-71.6034402,,,,human,true,
Henry N Smith Lot,United States,Rhode Island,Providence County,Tarkiln,Tarkiln,,41.9440398,-71.601992,,,,human,true,
Inman-Joslin Lot,United States,Rhode Island,Providence County,Glendale,Glendale,,41.9833933,-71.6335361,,,,human,true,
Buffum Lot,United States,Rhode Island,Providence County,Glendale,Glendale,,41.9865867,-71.6377155,,,,human,true,
John White Lot,United States,Rhode Island,Providence County,Mohegan,Mohegan,,41.9862165,-71.6290844,,,,human,true,
Taft Lot,United States,Rhode Island,Providence County,Whipple,Whipple,,41.9911344,-71.6568555,,,,human,true,
Mathewson-Ross Lot,United States,Rhode Island,Providence County,Pascoag,Pascoag,,41.9432619,-71.6888555,,,,human,true,
Ishmael Sayles Lot,United States,Rhode Island,Providence County,Huntsville (historical),Huntsville (historical),,41.9640846,-71.7428302,,,,human,true,
Howard Lot,United States,Rhode Island,Providence County,Huntsville (historical),Huntsville (historical),,41.959739,-71.7492869,,,,human,true,
Angell Lot,United States,Rhode Island,Providence County,Huntsville (historical),Huntsville (historical),,41.9638691,-71.7331604,,,,human,true,
Stephen Whipple Lot,United States,Rhode Island,Providence County,Gazzaville,Gazzaville,,41.9360102,-71.6505237,,,,human,true,
John Smith Lot,United States,Rhode Island,Providence County,Tarkiln,Tarkiln,,41.9528978,-71.6051815,,,,human,true,
Walter Phetteplace Lot,United States,Rhode Island,Providence County,Tarkiln,Tarkiln,,41.9490848,-71.5987706,,,,human,true,
Asael Keach Lot,United States,Rhode Island,Providence County,Whipple,Whipple,,41.9586255,-71.6551614,,,,human,true,
Exeter Historical Cemetery Number 182,United States,Rhode Island,Washington County,Lewis City,Lewis City,,41.5763554,-71.7138976,,,,human,true,
Paine Cemetery,United States,Rhode Island,Providence County,Abbott Run,Abbott Run,,41.9529316,-71.3736686,,,,human,true,
Hebrew Cemetery,United States,Rhode Island,Newport County,Eagleville,Eagleville,,41.670113,-71.1631976,,,,human,true,
North Burial Ground,United States,Rhode Island,Bristol County,Bristol Highlands,Bristol Highlands,,41.6886693,-71.2822272,,http://rihistoriccemeteries.org/newsearchcemeterydetail.aspx?ceme_no=BR001,,human,true,
Gate of Heaven Cemetery,United States,Rhode Island,Providence County,Luthers Corners,Luthers Corners,,41.7932179,-71.3415356,,,,human,true,
Saint Mary's Cemetery,United States,Rhode Island,Bristol County,Bristol Township,Bristol Township,,41.6854745,-71.2725317,,,,human,true,
North Burial Ground,United States,Rhode Island,Providence County,Woodlawn,Woodlawn,,41.847903,-71.4073082,,,,human,true,
Lincoln Park Cemetery,United States,Rhode Island,Kent County,Lincoln Park,Lincoln Park,,41.7431184,-71.4343211,,,,human,true,
Hunt Cemetery,United States,Rhode Island,Providence County,East Providence Center,East Providence Center,,41.8388789,-71.3506808,,http://rihistoriccemeteries.org/newsearchcemeterydetail.aspx?ceme_no=EP008,,human,true,
Mount Saint Marys Cemetery,United States,Rhode Island,Providence County,Phillipsdale,Phillipsdale,,41.856922,-71.3665098,,http://rihistoriccemeteries.org/newsearchcemeterydetail.aspx?ceme_no=PW002,,human,true,
Riverside Cemetery,United States,Rhode Island,Washington County,Wakefield-Peacedale,Wakefield-Peacedale,,41.4432769,-71.4986872,,,,human,true,
Elm Grove Cemetery,United States,Rhode Island,Washington County,North Kingstown,North Kingstown,,41.5508569,-71.4648239,,,,human,true,
Union Cemetery,United States,Rhode Island,Washington County,White Rock,White Rock,,41.4273158,-71.8452328,,,,human,true,
Saint Michael Cemetery,United States,Rhode Island,Washington County,White Rock,White Rock,,41.3893205,-71.8370028,,,,human,true,
Locust Grove Cemetery,United States,Rhode Island,Providence County,Elmwood,Elmwood,,41.8002934,-71.4250783,,,,human,true,
Little Neck Cemetery,United States,Rhode Island,Providence County,Kent Corner,Kent Corner,,41.7663883,-71.3539126,,,,human,true,
Saint Patricks Cemetery,United States,Rhode Island,Providence County,Providence,Providence,,41.8392349,-71.4237797,,,,human,true,
St. Ann's Cemetery,United States,Rhode Island,Providence County,Thornton,Thornton,,41.7956814,-71.4654381,,,,human,true,
Saint Pauls All Saints Cemetery,United States,Rhode Island,Kent County,Pontiac,Pontiac,,41.7224772,-71.4687549,,,,human,true,
Harrington Cemetery,United States,Rhode Island,Providence County,Williams Mill,Williams Mill,,41.8886002,-71.8136606,,,,human,true,
Davis Cemetery,United States,Rhode Island,Washington County,Avondale,Avondale,,41.337859,-71.8422881,,,,human,true,
Cemetery (East Of Green Haven Road),United States,Rhode Island,Washington County,Avondale,Avondale,,41.3451507,-71.8333329,,,,human,true,
Cemetery (Pequot Trail),United States,Rhode Island,Washington County,White Rock,White Rock,,41.3840261,-71.8625963,,,,human,true,
Ella J Wheeler Cemetery,United States,Rhode Island,Washington County,White Rock,White Rock,,41.3951755,-71.8455397,,,,human,true,
Cemetery (West Of North Anguilla Road),United States,Rhode Island,Washington County,White Rock,White Rock,,41.4012331,-71.8713257,,,,human,true,
Cemetery (East Of Ella Wheeler Road),United States,Rhode Island,Washington County,White Rock,White Rock,,41.4174522,-71.8334979,,,,human,true,
Douglas Cemetery,United States,Rhode Island,Kent County,Escoheag,Escoheag,,41.5692439,-71.7935806,,,,human,true,
Historical Cemetery,United States,Rhode Island,Kent County,Westcott,Westcott,,41.700901,-71.4969866,,,,human,true,
Braman Cemetery,United States,Rhode Island,Newport County,Newport,Newport,,41.4958203,-71.3172794,,http://rihistoriccemeteries.org/newsearchcemeterydetail.aspx?ceme_no=NT004,,human,true,
Common Ground Cemetery,United States,Rhode Island,Newport County,Newport,Newport,,41.4956984,-71.3153557,,http://rihistoriccemeteries.org/newsearchcemeterydetail.aspx?ceme_no=NT003,,human,true,
Island Cemetery,United States,Rhode Island,Newport County,Newport,Newport,,41.4972981,-71.3149099,,http://rihistoriccemeteries.org/newsearchcemeterydetail.aspx?ceme_no=NT001,,human,true,
Saint Mary's Cemetery,United States,Rhode Island,Newport County,Newport,Newport,,41.4969528,-71.312854,,http://rihistoriccemeteries.org/newsearchcemeterydetail.aspx?ceme_no=NT006,,human,true,
Saint Basil Cemetery,United States,Rhode Island,Providence County,Cumberland Mills,Cumberland Mills,,41.9192861,-71.3842547,,,,human,true,
Glenwood Cemetery,United States,RI,Kent County,East Greenwich,316 Cedar Avenue,02818,41.6545072,-71.4658151,,,+1-401-884-0866,human,true,
Rhode Island Veterans Memorial Cemetery,United States,Rhode Island,Washington County,Gardners Corner,Gardners Corner,,41.5449978,-71.5438981,,,,human,true,
Highland Memorial Park,United States,Rhode Island,Providence County,Greystone,Greystone,,41.8559219,-71.4959867,,,,human,true,
Quidnessett Cemetery,United States,Rhode Island,Washington County,Quidnessett,Quidnessett,,41.6247726,-71.462103,,,,human,true,
Grace Church Cemetery,United States,Rhode Island,Providence County,Christian Hill,Christian Hill,,41.8113329,-71.4224716,,https://www.gracechurchprovidence.org,,human,true,
Oakland Cemetery,United States,Rhode Island,Providence County,Edgewood,Edgewood,,41.7840675,-71.4028385,,,,human,true,
Oak Grove Cemetery,United States,Rhode Island,Providence County,Darlington,Darlington,,41.8837332,-71.3689118,,http://rihistoriccemeteries.org/newsearchcemeterydetail.aspx?ceme_no=PW005,,human,true,
New Pawtuxet Cemetery,United States,Rhode Island,Kent County,Pawtuxet,Pawtuxet,,41.7538953,-71.3968318,,,,human,true,
Princes Hill Cemetery,United States,Rhode Island,Bristol County,Barrington,Barrington,,41.7418289,-71.3091455,,,,human,true,
Pocasset Hill Cemetery,United States,Rhode Island,Newport County,North Tiverton,North Tiverton,,41.6555912,-71.1921703,,http://rihistoriccemeteries.org/newsearchcemeterydetail.aspx?ceme_no=TV001,,human,true,
Santa Maria del Campo Cemetery,United States,Rhode Island,Bristol County,West Barrington,West Barrington,,41.7420047,-71.326831,,,,human,true,
Rockville Cemetery,United States,Rhode Island,Washington County,Rockville,Rockville,,41.5168065,-71.7609033,,,,human,true,
Saint Columba's Cemetery,United States,Rhode Island,Newport County,Lawtons,Lawtons,,41.5456142,-71.304876,,http://rihistoriccemeteries.org/newsearchcemeterydetail.aspx?ceme_no=MT004,,human,true,
Saint Joseph's Cemetery,United States,Rhode Island,Kent County,Arctic,Arctic,,41.7082448,-71.5301936,,,,human,true,
Swan Point Cemetery,United States,Rhode Island,Providence County,Phillipsdale,Phillipsdale,,41.8523596,-71.3836627,,,,human,true,
Riverside Cemetery,United States,Rhode Island,Providence County,Woodlawn,Woodlawn,,41.8594411,-71.381529,,,,human,true,
Williams Family Cemetery,United States,Rhode Island,Providence County,Washington Park,Washington Park,,41.7833947,-71.4183849,,,,human,true,
Lakeside Cemetery,United States,Rhode Island,Providence County,Rumford,Rumford,,41.8420617,-71.3510454,,http://rihistoriccemeteries.org/newsearchcemeterydetail.aspx?ceme_no=EP007,,human,true,
Congregational Sons of Israel Cemetery,United States,Rhode Island,Providence County,Cranston,Cranston,,41.7876708,-71.4336762,,,,human,true,
Notre Dame Cemetery,United States,Rhode Island,Kent County,River Point,River Point,,41.7286347,-71.5150422,,,,human,true,
Saint Mary's Cemetery,United States,Rhode Island,Kent County,Crompton,Crompton,,41.6866948,-71.5183105,,,,human,true,
Saint Philips Episcopal Cemetery,United States,Rhode Island,Kent County,Centerville,Centerville,,41.6889512,-71.5211324,,,,human,true,
Pine Grove Cemetery,United States,Rhode Island,Washington County,Locustville,Locustville,,41.5139629,-71.7112882,,,,human,true,
White Brook Cemetery,United States,Rhode Island,Washington County,Carolina,Carolina,,41.4673696,-71.6728889,,,,human,true,
Jamestown Town Cemetery,United States,Rhode Island,Newport County,Jamestown,Jamestown,,41.4965906,-71.374248,,,,human,true,
Saint Josephs Cemetery,United States,Rhode Island,Providence County,Berkeley,Berkeley,,41.9264864,-71.418956,,,,human,true,
Holy Ghost Cemetery,United States,Rhode Island,Providence County,Rumford,Rumford,,41.8543076,-71.3365788,,,,human,true,
Newman Avenue Cemetery,United States,Rhode Island,Providence County,Rumford,Rumford,,41.8587411,-71.330597,,,,human,true,
Greenwood Cemetery,United States,Rhode Island,Kent County,Phenix,Phenix,,41.7147047,-71.5367695,,,,human,true,
Union Cemetery,United States,Rhode Island,Providence County,Globe,Globe,,41.9879451,-71.5289859,,,,human,true,
Lawton Cemetery,United States,Rhode Island,Washington County,Cranstons Corner (historical),Cranstons Corner (historical),,41.5795756,-71.5098514,,,,human,true,
Old Baptist Meetinghouse Yard,United States,Rhode Island,Washington County,Cranstons Corner (historical),Cranstons Corner (historical),,41.5929906,-71.4909781,,,,human,true,
Mineral Spring Cemetery,United States,Rhode Island,Providence County,Pawtucket,Pawtucket,,41.8763642,-71.3927471,,,,human,true,
Moshassuck Cemetery,United States,Rhode Island,Providence County,Sayles Bleachery,Sayles Bleachery,,41.8908002,-71.4049462,,,,human,true,
Saint Anns Cemetery,United States,Rhode Island,Providence County,Pawtucket,Pawtucket,,41.8717194,-71.3884585,,,,human,true,
Saint Francis Cemetery,United States,Rhode Island,Providence County,Woodlawn,Woodlawn,,41.8633911,-71.4086121,,,,human,true,
Walnut Hill Cemetery,United States,Rhode Island,Providence County,Darlington,Darlington,,41.8812944,-71.3687941,,http://rihistoriccemeteries.org/newsearchcemeterydetail.aspx?ceme_no=PW004,,human,true,
Notre Dame Cemetery,United States,Rhode Island,Newport County,Eagleville,Eagleville,,41.6661218,-71.1444898,,,,human,true,
East Greenwich Cemetery,United States,RI,Kent County,East Greenwich,100 First Avenue,02818,41.6560869,-71.4572495,,,,human,true,
Rhode Island Historical Cemetery Lincoln 30,United States,Rhode Island,Providence County,Manville,Manville,,41.9665715,-71.4809429,,,,human,true,
Samuel Stone Family Historical Cemetery,United States,Rhode Island,Providence County,Sockanosset,Sockanosset,,41.7489626,-71.4672993,,http://www.rihistoriccemeteries.org/newsearchcemeterydetail.aspx?ceme_no=CR028,,human,true,
Saints Peter and Paul Cemetary,United States,Rhode Island,Kent County,Phenix,Phenix,,41.7195867,-71.5375771,,,,human,true,
Noyes Family Cemetery,United States,Rhode Island,Washington County,Kingston,Kingston,,41.4877193,-71.5073151,,,,human,true,
Gardner Lot,United States,Rhode Island,Washington County,Fisherville,Fisherville,,41.5850626,-71.5749536,,,,human,true,
Saint Joseph Cemetery,United States,Rhode Island,Kent County,Nooseneck,Nooseneck,,41.6086303,-71.6418437,,,,human,true,
Brayton Cemetery,United States,Rhode Island,Kent County,Apponaug,Apponaug,,41.6950295,-71.4568609,,,,human,true,
Gorton Lot,United States,Rhode Island,Kent County,Wildes Corner,Wildes Corner,,41.7011375,-71.4300575,,,,human,true,
Island Cemetery,United States,Rhode Island,Washington County,Block Island,Block Island,,41.1791019,-71.5816773,,http://rihistoriccemeteries.org/newsearchcemeterydetail.aspx?ceme_no=BI001,,human,true,
Portsmouth Cemetery,United States,Rhode Island,Newport County,Portsmouth,Portsmouth,,41.605692,-71.2514051,,http://rihistoriccemeteries.org/newsearchcemeterydetail.aspx?ceme_no=PO007,,human,true,
Pascoag Cemetery,United States,Rhode Island,Providence County,Bridgeton,Bridgeton,,41.9621749,-71.6991999,,,,human,true,
St. Patrick's Cemetery,United States,Rhode Island,Providence County,Pascoag,Pascoag,,41.961984,-71.6970653,,,,human,true,
St. Patrick's Cemetery,United States,Rhode Island,Providence County,Bridgeton,Bridgeton,,41.9677281,-71.6929276,,,,human,true,
Governors Graveyard,United States,Rhode Island,Newport County,Newport,Newport,,41.4935146,-71.3137256,,http://rihistoriccemeteries.org/newsearchcemeterydetail.aspx?ceme_no=NT008,,human,true,
Rogers Lot,United States,Rhode Island,Kent County,Bartons Corner,Bartons Corner,,41.6768135,-71.4917235,,,,human,true,
Smithfield Cemetery,United States,Rhode Island,Providence County,North Scituate,North Scituate,,41.8348904,-71.5882536,,,,human,true,
Acotes Hill Cemetery,United States,Rhode Island,Providence County,Chepachet,Chepachet,,41.9090798,-71.663629,,,,human,true,
Old Hopkinton Cemetery,United States,Rhode Island,Washington County,Potter Hill,Potter Hill,,41.4014415,-71.7971872,,,,human,true,
Oak Grove Cemetery,United States,Rhode Island,Washington County,Ashaway,Ashaway,,41.4261144,-71.7863034,,,,human,true,
Hopkins Mills Cemetery,United States,Rhode Island,Providence County,Hopkins Mills,Hopkins Mills,,41.8207709,-71.7037639,,,,human,true,
Saint Luke's Cemetery,United States,Rhode Island,Kent County,East Greenwich,East Greenwich,,41.6614521,-71.4518155,,,,human,true,
Spencer-Briggs Lot,United States,Rhode Island,Kent County,Frys Corner,Frys Corner,,41.6487908,-71.5043837,,,,human,true,
East Greenwich Historical Cemetery Number 36,United States,Rhode Island,Kent County,East Greenwich,East Greenwich,,41.6602574,-71.4524502,,,,human,true,
Greene Lot,United States,Rhode Island,Kent County,Places Corner,Places Corner,,41.6270119,-71.5056582,,,,human,true,
Fort Adams Cemetery,United States,Rhode Island,Newport County,Brenton Village,Brenton Village,,41.4726581,-71.344624,,http://rihistoriccemeteries.org/newsearchcemeterydetail.aspx?ceme_no=NT017,,human,true,
Joseph Fry Lot,United States,Rhode Island,Kent County,Frys Corner,Frys Corner,,41.6387086,-71.4972653,,,,human,true,
Vaughn Lot,United States,Rhode Island,Kent County,Bartons Corner,Bartons Corner,,41.661157,-71.4997473,,,,human,true,
Shippee-Arnold Lot,United States,Rhode Island,Kent County,Shippee Corner,Shippee Corner,,41.6464099,-71.5215716,,,,human,true,
Walter Spencer Lot,United States,Rhode Island,Kent County,Ike Shippee Corner,Ike Shippee Corner,,41.6438859,-71.5086128,,,,human,true,
Robert Vaughn Lot,United States,Rhode Island,Kent County,Tarbox Corner,Tarbox Corner,,41.6397168,-71.5348848,,,,human,true,
Spencer Lot,United States,Rhode Island,Kent County,Moosehorn Corner,Moosehorn Corner,,41.6474361,-71.5407449,,,,human,true,
Coddington Cemetery,United States,Rhode Island,Newport County,Newport,Newport,,41.4924319,-71.314369,,http://rihistoriccemeteries.org/newsearchcemeterydetail.aspx?ceme_no=NT009,,human,true,
Clifton Burying Ground,United States,Rhode Island,Newport County,Newport,Newport,,41.4830626,-71.3109032,,http://rihistoriccemeteries.org/newsearchcemeterydetail.aspx?ceme_no=NT014,,human,true,
Rodman Vaughn Lot,United States,Rhode Island,Kent County,Moosehorn Corner,Moosehorn Corner,,41.6517852,-71.5398294,,,,human,true,
New Saint Francis Cemetery,United States,Rhode Island,Washington County,Rocky Brook,Rocky Brook,,41.4491762,-71.5113814,,,,human,true,
Rhode Island Historical Cemetery Cumberland Number 9,United States,Rhode Island,Providence County,Ashton,Ashton,,41.9389994,-71.4300035,,,,human,true,
Colonel Pardon Gray Lot,United States,Rhode Island,Newport County,Grayville,Grayville,,41.5895694,-71.192121,,http://rihistoriccemeteries.org/newsearchcemeterydetail.aspx?ceme_no=TV004,,human,true,
William Humphrey Lot,United States,Rhode Island,Newport County,Bridgeport (historical),Bridgeport (historical),,41.6135612,-71.2083469,,http://rihistoriccemeteries.org/newsearchcemeterydetail.aspx?ceme_no=TV002,,human,true,
John R Dodge Cemetery,United States,Rhode Island,Washington County,Isaacs Corner,Isaacs Corner,,41.166362,-71.596453,,http://rihistoriccemeteries.org/newsearchcemeterydetail.aspx?ceme_no=BI003,,human,true,
Trinity Churchyard,United States,Rhode Island,Newport County,Newport,Newport,,41.4873802,-71.3132701,,http://rihistoriccemeteries.org/newsearchcemeterydetail.aspx?ceme_no=NT010,,human,true,
West Warwick Historical Cemetery 1,United States,Rhode Island,Kent County,Bartons Corner,Bartons Corner,,41.663624,-71.4993982,,,,human,true,
Rathbun Cemetary,United States,Rhode Island,Washington County,McGowan Corners,McGowan Corners,,41.3684557,-71.761322,,,,human,true,
Phenix-Brown-Hendrick Cemetery,United States,Rhode Island,Washington County,Wickford Junction,Wickford Junction,,41.578705,-71.49719,,,,human,true,
Diamond Hill Cemetery,United States,Rhode Island,Providence County,Diamond Hill,Diamond Hill,,41.9891752,-71.4074106,,,,human,true,
Cook Cemetery,United States,Rhode Island,Providence County,Hamlet,Hamlet,,41.9936584,-71.4837641,,,,human,true,
Arnold Mills Cemetery,United States,Rhode Island,Providence County,Arnold Mills,Arnold Mills,,41.9811642,-71.3982342,,http://www.arnoldmillscemetery.com/,,human,true,
Evergreen Cemetery,United States,Rhode Island,Providence County,Arnold Mills,Arnold Mills,,41.980592,-71.3981135,,,,human,true,
Brown and Bucklin Families Cemetery,United States,Rhode Island,Providence County,Cumberland,Cumberland,,41.9661878,-71.4464378,,,,human,true,
Saint James Cemetery,United States,Rhode Island,Providence County,Manville,Manville,,41.9749297,-71.4843496,,,,human,true,
Polish Cemetery,United States,Rhode Island,Providence County,Manville,Manville,,41.9732863,-71.4838022,,,,human,true,
Wilkinson Cemetery,United States,Rhode Island,Providence County,Lippitt Estate,Lippitt Estate,,41.9482309,-71.4156761,,,,human,true,
Quaker Burying Ground,United States,Rhode Island,Providence County,Arnold Mills,Arnold Mills,,41.9743541,-71.3991475,,,,human,true,
Metcalf Cemetery,United States,Rhode Island,Providence County,Arnold Mills,Arnold Mills,,41.9733138,-71.3985779,,,,human,true,
Saint Patricks Cemetery,United States,Rhode Island,Providence County,Valley Falls,Valley Falls,,41.9083283,-71.3901354,,,,human,true,
Maple Root Cemetery,United States,Rhode Island,Kent County,Spring Lake,Spring Lake,,41.6685511,-71.6042438,,,,human,true,
Rhode Island Historic Cemetery #7,United States,Rhode Island,Providence County,Smithfield,Smithfield,,41.9206822,-71.5412501,,,,human,true,
New Rockland Cemetery,United States,Rhode Island,Providence County,Clayville,Clayville,,41.7838521,-71.6750971,,,,human,true,
Johnston Historical Cemetary 29,United States,Rhode Island,Providence County,Simmonsville,Simmonsville,,41.8051429,-71.5138307,,,,human,true,
Cedar Cemetery,United States,Rhode Island,Newport County,Jamestown Shores,Jamestown Shores,,41.5273746,-71.3823722,,,,human,true,
Paine Cemetery,United States,Rhode Island,Newport County,Conanicut Park,Conanicut Park,,41.5591759,-71.3634662,,http://rihistoriccemeteries.org/newsearchcemeterydetail.aspx?ceme_no=JM008,,human,true,
Forest Hill Cemetery,United States,Rhode Island,Providence County,Centerdale,Centerdale,,41.8590858,-71.4821212,,,,human,true,
Stephen Olney Graveyard,United States,Rhode Island,Providence County,Woodville,Woodville,,41.8553127,-71.4523609,,,,human,true,
Intervale Cemetery,United States,Rhode Island,Providence County,Allendale,Allendale,,41.8475822,-71.4723931,,,,human,true,
South Burial Grounds,United States,Rhode Island,Bristol County,Warren,Warren,,41.723674,-71.2776349,,http://rihistoriccemeteries.org/newsearchcemeterydetail.aspx?ceme_no=WR011,,human,true,
Austin Family Cemetery,United States,Rhode Island,Providence County,Georgiaville,Georgiaville,,41.8767062,-71.5200961,,,,human,true,
Essex-Congdon-Shippee Lot,United States,Rhode Island,Washington County,Quidnessett,Quidnessett,,41.6373201,-71.4547304,,,,human,true,
Pardon Mawney Lot,United States,Rhode Island,Kent County,Hamiltons Corner,Hamiltons Corner,,41.6102033,-71.4999657,,,,human,true,
Bailey-Brayton Lot,United States,Rhode Island,Kent County,Spencers Corner,Spencers Corner,,41.6582108,-71.530017,,,,human,true,
Elder John Gorton Meeting Building,United States,Rhode Island,Kent County,East Greenwich,East Greenwich,,41.6632644,-71.4468025,,,,human,true,
East Greenwich Swedish Cemetery,United States,Rhode Island,Kent County,Bartons Corner,Bartons Corner,,41.6629525,-71.4826643,,,,human,true,
Lutheran Church Cemetery,United States,Rhode Island,Kent County,Bartons Corner,Bartons Corner,,41.6629619,-71.4830532,,,,human,true,
Oliver Wickes Lot,United States,Rhode Island,Kent County,Bartons Corner,Bartons Corner,,41.6629808,-71.4835002,,,,human,true,
East Greenwich Historical Cemetery Number 18,United States,Rhode Island,Kent County,Frenchtown,Frenchtown,,41.6234909,-71.495069,,,,human,true,
East Greenwich Historical Cemetery Number 30,United States,Rhode Island,Kent County,Frenchtown,Frenchtown,,41.624982,-71.4917814,,,,human,true,
East Greenwich Historical Cemetery Number 31,United States,Rhode Island,Kent County,Frenchtown,Frenchtown,,41.6231432,-71.4897118,,,,human,true,
Palmer/Burdick/Appley Lot,United States,Rhode Island,Washington County,Rockville,Rockville,,41.5463665,-71.7685248,,,,human,true,
Burdick - Culver Cemetery,United States,Rhode Island,Washington County,Avondale,Avondale,,41.337099,-71.855489,,,,human,true,
Perry Lot,United States,Rhode Island,Kent County,Greenwood,Greenwood,,41.716154,-71.4498203,,,,human,true,
Mitchell Lot,United States,Rhode Island,Kent County,Shippee Corner,Shippee Corner,,41.6446475,-71.532079,,,,human,true,
Dawley-Brown Lot,United States,Rhode Island,Washington County,Fisherville,Fisherville,,41.56075,-71.5766117,,,,human,true,
Whitford Cemetery,United States,Rhode Island,Kent County,Cooks Corner,Cooks Corner,,41.5934215,-71.5259263,,,,human,true,
Howard Lot,United States,Rhode Island,Providence County,Foster Center,Foster Center,,41.7587689,-71.7198776,,,,human,true,
Colonial Jewish Burying Ground,United States,Rhode Island,Newport County,Newport,Newport,,41.4879443,-71.3093229,,http://rihistoriccemeteries.org/newsearchcemeterydetail.aspx?ceme_no=NT013,,human,true,
Eliphalet Young Lot,United States,Rhode Island,Washington County,Cold Spring Beach,Cold Spring Beach,,41.5732903,-71.4488339,,,,human,true,
Saint Paul-Updike Cemetery,United States,Rhode Island,Washington County,Cold Spring Beach,Cold Spring Beach,,41.5730911,-71.4494361,,,,human,true,
Wightman Cemetery,United States,Rhode Island,Washington County,Cold Spring Beach,Cold Spring Beach,,41.5731925,-71.4491056,,,,human,true,
John Spencer Lot,United States,Rhode Island,Kent County,Tarbox Corner,Tarbox Corner,,41.641716,-71.5431471,,,,human,true,
Steere Cemetery,United States,Rhode Island,Providence County,Cherry Valley,Cherry Valley,,41.881433,-71.6505025,,,,human,true,
Doctor Isaac Collins Lot,United States,Rhode Island,Washington County,Woodville,Woodville,,41.4664631,-71.7217876,,,,human,true,
Phillips-Moone-Jenkins Lot,United States,Rhode Island,Kent County,Norwood,Norwood,,41.7447231,-71.4253351,,,,human,true,
Prophet-Babcock-Holden Lot,United States,Rhode Island,Kent County,Greenwood,Greenwood,,41.7078811,-71.4468437,,,,human,true,
Sheffield Cemetery,United States,Rhode Island,Washington County,Block Island,Block Island,,41.2099565,-71.5703625,,http://rihistoriccemeteries.org/newsearchcemeterydetail.aspx?ceme_no=BI009,,human,true,
Platform Cemetery,United States,Rhode Island,Washington County,Congdon Hill (historical),Congdon Hill (historical),,41.5194886,-71.4782772,,,,human,true,
Spencer-Shippee Lot,United States,Rhode Island,Kent County,Ike Shippee Corner,Ike Shippee Corner,,41.6424161,-71.5141659,,,,human,true,
Stone Plot,United States,Rhode Island,Providence County,Foster Center,Foster Center,,41.8037785,-71.7156892,,,,human,true,
Caleb Cooke Lot,United States,Rhode Island,Kent County,Places Corner,Places Corner,,41.6169372,-71.5098348,,,,human,true,
Peleg Wood Lot,United States,Rhode Island,Kent County,Woods Corner,Woods Corner,,41.6223186,-71.5416202,,,,human,true,
Hopkins-Young Cemetery,United States,Rhode Island,Providence County,North Foster,North Foster,,41.8272089,-71.7539004,,,,human,true,
John Congdon Lot,United States,Rhode Island,Washington County,Saunderstown,Saunderstown,,41.5138477,-71.4240657,,,,human,true,
Casey Cemetery,United States,Rhode Island,Washington County,Saunderstown,Saunderstown,,41.5136442,-71.4240597,,,,human,true,
Harmony Cemetery,United States,Rhode Island,Providence County,Harmony,Harmony,,41.8889866,-71.6004056,,,,human,true,
Mowry-Knight-Mott Lot,United States,Rhode Island,Kent County,Apponaug,Apponaug,,41.6987322,-71.4503263,,,,human,true,
Lillibridge Cemetery,United States,Rhode Island,Washington County,Arcadia,Arcadia,,41.5707934,-71.7115818,,,,human,true,
John Gardiner Cemetery,United States,Rhode Island,Washington County,Congdon Hill (historical),Congdon Hill (historical),,41.5256867,-71.4867218,,,,human,true,
James Congdon Lot,United States,Rhode Island,Washington County,Congdon Hill (historical),Congdon Hill (historical),,41.5298598,-71.4892334,,,,human,true,
Nathaniel Arnold Lot,United States,Rhode Island,Kent County,Cowesett,Cowesett,,41.6893187,-71.474325,,,,human,true,
Royal Indian Burial Ground,United States,Rhode Island,Washington County,Arnolda,Arnolda,,41.4082681,-71.658872,,,,human,true,
Woodlawn Cemetery,United States,Rhode Island,Providence County,Bishop Heights,Bishop Heights,,41.8295243,-71.5647201,,,,human,true,
Rathburn Cemetery,United States,Rhode Island,Washington County,Cranstons Corner (historical),Cranstons Corner (historical),,41.569031,-71.508397,,,,human,true,
Crandall Lot,United States,Rhode Island,Kent County,Escoheag,Escoheag,,41.5705799,-71.756956,,,,human,true,
Gardiner-Hopkins Lot,United States,Rhode Island,Newport County,Sachuest,Sachuest,,41.500153,-71.2520999,,http://rihistoriccemeteries.org/newsearchcemeterydetail.aspx?ceme_no=MT027,,human,true,
Juniper Hill Cemetery,United States,Rhode Island,Bristol County,Bristol Township,Bristol Township,,41.6814069,-71.267522,,,,human,true,
Davis Cemetery,United States,Rhode Island,Washington County,"Davisville, North Kingston","Davisville, North Kingston",,41.6207558,-71.4823642,,,,human,true,
Old Baptist Church Burial Ground,United States,Rhode Island,Kent County,Shawomet,Shawomet,,41.7134085,-71.3801171,,,,human,true,
Hawkins Cemetery,United States,Rhode Island,Providence County,Cherry Valley,Cherry Valley,,41.8781334,-71.65018,,,,human,true,
Old Forge Burial Ground,United States,Rhode Island,Washington County,Quidnessett,Quidnessett,,41.6418368,-71.4484943,,,,human,true,
Amos Whitford Lot,United States,Rhode Island,Washington County,Fisherville,Fisherville,,41.580876,-71.5925125,,,,human,true,
Anthony-Arnold Lot,United States,Rhode Island,Washington County,Tripps Corner,Tripps Corner,,41.5550637,-71.605086,,,,human,true,
Phillips Cemetery,United States,Rhode Island,Providence County,Foster Center,Foster Center,,41.7886395,-71.7012466,,,,human,true,
East Greenwich Historical Cemetery Number 54,United States,Rhode Island,Kent County,Shippee Corner,Shippee Corner,,41.6401796,-71.5301836,,,,human,true,
Austin Cemetery,United States,Rhode Island,Washington County,Quidnessett,Quidnessett,,41.6332322,-71.4664521,,,,human,true,
Arnold Cemetery,United States,Rhode Island,Washington County,Black Plain,Black Plain,,41.5882883,-71.6445474,,,,human,true,
Phillips Memorial Cemetery,United States,Rhode Island,Providence County,Foster Center,Foster Center,,41.787912,-71.728862,,,,human,true,
Phillips Memorial Cemetery,United States,Rhode Island,Providence County,Foster Center,Foster Center,,41.7886155,-71.7286239,,,,human,true,
Joseph Carpenter Lot,United States,Rhode Island,Kent County,Moosehorn Corner,Moosehorn Corner,,41.6567131,-71.5375969,,,,human,true,
Francis Tanner Lot,United States,Rhode Island,Washington County,Canonchet,Canonchet,,41.4977451,-71.7534712,,,,human,true,
Captain John Wells Lot,United States,Rhode Island,Kent County,Cooks Corner,Cooks Corner,,41.6038844,-71.5271752,,,,human,true,
Gardiner Cemetery,United States,Rhode Island,Washington County,Hamilton,Hamilton,,41.5360336,-71.4395789,,,,human,true,
Friends Burial Ground,United States,Rhode Island,Washington County,Hopkinton,Hopkinton,,41.4654817,-71.7904515,,,,human,true,
Gardner Lot,United States,Rhode Island,Washington County,Gardners Corner,Gardners Corner,,41.5433371,-71.5253594,,,,human,true,
Robert Gardner Lot,United States,Rhode Island,Washington County,Gardners Corner,Gardners Corner,,41.5435811,-71.5253594,,,,human,true,
Beth Olam Cemetery,United States,Rhode Island,Newport County,Whitehall,Whitehall,,41.5210263,-71.2745936,,http://rihistoriccemeteries.org/newsearchcemeterydetail.aspx?ceme_no=MT025,,human,true,
Four Corners Cemetery,United States,Rhode Island,Newport County,Whitehall,Whitehall,,41.5224903,-71.2745866,,http://rihistoriccemeteries.org/newsearchcemeterydetail.aspx?ceme_no=MT009,,human,true,
Gardiner-Green Lot,United States,Rhode Island,Washington County,Bradford,Bradford,,41.4074071,-71.7428799,,,,human,true,
Colvin Cemetery,United States,Rhode Island,Providence County,Bishop Heights,Bishop Heights,,41.8142292,-71.5532617,,,,human,true,
Pocasset Cemetery,United States,Rhode Island,Providence County,Silver Lake,Silver Lake,,41.8027585,-71.4628338,,,,human,true,
Old Gardner Cemetery,United States,Rhode Island,Washington County,Gardners Corner,Gardners Corner,,41.5493788,-71.5307198,,,,human,true,
Lewis Family Cemetery,United States,Rhode Island,Washington County,Austin,Austin,,41.5928678,-71.6617571,,,,human,true,
Austin Cemetery,United States,Rhode Island,Washington County,Austin,Austin,,41.5952847,-71.664159,,,,human,true,
Enos-Crandall Lot,United States,Rhode Island,Washington County,Canonchet,Canonchet,,41.4763051,-71.7518166,,,,human,true,
Jonathan Nichols Lot,United States,Rhode Island,Kent County,Hamiltons Corner,Hamiltons Corner,,41.6047033,-71.4955617,,,,human,true,
Exeter School Cemetery,United States,Rhode Island,Washington County,Gardners Corner,Gardners Corner,,41.5434946,-71.5527506,,,,human,true,
Sweet Lot,United States,Rhode Island,Washington County,Gardners Corner,Gardners Corner,,41.54355,-71.5530514,,,,human,true,
Major General Thomas Holden Lot,United States,Rhode Island,Kent County,Bartons Corner,Bartons Corner,,41.6636626,-71.4853992,,,,human,true,
Anthony Hall Lot,United States,Rhode Island,Kent County,Bartons Corner,Bartons Corner,,41.6622494,-71.4839481,,,,human,true,
Vaughn Lot,United States,Rhode Island,Kent County,Cooks Corner,Cooks Corner,,41.6051169,-71.5297458,,,,human,true,
Old Commons Burying Ground,United States,Rhode Island,Newport County,Little Compton,Little Compton,,41.5094887,-71.1721003,,http://rihistoriccemeteries.org/newsearchcemeterydetail.aspx?ceme_no=LC012,,human,true,
Union Cemetery,United States,Rhode Island,Newport County,Little Compton,Little Compton,,41.508813,-71.1726691,,http://rihistoriccemeteries.org/newsearchcemeterydetail.aspx?ceme_no=LC011,,human,true,
Walker Lot,United States,Rhode Island,Washington County,Liberty,Liberty,,41.5409547,-71.5832778,,,,human,true,
Phillips Cemetery,United States,Rhode Island,Washington County,Liberty,Liberty,,41.5410701,-71.5833081,,,,human,true,
Remington-Arnold Lot,United States,Rhode Island,Kent County,Crompton,Crompton,,41.6870874,-71.4973847,,,,human,true,
Daniel Howland Lot,United States,Rhode Island,Kent County,Crossways (historical),Crossways (historical),,41.6564862,-71.4652538,,,,human,true,
Captain Samuel Fry Lot,United States,Rhode Island,Kent County,Crossways (historical),Crossways (historical),,41.6567192,-71.4656159,,,,human,true,
Paine Spencer Lot,United States,Rhode Island,Kent County,Crossways (historical),Crossways (historical),,41.65689,-71.4658311,,,,human,true,
Willett-Carpenter Cemetery,United States,Rhode Island,Washington County,Saunderstown,Saunderstown,,41.5063879,-71.4278769,,http://rihistoriccemeteries.org/newsearchcemeterydetail.aspx?ceme_no=NK068,,human,true,
William Reynolds Cemetery,United States,Rhode Island,Washington County,Quidnessett,Quidnessett,,41.6302997,-71.4472206,,,,human,true,
Nathan Collins Lot,United States,Rhode Island,Washington County,Canonchet,Canonchet,,41.4746282,-71.7304833,,,,human,true,
Samuel Arnold Lot,United States,Rhode Island,Washington County,Gardners Corner,Gardners Corner,,41.5603431,-71.5251099,,,,human,true,
Job Tillinghast Lot,United States,Rhode Island,Kent County,Frenchtown,Frenchtown,,41.6200312,-71.4910975,,,,human,true,
Nichols Lot,United States,Rhode Island,Washington County,Canonchet,Canonchet,,41.4908932,-71.73348,,,,human,true,
Nichols Lot,United States,Rhode Island,Kent County,Nichols Corner,Nichols Corner,,41.6504844,-71.4752141,,,,human,true,
Cornell-Briggs Lot,United States,Rhode Island,Kent County,Spencers Corner,Spencers Corner,,41.6595672,-71.5128586,,,,human,true,
Joseph Card Lot,United States,Rhode Island,Kent County,Spencers Corner,Spencers Corner,,41.6600781,-71.5201939,,,,human,true,
Tisdale Lot,United States,Rhode Island,Washington County,Slocum,Slocum,,41.5270843,-71.5267374,,,,human,true,
Old River Cemetery,United States,Rhode Island,Providence County,Albion,Albion,,41.9474114,-71.4644562,,,,human,true,
Irons-Steele Cemetery,United States,Rhode Island,Providence County,Waldron Corners,Waldron Corners,,41.8801124,-71.6267026,,,,human,true,
Briggs-Jacoy-Corey Cemetery,United States,Rhode Island,Washington County,"Davisville, North Kingston","Davisville, North Kingston",,41.6101136,-71.4919498,,,,human,true,
Gorton-Arnold Cemetery,United States,Rhode Island,Kent County,Apponaug,Apponaug,,41.6931373,-71.4574204,,,,human,true,
Henry Barber Lot,United States,Rhode Island,Kent County,Escoheag,Escoheag,,41.5928344,-71.7666878,,,,human,true,
Phillips Cemetery,United States,Rhode Island,Washington County,Wickford Junction,Wickford Junction,,41.5744566,-71.4903543,,,,human,true,
Gorton-Wing Lot,United States,Rhode Island,Kent County,Crompton,Crompton,,41.6841153,-71.4971224,,,,human,true,
Graceland,United States,Rhode Island,Providence County,Greystone,Greystone,,41.8556302,-71.4937606,,,,human,true,
Fairlawn,United States,Rhode Island,Providence County,Greystone,Greystone,,41.8550472,-71.4938341,,,,human,true,
New Fernwood Cemetery,United States,Rhode Island,Washington County,West Kingston,West Kingston,,41.4818777,-71.5442013,,,,human,true,
Nathaniel Peckham Lot,United States,Rhode Island,Washington County,West Kingston,West Kingston,,41.482805,-71.5459742,,,,human,true,
Old Fernwood Cemetery,United States,Rhode Island,Washington County,West Kingston,West Kingston,,41.4823921,-71.5455048,,,,human,true,
Chestnut Hill Cemetery,United States,Rhode Island,Washington County,Fisherville,Fisherville,,41.5816732,-71.5582486,,,,human,true,
Sunderland-Tarbox Lot,United States,Rhode Island,Washington County,Fisherville,Fisherville,,41.5808657,-71.557383,,,,human,true,
Stafford Lot,United States,Rhode Island,Kent County,Conimicut,Conimicut,,41.7214053,-71.3794442,,,,human,true,
Stone Castle Lot,United States,Rhode Island,Kent County,Kettle Corner,Kettle Corner,,41.7013805,-71.3939707,,,,human,true,
Burdick Cemetery,United States,Rhode Island,Washington County,Wood River Junction,Wood River Junction,,41.4085417,-71.6946846,,,,human,true,
Clarke Taggart Burial Ground,United States,Rhode Island,Newport County,Sachuest,Sachuest,,41.5060105,-71.243813,,http://rihistoriccemeteries.org/newsearchcemeterydetail.aspx?ceme_no=MT016,,human,true,
Berkeley Memorial Cemetery,United States,Rhode Island,Newport County,Sachuest,Sachuest,,41.5070793,-71.2421375,,http://rihistoriccemeteries.org/newsearchcemeterydetail.aspx?ceme_no=MT018,,human,true,
Newport Memorial Park,United States,Rhode Island,Newport County,Sachuest,Sachuest,,41.5066756,-71.2454877,,http://rihistoriccemeteries.org/newsearchcemeterydetail.aspx?ceme_no=MT017,,human,true,
Briggs Cemetery,United States,Rhode Island,Kent County,Cooks Corner,Cooks Corner,,41.5976502,-71.5201278,,,,human,true,
Greenwood,United States,Rhode Island,Providence County,Greystone,Greystone,,41.8560351,-71.494061,,,,human,true,
Birch Garden,United States,Rhode Island,Providence County,Greystone,Greystone,,41.8567676,-71.493826,,,,human,true,
Sunset Garden,United States,Rhode Island,Providence County,Greystone,Greystone,,41.8566108,-71.4948013,,,,human,true,
Hillcrest Gardens,United States,Rhode Island,Providence County,Greystone,Greystone,,41.8571662,-71.4963449,,,,human,true,
Garden of Tranquility,United States,Rhode Island,Providence County,Greystone,Greystone,,41.8575587,-71.4967486,,,,human,true,
Garden of Devotion,United States,Rhode Island,Providence County,Greystone,Greystone,,41.85741,-71.4980816,,,,human,true,
Pinecrest,United States,Rhode Island,Providence County,Greystone,Greystone,,41.8567377,-71.4978107,,,,human,true,
Natures Garden,United States,Rhode Island,Providence County,Greystone,Greystone,,41.8566019,-71.4969162,,,,human,true,
Garden of Faith,United States,Rhode Island,Providence County,Greystone,Greystone,,41.8566388,-71.4958581,,,,human,true,
Acacia,United States,Rhode Island,Providence County,Greystone,Greystone,,41.8559626,-71.4955068,,,,human,true,
Garden of Memory,United States,Rhode Island,Providence County,Greystone,Greystone,,41.8557528,-71.4965246,,,,human,true,
Garden of Meditation,United States,Rhode Island,Providence County,Greystone,Greystone,,41.8558168,-71.4974459,,,,human,true,
Maple Garden,United States,Rhode Island,Providence County,Greystone,Greystone,,41.8547619,-71.4966695,,,,human,true,
Oaklawn,United States,Rhode Island,Providence County,Greystone,Greystone,,41.8552124,-71.4954209,,,,human,true,
Garden of Peace,United States,Rhode Island,Providence County,Greystone,Greystone,,41.8545671,-71.4958808,,,,human,true,
Colonial Garden,United States,Rhode Island,Providence County,Greystone,Greystone,,41.8543363,-71.4951138,,,,human,true,
Sylvan Abbey,United States,Rhode Island,Providence County,Greystone,Greystone,,41.8541405,-71.4943279,,,,human,true,
Garden of Hope,United States,Rhode Island,Providence County,Greystone,Greystone,,41.8535433,-71.4953592,,,,human,true,
Buttonwoods,United States,Rhode Island,Providence County,Greystone,Greystone,,41.8535183,-71.4943172,,,,human,true,
Resthaven,United States,Rhode Island,Providence County,Greystone,Greystone,,41.8545821,-71.493475,,,,human,true,
Rosewood,United States,Rhode Island,Providence County,Greystone,Greystone,,41.8550805,-71.4944392,,,,human,true,
Harmony,United States,Rhode Island,Providence County,Greystone,Greystone,,41.8568247,-71.4987299,,,,human,true,
Historic Cemeteries,United States,Rhode Island,Providence County,Greystone,Greystone,,41.856284,-71.4983037,,,,human,true,
Governor Samuel Gorton Lot,United States,Rhode Island,Kent County,Bayside,Bayside,,41.6999066,-71.3789322,,,,human,true,
Hezekiah Collins Lot,United States,Rhode Island,Washington County,Woodville,Woodville,,41.4501563,-71.738076,,,,human,true,
Pierce-Phillips Cemetery,United States,Rhode Island,Washington County,Kiefer Park,Kiefer Park,,41.599345,-71.4541729,,,,human,true,
Pearce Watson Cemetery,United States,Rhode Island,Washington County,Kiefer Park,Kiefer Park,,41.5994393,-71.453279,,,,human,true,
Himes Cemetery,United States,Rhode Island,Washington County,Lafayette,Lafayette,,41.5555931,-71.4902526,,,,human,true,
Himes Cemetery,United States,Rhode Island,Washington County,Wickford Junction,Wickford Junction,,41.5592874,-71.4958142,,,,human,true,
Hiscox Cemetery,United States,Rhode Island,Washington County,Hamilton,Hamilton,,41.5492194,-71.4439121,,,,human,true,
Hill Cemetery,United States,Rhode Island,Washington County,Quidnessett,Quidnessett,,41.6388195,-71.4426639,,,,human,true,
Slocum-Sweet Cemetery,United States,Rhode Island,Washington County,Slocum,Slocum,,41.5444967,-71.5191463,,,,human,true,
Burdick Lot,United States,Rhode Island,Washington County,Centerville,Centerville,,41.5222031,-71.7477024,,,,human,true,
Remington Cemetery,United States,Rhode Island,Providence County,Simmonsville,Simmonsville,,41.8055072,-71.5066396,,,,human,true,
Burlingame Cemetery,United States,Rhode Island,Washington County,Shady Lea,Shady Lea,,41.5216637,-71.461393,,,,human,true,
Ambrose Taylor Lot,United States,Rhode Island,Kent County,Nausauket,Nausauket,,41.6913672,-71.4397118,,,,human,true,
Holden-Bicknell-Taylor Cemetery,United States,Rhode Island,Kent County,River Point,River Point,,41.7063463,-71.512298,,,,human,true,
Thomas Rice Lot,United States,Rhode Island,Kent County,East Natick,East Natick,,41.702917,-71.4808632,,,,human,true,
Hoxie Family Lot,United States,Rhode Island,Washington County,Canonchet,Canonchet,,41.4874139,-71.7450296,,,,human,true,
Thomas Taylor Lot,United States,Rhode Island,Kent County,Apponaug,Apponaug,,41.6921479,-71.4561249,,,,human,true,
Benjamin Lockwood Lot,United States,Rhode Island,Kent County,Lockwood Corner,Lockwood Corner,,41.7118478,-71.4038747,,,,human,true,
Benajah Lockwood Lot,United States,Rhode Island,Kent County,Lockwood Corner,Lockwood Corner,,41.7119939,-71.4058127,,,,human,true,
Arnold Lot,United States,Rhode Island,Kent County,Palace Garden,Palace Garden,,41.7468889,-71.3945709,,,,human,true,
Thomas Holden Lot,United States,Rhode Island,Kent County,Meadow View,Meadow View,,41.6904735,-71.3807806,,,,human,true,
Tefft Family Cemetery,United States,Rhode Island,Washington County,Black Plain,Black Plain,,41.5750831,-71.6606312,,,,human,true,
Barber Cemetery,United States,Rhode Island,Washington County,Millville,Millville,,41.5638201,-71.687802,,,,human,true,
General George Thurston Lot,United States,Rhode Island,Washington County,Hopkinton,Hopkinton,,41.4576998,-71.7807345,,,,human,true,
Saint Therese Cemetery,United States,Rhode Island,Kent County,Centerville,Centerville,,41.6935554,-71.5209311,,,,human,true,
Oliver Gardiner Cemetery,United States,Rhode Island,Washington County,Congdon Hill (historical),Congdon Hill (historical),,41.5033904,-71.4726547,,,,human,true,
Sherman Lot,United States,Rhode Island,Washington County,Tripps Corner,Tripps Corner,,41.5416958,-71.6064577,,,,human,true,
Sherman Lot,United States,Rhode Island,Washington County,Tripps Corner,Tripps Corner,,41.5413944,-71.6064492,,,,human,true,
Greene Cemetery,United States,Rhode Island,Washington County,Plum Point,Plum Point,,41.532456,-71.4222573,,,,human,true,
Greene Cemetery,United States,Rhode Island,Washington County,Slocum,Slocum,,41.5358121,-71.5131238,,,,human,true,
George Thomas Cemetery,United States,Rhode Island,Washington County,Wickford,Wickford,,41.5673014,-71.4651539,,,,human,true,
Smith Lot,United States,Rhode Island,Washington County,Locustville,Locustville,,41.5221032,-71.7203727,,,,human,true,
Barber Lot,United States,Rhode Island,Kent County,Escoheag,Escoheag,,41.5646107,-71.7588993,,,,human,true,
Foster-Kenyon Lot,United States,Rhode Island,Kent County,Westcott,Westcott,,41.6973287,-71.4873998,,,,human,true,
Gorton-Arnold Lot,United States,Rhode Island,Kent County,Westcott,Westcott,,41.6977696,-71.4872684,,,,human,true,
Smith Cemetery,United States,Rhode Island,Washington County,Wickford,Wickford,,41.5882827,-71.4611332,,,,human,true,
Sweet-Blanchard Lot,United States,Rhode Island,Providence County,Jackson,Jackson,,41.7427941,-71.5508172,,,,human,true,
Walton Cemetery,United States,Rhode Island,Providence County,Jackson,Jackson,,41.7419285,-71.5503335,,,,human,true,
Cottrell Cemetery,United States,Rhode Island,Providence County,Jackson,Jackson,,41.7423674,-71.5504974,,,,human,true,
Tarbox-Jackson Lot,United States,Rhode Island,Kent County,Tarbox Corner,Tarbox Corner,,41.6432825,-71.5478531,,,,human,true,
Robinson Cemetery,United States,Rhode Island,Washington County,Narragansett Pier,Narragansett Pier,,41.4381777,-71.4612211,,,,human,true,
Peleg Card Cemetery,United States,Rhode Island,Washington County,Quidnessett,Quidnessett,,41.6095967,-71.4424168,,,,human,true,
Spicer Lot,United States,Rhode Island,Washington County,Hopkinton,Hopkinton,,41.4653546,-71.7772583,,,,human,true,
Hathaway Cemetery,United States,Rhode Island,Washington County,Fisherville,Fisherville,,41.5634257,-71.5739664,,,,human,true,
Hammond Cemetery,United States,Rhode Island,Washington County,Shady Lea,Shady Lea,,41.5180847,-71.4589787,,,,human,true,
General Thomas Westcott Lot,United States,Rhode Island,Kent County,Westcott,Westcott,,41.7103766,-71.5021576,,,,human,true,
George Hall Lot,United States,Rhode Island,Newport County,Portsmouth Park,Portsmouth Park,,41.6114111,-71.2426016,,http://rihistoriccemeteries.org/newsearchcemeterydetail.aspx?ceme_no=PO008,,human,true,
Kenyon Lot,United States,Rhode Island,Washington County,Moscow,Moscow,,41.5197491,-71.7404746,,,,human,true,
Reynolds-Johnson Lot,United States,Rhode Island,Washington County,Bethel,Bethel,,41.4466704,-71.7885871,,,,human,true,
Champlin-Greene Burial Ground,United States,Rhode Island,Washington County,Exeter,Exeter,,41.5756515,-71.5447564,,,,human,true,
John Wightman Cemetery,United States,Rhode Island,Washington County,North Quidnessett,North Quidnessett,,41.6366469,-71.4184905,,,,human,true,
Joseph Briggs Lot,United States,Rhode Island,Kent County,Cowesett,Cowesett,,41.6848054,-71.4632877,,,,human,true,
Arnold Burying Ground,United States,Rhode Island,Newport County,Newport,Newport,,41.4861415,-71.3120082,,http://rihistoriccemeteries.org/newsearchcemeterydetail.aspx?ceme_no=NT011,,human,true,
Chapman Cemetery,United States,Rhode Island,Washington County,Fisherville,Fisherville,,41.5646479,-71.562742,,,,human,true,
Cross Mills Cemetery,United States,Rhode Island,Washington County,Charlestown,Charlestown,,41.3820252,-71.6404395,,,,human,true,
East Burial Ground,United States,Rhode Island,Bristol County,Bristol,Bristol,,41.6703879,-71.2699467,,,,human,true,
Lippett Lot,United States,Rhode Island,Kent County,Greenwood,Greenwood,,41.7161585,-71.457696,,,,human,true,
Peter Freeman Lot,United States,Rhode Island,Kent County,Greenwood,Greenwood,,41.7096192,-71.4374701,,,,human,true,
Christopher Green Lot,United States,Rhode Island,Kent County,Coles,Coles,,41.7314204,-71.3956182,,,,human,true,
William Jenison Lot,United States,Rhode Island,Kent County,Conimicut,Conimicut,,41.7229108,-71.3839362,,,,human,true,
Colonel John Waterman Lot,United States,Rhode Island,Kent County,Coles,Coles,,41.7217337,-71.3966358,,,,human,true,
Lewis Family Cemetery,United States,Rhode Island,Washington County,Moscow,Moscow,,41.5633655,-71.7456754,,,,human,true,
Jerauld/Gerald Lot,United States,Rhode Island,Kent County,Apponaug,Apponaug,,41.7002349,-71.4655078,,,,human,true,
John Browning Lot,United States,Rhode Island,Kent County,Apponaug,Apponaug,,41.7003337,-71.4655475,,,,human,true,
Captain Samuel Green Lot,United States,Rhode Island,Kent County,Apponaug,Apponaug,,41.7004327,-71.4655882,,,,human,true,
Hazard Lot,United States,Rhode Island,Newport County,Jamestown Shores,Jamestown Shores,,41.5265207,-71.3831029,,http://rihistoriccemeteries.org/newsearchcemeterydetail.aspx?ceme_no=JM010,,human,true,
Old Friends Burial Ground,United States,Rhode Island,Newport County,Jamestown Shores,Jamestown Shores,,41.5262689,-71.3833035,,http://rihistoriccemeteries.org/newsearchcemeterydetail.aspx?ceme_no=JM006,,human,true,
Glenford Cemetery,United States,Rhode Island,Providence County,North Scituate,North Scituate,,41.8309845,-71.5901631,,,,human,true,
Tillinghast Lot,United States,Rhode Island,Washington County,Gardners Corner,Gardners Corner,,41.5295165,-71.5498848,,,,human,true,
Howard-Remington Lot,United States,Rhode Island,Kent County,Greenwood,Greenwood,,41.7109332,-71.4432,,,,human,true,
Sandy Brook Cemetery,United States,Rhode Island,Providence County,Foster Center,Foster Center,,41.7821525,-71.7246998,,,,human,true,
Hunt Cemetery,United States,Rhode Island,Washington County,"Davisville, North Kingston","Davisville, North Kingston",,41.6067068,-71.4778339,,,,human,true,
Tower Hill Cemetery,United States,Rhode Island,Washington County,Tower Hill (historical),Tower Hill (historical),,41.4671831,-71.4625528,,,,human,true,
Utter-Arnold-Rhodes Lot,United States,Rhode Island,Kent County,Spring Green,Spring Green,,41.7416877,-71.410984,,,,human,true,
Carpenter Cemetery,United States,Rhode Island,Washington County,Wickford,Wickford,,41.5917086,-71.4558787,,,,human,true,
Tourgee Cemetery,United States,Rhode Island,Washington County,"Davisville, North Kingston","Davisville, North Kingston",,41.6166756,-71.4764802,,,,human,true,
Bennett-Spencer Lot,United States,Rhode Island,Kent County,Cowesett,Cowesett,,41.6840612,-71.4756218,,,,human,true,
Tillinghast Lot,United States,Rhode Island,Washington County,Horn Heap,Horn Heap,,41.577962,-71.5220435,,,,human,true,
John Budlong Lot,United States,Rhode Island,Kent County,Nausauket,Nausauket,,41.6921619,-71.4289058,,,,human,true,
Hunt-Hall Cemetery,United States,Rhode Island,Washington County,"Davisville, North Kingston","Davisville, North Kingston",,41.6028227,-71.4819114,,,,human,true,
Ray Lot,United States,Rhode Island,Washington County,Liberty,Liberty,,41.5170862,-71.5549454,,,,human,true,
DeWolf Cemetery,United States,Rhode Island,Bristol County,Bristol,Bristol,,41.6646299,-71.2584441,,http://rihistoriccemeteries.org/newsearchcemeterydetail.aspx?ceme_no=BR005,,human,true,
Waterman Cemetery,United States,Rhode Island,Providence County,Johnston,Johnston,,41.8298629,-71.5001131,,,,human,true,
Solomon Angell Lot,United States,Rhode Island,Providence County,Fruit Hill,Fruit Hill,,41.8460297,-71.4523838,,,,human,true,
Vaughan-Arnold Cemetery,United States,Rhode Island,Washington County,"Davisville, North Kingston","Davisville, North Kingston",,41.6056669,-71.4561899,,,,human,true,
Reynolds Cemetery,United States,Rhode Island,Washington County,Wickford,Wickford,,41.5935978,-71.4582934,,,,human,true,
West Greenwich Cemetery,United States,Rhode Island,Kent County,Hopkins Hollow,Hopkins Hollow,,41.6383334,-71.7530353,,,,human,true,
Champlin Lot,United States,Rhode Island,Washington County,Kingston,Kingston,,41.5030163,-71.5186358,,,,human,true,
Chadsey-Gardiner Cemetery,United States,Rhode Island,Washington County,"Davisville, North Kingston","Davisville, North Kingston",,41.6172531,-71.4657433,,,,human,true,
Captain Joseph Spencer Lot,United States,Rhode Island,Kent County,Crossways (historical),Crossways (historical),,41.645678,-71.4552772,,,,human,true,
Friends Cemetery,United States,Rhode Island,Providence County,Globe,Globe,,41.9893882,-71.5301377,,,,human,true,
William Steere Lot,United States,Rhode Island,Providence County,Simmonsville,Simmonsville,,41.8034993,-71.5146151,,,,human,true,
North Farm Burial Ground,United States,Rhode Island,Bristol County,Sowams (historical),Sowams (historical),,41.735397,-71.2843428,,,,human,true,
Indian Cemetery,United States,Rhode Island,Washington County,Isaacs Corner,Isaacs Corner,,41.1634688,-71.5793576,,http://rihistoriccemeteries.org/newsearchcemeterydetail.aspx?ceme_no=BI002,,human,true,
Warwick Poor Farm Cemetery,United States,Rhode Island,Kent County,Warwick,Warwick,,41.6936526,-71.4134179,,,,human,true,
Polish Cemetery,United States,Rhode Island,Newport County,Eagleville,Eagleville,,41.6687665,-71.1693666,,,,human,true,
Saint Mary's Cemetery,United States,Rhode Island,Newport County,Eagleville,Eagleville,,41.671186,-71.1631995,,,,human,true,
Benjamin Carr Cemetery,United States,Rhode Island,Kent County,Summit,Summit,,41.6703744,-71.6912272,,,,human,true,
Pardon Brown Lot,United States,Rhode Island,Newport County,Middletown,Middletown,,41.5397241,-71.2998164,,http://rihistoriccemeteries.org/newsearchcemeterydetail.aspx?ceme_no=MT005,,human,true,
Saint Mary's Episcopal Churchyard,United States,Rhode Island,Newport County,South Portsmouth,South Portsmouth,,41.5477856,-71.2610276,,http://rihistoriccemeteries.org/newsearchcemeterydetail.aspx?ceme_no=PO024,,human,true,
Saint Jean Baptiste Cemetery,United States,Rhode Island,Bristol County,Laurel Park,Laurel Park,,41.7230385,-71.2733899,,http://rihistoriccemeteries.org/newsearchcemeterydetail.aspx?ceme_no=WR009,,human,true,
Calvin French Cemetery,United States,Rhode Island,Providence County,Moosup Valley,Moosup Valley,,41.7478299,-71.7940454,,,,human,true,
Griffiths Cemetery,United States,Rhode Island,Providence County,Moosup Valley,Moosup Valley,,41.7390526,-71.7900822,,,,human,true,
Captain Josiah Arnold Lot,United States,Rhode Island,Newport County,Clarks Village,Clarks Village,,41.4860049,-71.389562,,http://rihistoriccemeteries.org/newsearchcemeterydetail.aspx?ceme_no=JM004,,human,true,
Indian Lot - Cautantowwit's,United States,Rhode Island,Newport County,Jamestown,Jamestown,,41.4986825,-71.3800826,,http://rihistoriccemeteries.org/newsearchcemeterydetail.aspx?ceme_no=JM014,,human,true,
Governor Caleb Carr Lot,United States,Rhode Island,Newport County,Jamestown,Jamestown,,41.5205783,-71.3663637,,http://rihistoriccemeteries.org/newsearchcemeterydetail.aspx?ceme_no=JM001,,human,true,
Henry Tew Cemetery,United States,Rhode Island,Newport County,Jamestown Shores,Jamestown Shores,,41.5313705,-71.375682,,http://rihistoriccemeteries.org/newsearchcemeterydetail.aspx?ceme_no=JM007,,human,true,
St Mark's Catholic Cemetery,United States,Rhode Island,Newport County,Jamestown Shores,Jamestown Shores,,41.5299103,-71.3667066,,http://rihistoriccemeteries.org/newsearchcemeterydetail.aspx?ceme_no=JM009,,human,true,
Sands-Thompson Cemetery,United States,Rhode Island,Washington County,Block Island,Block Island,,41.2049377,-71.5690331,,http://rihistoriccemeteries.org/newsearchcemeterydetail.aspx?ceme_no=BI008,,human,true,
Dickens Cemetery,United States,Rhode Island,Washington County,Dunn Landing,Dunn Landing,,41.1560513,-71.6084331,,http://rihistoriccemeteries.org/newsearchcemeterydetail.aspx?ceme_no=BI006,,human,true,
Dea Wanton Allen Cemetery,United States,Rhode Island,Washington County,Dunn Landing,Dunn Landing,,41.1561839,-71.6084707,,http://rihistoriccemeteries.org/newsearchcemeterydetail.aspx?ceme_no=BI007,,human,true,
Jahleel Brenton Burial Ground,United States,Rhode Island,Newport County,Brenton Village,Brenton Village,,41.4725768,-71.3452018,,http://rihistoriccemeteries.org/newsearchcemeterydetail.aspx?ceme_no=NT033,,human,true,
Coggeshall Burial Ground,United States,Rhode Island,Newport County,Newport,Newport,,41.4686626,-71.3098709,,http://rihistoriccemeteries.org/newsearchcemeterydetail.aspx?ceme_no=NT016,,human,true,
Jonathan Easton Burial Ground,United States,Rhode Island,Newport County,Newport,Newport,,41.4814426,-71.3001421,,http://rihistoriccemeteries.org/newsearchcemeterydetail.aspx?ceme_no=NT015,,human,true,
John Clarke Burial Ground,United States,Rhode Island,Newport County,Newport,Newport,,41.4938001,-71.3112706,,http://rihistoriccemeteries.org/newsearchcemeterydetail.aspx?ceme_no=NT007,,human,true,
North Burial Cemetery,United States,Rhode Island,Newport County,Newport,Newport,,41.4979819,-71.3174212,,http://rihistoriccemeteries.org/newsearchcemeterydetail.aspx?ceme_no=NT005,,human,true,
Island Annex Cemetery,United States,Rhode Island,Newport County,Newport,Newport,,41.4994868,-71.3156666,,http://rihistoriccemeteries.org/newsearchcemeterydetail.aspx?ceme_no=NT002,,human,true,
Coaster's Harbor Smallpox Burial Ground,United States,Rhode Island,Newport County,Newport,Newport,,41.5079259,-71.3268844,,http://rihistoriccemeteries.org/newsearchcemeterydetail.aspx?ceme_no=NT024,,human,true,
Judge Anthony Wilbur Lot,United States,Rhode Island,Newport County,Newport,Newport,,41.4989352,-71.3018219,,http://rihistoriccemeteries.org/newsearchcemeterydetail.aspx?ceme_no=NT020,,human,true,
Isaac Peckham Lot,United States,Rhode Island,Newport County,Newport East,Newport East,,41.5046448,-71.2894105,,http://rihistoriccemeteries.org/newsearchcemeterydetail.aspx?ceme_no=MT028,,human,true,
George Irish Lot,United States,Rhode Island,Newport County,Newport East,Newport East,,41.5157091,-71.2985276,,http://rihistoriccemeteries.org/newsearchcemeterydetail.aspx?ceme_no=MT011,,human,true,
Rowland Robinson Lot,United States,Rhode Island,Washington County,Pettaquamscutt Lake Shores,Pettaquamscutt Lake Shores,,41.5006377,-71.4362924,,http://rihistoriccemeteries.org/newsearchcemeterydetail.aspx?ceme_no=NG013,,human,true,
Filex Peckham Lot,United States,Rhode Island,Newport County,Paradise Mobile Home Park,Paradise Mobile Home Park,,41.5001624,-71.279892,,http://rihistoriccemeteries.org/newsearchcemeterydetail.aspx?ceme_no=MT013,,human,true,
Franklin-Gardiner Cemetery,United States,Rhode Island,Washington County,South Ferry,South Ferry,,41.4922915,-71.4255148,,http://rihistoriccemeteries.org/newsearchcemeterydetail.aspx?ceme_no=NG010,,human,true,
Benjamin Stanton Lot,United States,Rhode Island,Washington County,South Ferry,South Ferry,,41.4937343,-71.4251861,,http://rihistoriccemeteries.org/newsearchcemeterydetail.aspx?ceme_no=NG011,,human,true,
Captain Thomas Truxton Havey Lot,United States,Rhode Island,Washington County,Bridgetown,Bridgetown,,41.4893418,-71.4496093,,http://rihistoriccemeteries.org/newsearchcemeterydetail.aspx?ceme_no=SK067,,human,true,
Col Ephriam Gardiner Lot,United States,Rhode Island,Washington County,Pettaquamscutt Lake Shores,Pettaquamscutt Lake Shores,,41.4904005,-71.4514876,,http://rihistoriccemeteries.org/newsearchcemeterydetail.aspx?ceme_no=SK087,,human,true,
Stephen Northup Lot,United States,Rhode Island,Washington County,Pettaquamscutt Lake Shores,Pettaquamscutt Lake Shores,,41.4958743,-71.4520835,,http://rihistoriccemeteries.org/newsearchcemeterydetail.aspx?ceme_no=SK071,,human,true,
Nicholas Easton Lot,United States,Rhode Island,Newport County,Paradise Mobile Home Park,Paradise Mobile Home Park,,41.4938554,-71.268197,,http://rihistoriccemeteries.org/newsearchcemeterydetail.aspx?ceme_no=MT014,,human,true,
John Peckham Lot,United States,Rhode Island,Newport County,Paradise Mobile Home Park,Paradise Mobile Home Park,,41.5015812,-71.2711938,,http://rihistoriccemeteries.org/newsearchcemeterydetail.aspx?ceme_no=MT023,,human,true,
Maj Henry Tew Burying Ground,United States,Rhode Island,Newport County,Paradise Mobile Home Park,Paradise Mobile Home Park,,41.4996632,-71.2716177,,http://rihistoriccemeteries.org/newsearchcemeterydetail.aspx?ceme_no=MT022,,human,true,
Barker Burying Ground,United States,Rhode Island,Newport County,Paradise Mobile Home Park,Paradise Mobile Home Park,,41.5045066,-71.262951,,http://rihistoriccemeteries.org/newsearchcemeterydetail.aspx?ceme_no=MT029,,human,true,
Philip Smith Lot,United States,Rhode Island,Newport County,Whitehall,Whitehall,,41.505663,-71.2520444,,http://rihistoriccemeteries.org/newsearchcemeterydetail.aspx?ceme_no=MT015,,human,true,
John Briggs Gould Lot,United States,Rhode Island,Newport County,Newport East,Newport East,,41.5292798,-71.2936333,,http://rihistoriccemeteries.org/newsearchcemeterydetail.aspx?ceme_no=MT054,,human,true,
John H Knowles Lot,United States,Rhode Island,Washington County,Seaweed Beach,Seaweed Beach,,41.3719148,-71.487699,,http://rihistoriccemeteries.org/newsearchcemeterydetail.aspx?ceme_no=NG015,,human,true,
William Knowles Lot,United States,Rhode Island,Washington County,Seaweed Beach,Seaweed Beach,,41.3756469,-71.4872571,,http://rihistoriccemeteries.org/newsearchcemeterydetail.aspx?ceme_no=NG001,,human,true,
Stephen Browning Lot,United States,Rhode Island,Washington County,Charlestown Beach,Charlestown Beach,,41.3739346,-71.6232184,,http://rihistoriccemeteries.org/newsearchcemeterydetail.aspx?ceme_no=CH056,,human,true,
Captain Edward Richmond Lot,United States,Rhode Island,Newport County,Little Compton,Little Compton,,41.5077895,-71.1945196,,http://rihistoriccemeteries.org/newsearchcemeterydetail.aspx?ceme_no=LC008,,human,true,
Carpenter Cemetery,United States,Rhode Island,Providence County,Rumford,Rumford,,41.8422069,-71.3533365,,http://rihistoriccemeteries.org/newsearchcemeterydetail.aspx?ceme_no=EP001,,human,true,
Springvale Cemetery,United States,Rhode Island,Providence County,Rumford,Rumford,,41.8437268,-71.3522576,,http://rihistoriccemeteries.org/newsearchcemeterydetail.aspx?ceme_no=EP002http://rihistoriccemeteries.org/newsearchcemeterydetail.aspx?ceme_no=EP002,,human,true,
Newman Cemetery,United States,Rhode Island,Providence County,Rumford,Rumford,,41.840064,-71.3503006,,http://rihistoriccemeteries.org/newsearchcemeterydetail.aspx?ceme_no=EP003,,human,true,
Rumford Cemetery,United States,Rhode Island,Providence County,East Providence Center,East Providence Center,,41.8382377,-71.3513674,,,,human,true,
Oliver Durfee Lot,United States,Rhode Island,Newport County,Middletown,Middletown,,41.5474139,-71.2954212,,http://rihistoriccemeteries.org/newsearchcemeterydetail.aspx?ceme_no=MT031,,human,true,
Thomas Coggeshall Farm Lot,United States,Rhode Island,Newport County,Lawtons,Lawtons,,41.5506486,-71.2988816,,http://rihistoriccemeteries.org/newsearchcemeterydetail.aspx?ceme_no=MT035,,human,true,
James Coggeshall Lot,United States,Rhode Island,Newport County,Middletown,Middletown,,41.5505175,-71.2908083,,http://rihistoriccemeteries.org/newsearchcemeterydetail.aspx?ceme_no=MT002,,human,true,
Nichols-Hassard Ground,United States,Rhode Island,Newport County,Middletown,Middletown,,41.554451,-71.2904362,,http://rihistoriccemeteries.org/newsearchcemeterydetail.aspx?ceme_no=PO022,,human,true,
Sisson-Carr Lot,United States,Rhode Island,Newport County,Middletown,Middletown,,41.5563031,-71.2809709,,http://rihistoriccemeteries.org/newsearchcemeterydetail.aspx?ceme_no=PO023,,human,true,
Captain George Lawton Lot,United States,Rhode Island,Newport County,Middletown,Middletown,,41.5591362,-71.2819181,,http://rihistoriccemeteries.org/newsearchcemeterydetail.aspx?ceme_no=PO018,,human,true,
Captain Job Lawton Lot,United States,Rhode Island,Newport County,Melville,Melville,,41.5660817,-71.2826685,,http://rihistoriccemeteries.org/newsearchcemeterydetail.aspx?ceme_no=PO020,,human,true,
Thomas Cornell Lot,United States,Rhode Island,Newport County,Lawtons,Lawtons,,41.5669881,-71.2892684,,http://rihistoriccemeteries.org/newsearchcemeterydetail.aspx?ceme_no=PO036,,human,true,
Friends Burying Ground,United States,Rhode Island,Newport County,Little Compton,Little Compton,,41.5244783,-71.1924984,,http://rihistoriccemeteries.org/newsearchcemeterydetail.aspx?ceme_no=LC007,,human,true,
John Irish Lot,United States,Rhode Island,Newport County,Little Compton,Little Compton,,41.5244655,-71.1937657,,http://rihistoriccemeteries.org/newsearchcemeterydetail.aspx?ceme_no=LC006,,human,true,
John Woodman Lot,United States,Rhode Island,Newport County,Tiverton Four Corners,Tiverton Four Corners,,41.536866,-71.1980819,,http://rihistoriccemeteries.org/newsearchcemeterydetail.aspx?ceme_no=LC005,,human,true,
Captain Sylvester Woodman Lot,United States,Rhode Island,Newport County,Tiverton Four Corners,Tiverton Four Corners,,41.5365377,-71.1987029,,http://rihistoriccemeteries.org/newsearchcemeterydetail.aspx?ceme_no=LC004,,human,true,
Mosher-Manchester Lot,United States,Rhode Island,Newport County,Eagleville,Eagleville,,41.6462892,-71.149413,,http://rihistoriccemeteries.org/newsearchcemeterydetail.aspx?ceme_no=TV069,,human,true,
Clark-Shaw Lot,United States,Rhode Island,Newport County,Eagleville,Eagleville,,41.650138,-71.1497871,,http://rihistoriccemeteries.org/newsearchcemeterydetail.aspx?ceme_no=TV070,,human,true,
George Durfee Lot,United States,Rhode Island,Newport County,Eagleville,Eagleville,,41.6505947,-71.1525467,,http://rihistoriccemeteries.org/newsearchcemeterydetail.aspx?ceme_no=TV072,,human,true,
Stephen Cook Lot,United States,Rhode Island,Newport County,North Tiverton,North Tiverton,,41.640367,-71.1859607,,http://rihistoriccemeteries.org/newsearchcemeterydetail.aspx?ceme_no=TV054,,human,true,
Moses Hunt Lot,United States,Rhode Island,Newport County,North Tiverton,North Tiverton,,41.6536489,-71.1845545,,http://rihistoriccemeteries.org/newsearchcemeterydetail.aspx?ceme_no=TV074,,human,true,
Isaac Sherman Lot,United States,Rhode Island,Newport County,North Tiverton,North Tiverton,,41.6572282,-71.1811579,,http://rihistoriccemeteries.org/newsearchcemeterydetail.aspx?ceme_no=TV058,,human,true,
Benjamin Borden Lot,United States,Rhode Island,Newport County,North Tiverton,North Tiverton,,41.6679029,-71.1891356,,http://rihistoriccemeteries.org/newsearchcemeterydetail.aspx?ceme_no=TV061,,human,true,
Friends Burial Ground,United States,Rhode Island,Newport County,The Hummocks,The Hummocks,,41.6359706,-71.2080057,,http://rihistoriccemeteries.org/newsearchcemeterydetail.aspx?ceme_no=TV045,,human,true,
Benjamin Barton Lot,United States,Rhode Island,Bristol County,Touisset Highlands,Touisset Highlands,,41.722438,-71.2457943,,http://rihistoriccemeteries.org/newsearchcemeterydetail.aspx?ceme_no=WR005,,human,true,
Captain Benjamin Barton Lot,United States,Rhode Island,Bristol County,Touisset Highlands,Touisset Highlands,,41.717421,-71.24649,,http://rihistoriccemeteries.org/newsearchcemeterydetail.aspx?ceme_no=WR007,,human,true,
Daniel Cole Burial Ground,United States,Rhode Island,Bristol County,East Warren,East Warren,,41.7292901,-71.2559703,,http://rihistoriccemeteries.org/newsearchcemeterydetail.aspx?ceme_no=WR012,,human,true,
Butterworth Cemetery,United States,Rhode Island,Bristol County,East Warren,East Warren,,41.7360265,-71.2487562,,http://rihistoriccemeteries.org/newsearchcemeterydetail.aspx?ceme_no=WR004,,human,true,
John Brown Lot,United States,Rhode Island,Bristol County,East Warren,East Warren,,41.7384125,-71.2498585,,http://rihistoriccemeteries.org/newsearchcemeterydetail.aspx?ceme_no=WR016,,human,true,
Kickemuit Cemetery,United States,Rhode Island,Bristol County,East Warren,East Warren,,41.7383184,-71.2617171,,http://rihistoriccemeteries.org/newsearchcemeterydetail.aspx?ceme_no=WR003,,human,true,
Obadiah Bowen Lot,United States,Rhode Island,Bristol County,Maxfields Corner,Maxfields Corner,,41.7401373,-71.27172,,http://rihistoriccemeteries.org/newsearchcemeterydetail.aspx?ceme_no=WR014,,human,true,
Captain Edward Mason Lot,United States,Rhode Island,Bristol County,Maxfields Corner,Maxfields Corner,,41.747161,-71.2742674,,http://rihistoriccemeteries.org/newsearchcemeterydetail.aspx?ceme_no=WR015,,human,true,
Saint Alexander Cemetery,United States,Rhode Island,Bristol County,Laurel Park,Laurel Park,,41.7230284,-71.2726822,,http://rihistoriccemeteries.org/newsearchcemeterydetail.aspx?ceme_no=WR008,,human,true,
Saint Mary of the Bay Cemetery,United States,Rhode Island,Bristol County,Beach Terrace,Beach Terrace,,41.7228502,-71.2754287,,http://rihistoriccemeteries.org/newsearchcemeterydetail.aspx?ceme_no=WR010,,human,true,
Shaw & Seabury Lot,United States,Rhode Island,Newport County,Bahia Corner,Bahia Corner,,41.4893539,-71.147653,,http://rihistoriccemeteries.org/newsearchcemeterydetail.aspx?ceme_no=LC018,,human,true,
Joseph Brownell Lot,United States,Rhode Island,Newport County,Bahia Corner,Bahia Corner,,41.4847708,-71.1508032,,http://rihistoriccemeteries.org/newsearchcemeterydetail.aspx?ceme_no=LC017,,human,true,
William Briggs Lot,United States,Rhode Island,Newport County,Bahia Corner,Bahia Corner,,41.4859404,-71.1568934,,http://rihistoriccemeteries.org/newsearchcemeterydetail.aspx?ceme_no=LC016,,human,true,
Thomas Brownell Lot,United States,Rhode Island,Newport County,Bahia Corner,Bahia Corner,,41.5043187,-71.1442387,,http://rihistoriccemeteries.org/newsearchcemeterydetail.aspx?ceme_no=LC029,,human,true,
Wilbor-Tripp Lot,United States,Rhode Island,Newport County,Bahia Corner,Bahia Corner,,41.5076394,-71.145319,,http://rihistoriccemeteries.org/newsearchcemeterydetail.aspx?ceme_no=LC027,,human,true,
Sowle Lot,United States,Rhode Island,Newport County,Bahia Corner,Bahia Corner,,41.507414,-71.1458636,,http://rihistoriccemeteries.org/newsearchcemeterydetail.aspx?ceme_no=LC028,,human,true,
Seaconnet Cemetery,United States,Rhode Island,Newport County,Bahia Corner,Bahia Corner,,41.4907703,-71.1834904,,http://rihistoriccemeteries.org/newsearchcemeterydetail.aspx?ceme_no=LC010,,human,true,
Old Wilbor Burying Ground,United States,Rhode Island,Newport County,Little Compton,Little Compton,,41.4924559,-71.1831578,,http://rihistoriccemeteries.org/newsearchcemeterydetail.aspx?ceme_no=LC009,,human,true,
Joseph Wilbor Cemetery,United States,Rhode Island,Newport County,Little Compton,Little Compton,,41.5059567,-71.1697754,,http://rihistoriccemeteries.org/newsearchcemeterydetail.aspx?ceme_no=LC013,,human,true,
Our Lady of Fatima Cemetery,United States,Rhode Island,Newport County,Bahia Corner,Bahia Corner,,41.5011432,-71.1679234,,http://rihistoriccemeteries.org/newsearchcemeterydetail.aspx?ceme_no=LC014,,human,true,
Briggs Brownell Lot,United States,Rhode Island,Newport County,Bahia Corner,Bahia Corner,,41.4980099,-71.1627225,,http://rihistoriccemeteries.org/newsearchcemeterydetail.aspx?ceme_no=LC015,,human,true,
Manley Burying Ground,United States,Rhode Island,Newport County,Pottersville,Pottersville,,41.5154528,-71.1270961,,http://rihistoriccemeteries.org/newsearchcemeterydetail.aspx?ceme_no=LC045,,human,true,
