name,country,state,county,city,street_address,zip_code,latitude,longitude,email,website,phone_number,type,is_operational,description
Allen Cemetery,United States,South Carolina,Beaufort County,Pritchard,Pritchard,,32.2304782,-81.0009438,,,,human,true,
Allen Chapel Cemetery,United States,South Carolina,Allendale County,Coalla (historical),Coalla (historical),,33.0104348,-81.2609403,,,,human,true,
Arm Oak Cemetery,United States,South Carolina,Jasper County,Deerfield,Deerfield,,32.4179675,-81.1114977,,,,human,true,
Banks Cemetery,United States,South Carolina,Lexington County,Leesville,Leesville,,33.8962551,-81.50427,,,,human,true,
Banks Cemetery,United States,South Carolina,Lexington County,Ridge Road Crossroads,Ridge Road Crossroads,,33.9657481,-81.5020199,,,,human,true,
Bates Cemetery,United States,South Carolina,Saluda County,Hibernia,Hibernia,,33.8968085,-81.5701043,,,,human,true,
Bates Cemetery,United States,South Carolina,Lexington County,Batesburg,Batesburg,,33.9106974,-81.5598264,,,,human,true,
Bath Cemetery,United States,South Carolina,Aiken County,Bath,Bath,,33.5126368,-81.8678906,,,,human,true,
Bland Cemetery,United States,South Carolina,Edgefield County,Mathais Crossroads,Mathais Crossroads,,33.8387445,-81.886779,,,,human,true,
Bodie Cemetery,United States,South Carolina,Saluda County,Holston Crossroads,Holston Crossroads,,33.9609727,-81.6017714,,,,human,true,
Bouknight Cemetery,United States,South Carolina,Saluda County,Holston Crossroads,Holston Crossroads,,33.9476408,-81.5628821,,,,human,true,
Bouknight Cemetery,United States,South Carolina,Saluda County,Holston Crossroads,Holston Crossroads,,33.9643069,-81.5709377,,,,human,true,
Brown Cemetery,United States,South Carolina,Allendale County,Milbury,Milbury,,32.9048827,-81.4089956,,,,human,true,
Brown Cemetery,United States,South Carolina,Aiken County,Eureka,Eureka,,33.6879152,-81.7726087,,,,human,true,
Brown Cemetery,United States,South Carolina,Lexington County,Chinquapin Falls,Chinquapin Falls,,33.8251437,-81.5667708,,,,human,true,
Busbee Cemetery,United States,South Carolina,Aiken County,Baynham (historical),Baynham (historical),,33.7273596,-81.7703861,,,,human,true,
Butler Cemetery,United States,South Carolina,Lexington County,Leesville,Leesville,,33.9481974,-81.5267704,,,,human,true,
Carver Cemetery,United States,South Carolina,Saluda County,Blacks,Blacks,,33.9395824,-81.6670501,,,,human,true,
Cedar Branch Cemetery,United States,South Carolina,Aiken County,Apia (historical),Apia (historical),,33.5312557,-81.5326064,,,,human,true,
Clark Cemetery,United States,South Carolina,Aiken County,Vaucluse,Vaucluse,,33.6198597,-81.7764984,,,,human,true,
Clark Cemetery,United States,South Carolina,Saluda County,Ward,Ward,,33.8115271,-81.72094,,,,human,true,
Cohen Cemetery,United States,South Carolina,Allendale County,Milbury,Milbury,,32.9009941,-81.3951065,,,,human,true,
Corley Cemetery,United States,South Carolina,Saluda County,Hibernia,Hibernia,,33.899307,-81.6153828,,,,human,true,
Courtney Cemetery,United States,South Carolina,Aiken County,Plunket (historical),Plunket (historical),,33.6570878,-81.6026059,,,,human,true,
Cullum Cemetery,United States,South Carolina,Aiken County,Merritts Bridge (historical),Merritts Bridge (historical),,33.7109771,-81.6012163,,,,human,true,
Cumbee Cemetery,United States,South Carolina,Aiken County,Camp Long,Camp Long,,33.7312528,-81.656217,,,,human,true,
Davis Cemetery,United States,South Carolina,Hampton County,Shirley,Shirley,,32.6707284,-81.3170486,,,,human,true,
DeLoach Cemetery,United States,South Carolina,Edgefield County,Harmony,Harmony,,33.7906903,-81.8584445,,,,human,true,
Etheredge Cemetery,United States,South Carolina,Saluda County,Delmar,Delmar,,33.9931958,-81.541493,,,,human,true,
Flat Rock Cemetery,United States,South Carolina,Saluda County,Ridge Spring,Ridge Spring,,33.8279179,-81.6628836,,,,human,true,
Flowers Cemetery,United States,South Carolina,Allendale County,Milbury,Milbury,,32.9168268,-81.3937177,,,,human,true,
Folger Cemetery,United States,South Carolina,Allendale County,Milbury,Milbury,,32.9104382,-81.3926066,,,,human,true,
Fouts Cemetery,United States,South Carolina,Saluda County,Holston Crossroads,Holston Crossroads,,33.9634732,-81.5831601,,,,human,true,
Frazier Cemetery,United States,South Carolina,Edgefield County,Edgefield,Edgefield,,33.7754112,-81.9198356,,,,human,true,
Galphin Cemetery,United States,South Carolina,Aiken County,Spiderweb,Spiderweb,,33.3823637,-81.8195573,,,,human,true,
Garvin Cemetery,United States,South Carolina,Allendale County,Milbury,Milbury,,32.9015496,-81.4028844,,,,human,true,
Garret Cemetery,United States,South Carolina,Jasper County,Limehouse,Limehouse,,32.2004792,-81.087334,,,,human,true,
Glover Cemetery,United States,South Carolina,Aiken County,Russell Hill,Russell Hill,,33.445417,-81.8265013,,,,human,true,
Gosset Cemetery,United States,South Carolina,Saluda County,Holston Crossroads,Holston Crossroads,,33.9437508,-81.6048271,,,,human,true,
Gregory Cemetery,United States,South Carolina,Aiken County,Camp Long,Camp Long,,33.7459743,-81.6753839,,,,human,true,
Hallman Cemetery,United States,South Carolina,Lexington County,Kneece,Kneece,,33.8520889,-81.5256591,,,,human,true,
Hill Cemetery,United States,South Carolina,Hampton County,Shirley,Shirley,,32.6598959,-81.2923261,,,,human,true,
Hill Cemetery,United States,South Carolina,Saluda County,Limp,Limp,,33.9834662,-81.8339995,,,,human,true,
Magdalene Cemetery,United States,South Carolina,Allendale County,Milbury,Milbury,,32.9248817,-81.4253848,,,,human,true,
Marsh Cemetery,United States,South Carolina,Edgefield County,Huets Crossroads,Huets Crossroads,,33.7554127,-81.8701115,,,,human,true,
McGee Cemetery,United States,South Carolina,Saluda County,Blacks,Blacks,,33.9359716,-81.6601056,,,,human,true,
Mew Cemetery,United States,South Carolina,Jasper County,Switzerland,Switzerland,,32.4354675,-81.0237198,,,,human,true,
Millpond Cemetery,United States,South Carolina,Hampton County,Shirley,Shirley,,32.6854501,-81.2851035,,,,human,true,
Mitchell Cemetery,United States,South Carolina,Saluda County,Delmar,Delmar,,33.978752,-81.5284372,,,,human,true,
Mitchell Cemetery,United States,South Carolina,Saluda County,Holston Crossroads,Holston Crossroads,,33.989306,-81.5823268,,,,human,true,
Mount Pisgah Cemetery,United States,South Carolina,Aiken County,Seiglers Crossroads,Seiglers Crossroads,,33.635419,-81.658996,,,,human,true,
Needham Brown Cemetery,United States,South Carolina,Aiken County,Ridgecrest,Ridgecrest,,33.635138,-81.748164,,,,human,true,
Norris Cemetery,United States,South Carolina,Lexington County,Batesburg,Batesburg,,33.9248636,-81.5634376,,,,human,true,
Old Langley Cemetery,United States,South Carolina,Aiken County,Langley,Langley,,33.5131927,-81.8409454,,,,human,true,
Old Lawtonville Cemetery,United States,South Carolina,Hampton County,Martins Landing,Martins Landing,,32.7173919,-81.36316,,,,human,true,
Parker Cemetery,United States,South Carolina,Jasper County,Levy,Levy,,32.173259,-81.0403891,,,,human,true,
Pelot Cemetery,United States,South Carolina,Jasper County,Limehouse,Limehouse,,32.2396438,-81.0890007,,,,human,true,
Pelote Cemetery,United States,South Carolina,Jasper County,Hardeeville,Hardeeville,,32.268809,-81.0690001,,,,human,true,
Plunkett Cemetery,United States,South Carolina,Aiken County,Couchton,Couchton,,33.5915318,-81.6045511,,,,human,true,
Plunkett Cemetery,United States,South Carolina,Aiken County,Plunket (historical),Plunket (historical),,33.6770876,-81.6114947,,,,human,true,
Prater Cemetery,United States,South Carolina,Saluda County,Holston Crossroads,Holston Crossroads,,33.9773615,-81.5923269,,,,human,true,
Quattlebaum Cemetery,United States,South Carolina,Lexington County,Chinquapin Falls,Chinquapin Falls,,33.851811,-81.5312148,,,,human,true,
Raiford Cemetery,United States,South Carolina,Saluda County,Ward,Ward,,33.8287498,-81.7003842,,,,human,true,
Risinger Cemetery,United States,South Carolina,Lexington County,Leesville,Leesville,,33.9340318,-81.5034367,,,,human,true,
Rutland Cemetery,United States,South Carolina,Saluda County,Ridge Spring,Ridge Spring,,33.8090284,-81.6876062,,,,human,true,
Saint James Cemetery,United States,South Carolina,Lexington County,Leesville,Leesville,,33.9331978,-81.5262149,,,,human,true,
Saint Marks Cemetery,United States,South Carolina,Aiken County,Hollow Creek,Hollow Creek,,33.4368068,-81.7692778,,,,human,true,
Saint Pauls Cemetery,United States,South Carolina,Lexington County,Silver Lake,Silver Lake,,33.885487,-81.0311528,,,,human,true,
Sanders Cemetery,United States,South Carolina,Aiken County,Camp Gravatt,Camp Gravatt,,33.7570858,-81.6617724,,,,human,true,
Saucie Cemetery,United States,South Carolina,Jasper County,Mill Stone Landing,Mill Stone Landing,,32.2688088,-81.1120562,,,,human,true,
Sawyer Cemetery,United States,South Carolina,Saluda County,Hibernia,Hibernia,,33.8770871,-81.5589931,,,,human,true,
Seigler Cemetery,United States,South Carolina,Aiken County,Seiglers Crossroads,Seiglers Crossroads,,33.641808,-81.6570514,,,,human,true,
Seigler Cemetery,United States,South Carolina,Aiken County,Seiglers Crossroads,Seiglers Crossroads,,33.6470855,-81.6631625,,,,human,true,
Shealy Cemetery,United States,South Carolina,Lexington County,Kneece,Kneece,,33.8687547,-81.5381593,,,,human,true,
Simkin Cemetery,United States,South Carolina,Edgefield County,Edgefield,Edgefield,,33.8276329,-81.9153913,,,,human,true,
Striker Cemetery,United States,South Carolina,Allendale County,Milbury,Milbury,,32.8982165,-81.4009398,,,,human,true,
Strobhar Cemetery,United States,South Carolina,Jasper County,Baker Hill,Baker Hill,,32.4060235,-81.1273312,,,,human,true,
Thraikill Cemetery,United States,South Carolina,Aiken County,Monetta,Monetta,,33.8820849,-81.6212162,,,,human,true,
Warren Cemetery,United States,South Carolina,Saluda County,Holston Crossroads,Holston Crossroads,,33.9373619,-81.6092715,,,,human,true,
Watson Cemetery,United States,South Carolina,Saluda County,Ridge Spring,Ridge Spring,,33.8676391,-81.6714948,,,,human,true,
Watson Cemetery,United States,South Carolina,Aiken County,Monetta,Monetta,,33.8684741,-81.6212162,,,,human,true,
Weeks Cemetery,United States,South Carolina,Aiken County,Couchton,Couchton,,33.592086,-81.6412184,,,,human,true,
White Hardee Cemetery,United States,South Carolina,Jasper County,Morgan,Morgan,,32.3124178,-81.0773328,,,,human,true,
Whittle Cemetery,United States,South Carolina,Saluda County,Holston Crossroads,Holston Crossroads,,33.9404171,-81.6206606,,,,human,true,
Whittle Cemetery,United States,South Carolina,Saluda County,Holston Crossroads,Holston Crossroads,,33.9648616,-81.5978826,,,,human,true,
Williams Cemetery,United States,South Carolina,Beaufort County,Pritchard,Pritchard,,32.2321446,-81.0162218,,,,human,true,
Winkler Cemetery,United States,South Carolina,Jasper County,Berrys Landing,Berrys Landing,,32.4238,-81.1567752,,,,human,true,
Wise Cemetery,United States,South Carolina,Saluda County,Holston Crossroads,Holston Crossroads,,33.97264,-81.569271,,,,human,true,
Wright Cemetery,United States,South Carolina,Edgefield County,Mathais Crossroads,Mathais Crossroads,,33.9095781,-81.8387218,,,,human,true,
Zion Hill Cemetery,United States,South Carolina,Bamberg County,Finland,Finland,,33.3582102,-81.107322,,,,human,true,
Hardy Cemetery,United States,South Carolina,Jasper County,Turnbridge Landing,Turnbridge Landing,,32.159371,-81.0303891,,,,human,true,
Bordeaux Cemetery,United States,South Carolina,McCormick County,Bordeaux,Bordeaux,,33.9259559,-82.4215176,,,,human,true,
Canfield Cemetery,United States,South Carolina,McCormick County,Dornville (historical),Dornville (historical),,33.8834591,-82.2448459,,,,human,true,
Cochran Cemetery,United States,South Carolina,McCormick County,Bethany (historical),Bethany (historical),,33.8556842,-82.1128978,,,,human,true,
Dorn Cemetery,United States,South Carolina,Edgefield County,Meeting Street,Meeting Street,,33.9471173,-81.9571333,,,,human,true,
Griffis Cemetery,United States,South Carolina,Edgefield County,Cleora,Cleora,,33.8587407,-82.0459515,,,,human,true,
Hamilton Cemetery,United States,South Carolina,Edgefield County,Limestone,Limestone,,33.9156847,-82.0265071,,,,human,true,
Harling Cemetery,United States,South Carolina,Edgefield County,Lime Stone (historical),Lime Stone (historical),,33.9445732,-82.0206739,,,,human,true,
Hegwood Cemetery,United States,South Carolina,Edgefield County,Pleasant Lane,Pleasant Lane,,33.9131851,-82.0040065,,,,human,true,
Hollingsworth-Walker Cemetery,United States,South Carolina,Edgefield County,Antioch,Antioch,,33.8079089,-82.002061,,,,human,true,
Horne Cemetery,United States,South Carolina,Edgefield County,Crafton (historical),Crafton (historical),,33.6309679,-81.9453922,,,,human,true,
Martin Cemetery,United States,South Carolina,Edgefield County,West Store Crossroads,West Store Crossroads,,33.7490203,-82.0484506,,,,human,true,
Meeting Grove Cemetery,United States,South Carolina,Edgefield County,Huntington Estates,Huntington Estates,,33.589579,-81.9787266,,,,human,true,
Moss Cemetery,United States,South Carolina,Edgefield County,Brunson Crossroads,Brunson Crossroads,,33.8151299,-82.0817853,,,,human,true,
Penn Cemetery,United States,South Carolina,Greenwood County,Sheppard Crossroads,Sheppard Crossroads,,33.9915159,-82.0659533,,,,human,true,
Prescott Cemetery,United States,South Carolina,Edgefield County,Millers Crossroads,Millers Crossroads,,33.7484641,-82.1037298,,,,human,true,
Pressley Cemetery,United States,South Carolina,Edgefield County,Cleora,Cleora,,33.8587411,-82.0234509,,,,human,true,
Breland Cemetery,United States,South Carolina,Bamberg County,Bufords Bridge,Bufords Bridge,,33.0990469,-81.120937,,,,human,true,
Ehrhardt Cemetery,United States,South Carolina,Allendale County,Tuten (historical),Tuten (historical),,33.0951582,-81.110659,,,,human,true,
Folk Cemetery,United States,South Carolina,Bamberg County,Clear Pond,Clear Pond,,33.2048808,-81.0025987,,,,human,true,
Kearse Cemetery,United States,South Carolina,Bamberg County,Bufords Bridge,Bufords Bridge,,33.1101581,-81.101492,,,,human,true,
Kirkland Cemetery,United States,South Carolina,Bamberg County,Bufords Bridge,Bufords Bridge,,33.1151571,-81.1656599,,,,human,true,
Mitchell Cemetery,United States,South Carolina,Bamberg County,Springtown,Springtown,,33.2154353,-81.0673225,,,,human,true,
Asbill Cemetery,United States,South Carolina,Saluda County,Hibernia,Hibernia,,33.886807,-81.6234384,,,,human,true,
Jones Cemetery,United States,South Carolina,Edgefield County,Johnston,Johnston,,33.8484695,-81.7692745,,,,human,true,
Norris Cemetery,United States,South Carolina,Saluda County,Hibernia,Hibernia,,33.8981975,-81.5681598,,,,human,true,
Trinity Cemetery,United States,South Carolina,Allendale County,Ruddell (historical),Ruddell (historical),,32.8740508,-81.4056618,,,,human,true,
Bachman Cemetery,United States,South Carolina,Lexington County,Swansea,Swansea,,33.7534856,-81.1575975,,,,human,true,
Baughman Cemetery,United States,South Carolina,Lexington County,Charwood,Charwood,,33.888487,-81.0673161,,,,human,true,
Boatwright Cemetery,United States,South Carolina,Lexington County,Mims,Mims,,33.8629234,-81.4706584,,,,human,true,
Hooker Cemetery,United States,South Carolina,Lexington County,Thor,Thor,,33.6729291,-81.2045446,,,,human,true,
Jeffcoat-Chaney Cemetery,United States,South Carolina,Lexington County,Pelion,Pelion,,33.7218186,-81.1778764,,,,human,true,
Black Creek Cemetery,United States,South Carolina,Lexington County,Fairview Crossroads,Fairview Crossroads,,33.7890381,-81.3392681,,,,human,true,
Leaird Cemetery,United States,South Carolina,Lexington County,Swansea,Swansea,,33.7143187,-81.1720429,,,,human,true,
Lightner-Christian Cemetery,United States,South Carolina,Lexington County,Lazy Day Acres,Lazy Day Acres,,33.9870872,-81.4420471,,,,human,true,
Reese Cemetery,United States,South Carolina,Lexington County,Dixiana,Dixiana,,33.9218207,-81.0575934,,,,human,true,
Reichter-Richter Cemetery,United States,South Carolina,Lexington County,Sharpes Hill,Sharpes Hill,,33.784597,-81.1284297,,,,human,true,
Nimmons Cemetery,United States,South Carolina,Bamberg County,Govan,Govan,,33.2173779,-81.175659,,,,human,true,
Pisgah Cemetery,United States,South Carolina,Lexington County,Lexing-Town Estates,Lexing-Town Estates,,33.9613308,-81.2965509,,,,human,true,
Shiloh Cemetery,United States,South Carolina,Lexington County,Clubhouse Crossroads,Clubhouse Crossroads,,33.9770979,-81.3755043,,,,human,true,
House of Peace Cemetery,United States,South Carolina,Richland County,Wales Garden,Wales Garden,,33.988282,-81.0244775,,,,human,true,
Mount Vernon Cemetery,United States,South Carolina,Edgefield County,Mayson Crossroads,Mayson Crossroads,,33.9603514,-82.0919469,,,,human,true,
McCormick City Cemetery,United States,SC,McCormick County,McCormick,303 South Mine Street,29835,33.908077,-82.293667,,,,human,true,
Troy Cemetery,United States,South Carolina,Greenwood County,Troy,Troy,,33.9873136,-82.2878036,,,,human,true,
Saint James Cemetery,United States,South Carolina,Orangeburg County,North,North,,33.6126486,-81.1172096,,,,human,true,
Saint James Cemetery,United States,South Carolina,Lexington County,Summit,Summit,,33.9227354,-81.4224056,,,,human,true,
Old Salem Cemetery,United States,South Carolina,Lexington County,Ridge Road Crossroads,Ridge Road Crossroads,,33.9907888,-81.4536736,,,,human,true,
Bethany Cemetery,United States,South Carolina,Aiken County,Aiken,Aiken,,33.570135,-81.7177286,,,,human,true,
Pine Lawn Memorial Gardens,United States,South Carolina,Aiken County,Pinecrest,Pinecrest,,33.5702339,-81.7242974,,,,human,true,
Wesley Chapel Christian Methodist Episcopal Church Cemetery,United States,South Carolina,Saluda County,Holston Crossroads,Holston Crossroads,,33.9663253,-81.5847151,,,,human,true,
George Gross Cemetery,United States,South Carolina,Lexington County,Lakeland,Lakeland,,33.9881034,-81.246043,,,,human,true,
Olympia Cemetery,United States,South Carolina,Richland County,Olympia,Olympia,,33.9709763,-81.0339312,,,,human,true,
Badwell Cemetery,United States,South Carolina,McCormick County,Buffalo,Buffalo,,33.9261848,-82.3790797,,,,human,true,
Fairfax Cemetery,United States,South Carolina,Allendale County,Fairfax,Fairfax,,32.9666758,-81.2386853,,,,human,true,
Emmanuel Lutheran Church Cemetery,United States,South Carolina,Lexington County,Cedarwood,Cedarwood,,33.9337176,-81.1454697,,,,human,true,
Blackville Cemetery,United States,South Carolina,Barnwell County,Blackville,Blackville,,33.3491101,-81.2828926,,,,human,true,
Gunter-Swedenburg Cemetery,United States,South Carolina,Aiken County,Chaffee (historical),Chaffee (historical),,33.6828127,-81.3900675,,,,human,true,
Barnwell County Memorial Cemetary,United States,South Carolina,Barnwell County,Happy Bottom,Happy Bottom,,33.2701987,-81.3844193,,,,human,true,
Memorial Gardens Cemetery,United States,South Carolina,Barnwell County,Yale (historical),Yale (historical),,33.2803087,-81.35038,,,,human,true,
Hampton Cemetery,United States,South Carolina,Hampton County,Hampton,Hampton,,32.8588312,-81.1081075,,,,human,true,
Varnville Cemetery,United States,South Carolina,Hampton County,Varnville,Varnville,,32.8589498,-81.08507,,,,human,true,
Hope Memorial Park,United States,South Carolina,Barnwell County,Yale (historical),Yale (historical),,33.282386,-81.3373678,,,,human,true,
Seay-Wessinger Cemetary,United States,South Carolina,Lexington County,Peters,Peters,,33.9894205,-81.3301539,,,,human,true,
Mount Hermon Cemetery,United States,South Carolina,Lexington County,Woodsen,Woodsen,,33.9957686,-81.1202676,,,,human,true,
Holley Cemetery,United States,South Carolina,Aiken County,Dry Branch,Dry Branch,,33.4608982,-81.7412748,,,,human,true,
Mount Pleasant Church Cemetery,United States,South Carolina,Lexington County,Althea (historical),Althea (historical),,33.8305515,-81.4422538,,,,human,true,
Lexington Memorial Cemetery,United States,South Carolina,Lexington County,Creekwood,Creekwood,,33.9808358,-81.2742282,,,,human,true,
Graniteville Cemetery,United States,South Carolina,Aiken County,Gregg Park,Gregg Park,,33.5676609,-81.7951224,,,,human,true,
Derrick Cemetery,United States,South Carolina,Lexington County,Ridge Road Crossroads,Ridge Road Crossroads,,33.9829828,-81.4813078,,,,human,true,
Mount of Olives Cemetery,United States,South Carolina,Edgefield County,Johnston,Johnston,,33.8360971,-81.8036058,,,,human,true,
Southland Memorial Gardens,United States,South Carolina,Lexington County,Cedarwood,Cedarwood,,33.9308465,-81.1367366,,,,human,true,
Harris Cemetery,United States,South Carolina,Saluda County,Jones Crossroads,Jones Crossroads,,33.9557057,-81.6385831,,,,human,true,
Barnwell Baptist Church Cemetary,United States,South Carolina,Barnwell County,Hells Half Acre,Hells Half Acre,,33.2440442,-81.3671206,,,,human,true,
Overbrook Cemetery,United States,South Carolina,McCormick County,McCormick,McCormick,,33.9253523,-82.2801388,,,,human,true,
Willington Cemetery,United States,South Carolina,McCormick County,Willington,Willington,,33.9570077,-82.4761345,,,,human,true,
Aiken Memorial Gardens,United States,South Carolina,Aiken County,Hillview,Hillview,,33.6104946,-81.7281036,,,,human,true,
Thames Cemetery,United States,South Carolina,Hampton County,Horsegall,Horsegall,,32.7779474,-81.0476717,,,,human,true,
Swallow Savanna Cemetery,United States,South Carolina,Allendale County,Moores Crossroads,Moores Crossroads,,32.9930553,-81.3238245,,,,human,true,
Bethel Cemetery,United States,SC,Lexington County,Lexington,Lexington,29073,33.8339803,-81.2008339,,,,human,true,
The Batesburg Cemetery,United States,South Carolina,Lexington County,Batesburg,Batesburg,,33.8993258,-81.547332,,,,human,true,
Old Union Cemetery,United States,South Carolina,Bamberg County,Finland,Finland,,33.3940191,-81.0633114,,,,human,true,
New Garret Cemetery,United States,South Carolina,Jasper County,Limehouse,Limehouse,,32.2244261,-81.0768207,,,,human,true,
New Light U.M. Church Cemetery-Bethel Site,United States,South Carolina,Orangeburg County,Livingston,Livingston,,33.5594682,-81.113726,,,,human,true,
Johnson-St. Pauls Cemetery,United States,South Carolina,Hampton County,Hampton,Hampton,,32.8832986,-81.1063896,,,,human,true,
Crocketville Cemetery,United States,SC,Hampton County,Hampton,Hampton,29924,32.9179764,-81.0788032,,,,human,true,
Gooding Cemetery,United States,SC,Hampton County,Crocketville,Crocketville,,32.9104032,-81.0706348,,,,human,true,
Clifton Cemetery,United States,South Carolina,Hampton County,Crocketville,Crocketville,,32.8974878,-81.0354468,,,,human,true,
Sandy Run Cemetery,United States,South Carolina,Hampton County,Crocketville,Crocketville,,32.8946339,-81.0445252,,,,human,true,
Ridge Crest Cemetery,United States,South Carolina,Lexington County,Batesburg-Leesville,Batesburg-Leesville,,33.9185369,-81.5368158,,,,human,true,
Jerusalem Baptist Church Cemetery,United States,South Carolina,Orangeburg County,Wolfton,Wolfton,,33.6030029,-81.0384554,,,,human,true,
Plum Branch Cemetery,United States,South Carolina,McCormick County,Plum Branch,Plum Branch,,33.851517,-82.2529449,,,,human,true,
New Hope Cemetery,United States,South Carolina,McCormick County,Plum Branch,Plum Branch,,33.8742998,-82.2491286,,,,human,true,
Holy Rock Cemetery,United States,South Carolina,McCormick County,Willington,Willington,,33.9475581,-82.4767145,,,,human,true,
Boozer Family Cemetery,United States,SC,Lexington County,Lexington,346 West Butler Street,,33.9864543,-81.2422435,,,,human,true,
Family Cemetery,United States,SC,Lexington County,Lexington,Baskin Hills Road,,33.9922204,-81.1851765,,,,human,true,
Dust to Dust Green Burial and Nature Reserve Cemetery,United States,SC,Lexington County,Swansea,205 Nulty Crossing Road,29160,33.757013,-81.1288626,,,,human,true,
Zubly Cemetery,United States,South Carolina,Aiken County,Savanna Town (historical),Savanna Town (historical),,33.4057818,-81.9003161,,,,human,true,
Ridge Springs Cemetery,United States,South Carolina,Saluda County,Ridge Spring,Ridge Spring,,33.8461802,-81.6452797,,,,human,true,
Buffalo Cemetery,United States,South Carolina,McCormick County,Buffalo,Buffalo,,33.9489487,-82.3723701,,,,human,true,
Sand Hill Gardens,United States,South Carolina,Aiken County,Spring Branch (historical),Spring Branch (historical),,33.4710429,-81.4064021,,,,human,true,
Denmark Cemetery,United States,South Carolina,Bamberg County,Sato,Sato,,33.3342124,-81.1193293,,,,human,true,
Gassaway Cemetery,United States,SC,Saluda County,Saluda,Saluda,29138,33.9894223,-81.8356688,,,,human,true,
Sunset Hill Cemetery,United States,South Carolina,Aiken County,Savannah Terrace,Savannah Terrace,,33.4974753,-81.9815776,,,,human,true,
County of Lexington Cemetery,United States,SC,Lexington County,Batesburg-Leesville,729 South Lee Street,29006,33.8925878,-81.5114043,,,,human,true,
Sardis Cemetery,United States,South Carolina,Aiken County,Salley,Salley,,33.5734421,-81.3166909,,,,human,true,
Fairfield Cemetery,United States,South Carolina,Aiken County,Johnson Crossroads,Johnson Crossroads,,33.3846871,-81.6486688,,,,human,true,
Woods Cemetery,United States,South Carolina,Barnwell County,Snelling,Snelling,,33.3174684,-81.491109,,,,human,true,
Old Field Cemetery,United States,South Carolina,Barnwell County,Long Branch,Long Branch,,33.3370241,-81.4602706,,,,human,true,
Singleton Cemetery,United States,South Carolina,Barnwell County,Dunbarton (historical),Dunbarton (historical),,33.1961795,-81.5354568,,,,human,true,
Dunbar Cemetery,United States,South Carolina,Barnwell County,Dunbarton (historical),Dunbarton (historical),,33.1836792,-81.5339529,,,,human,true,
Walker Cemetery,United States,South Carolina,Barnwell County,Patterson Mill,Patterson Mill,,33.1618193,-81.5147774,,,,human,true,
Williams Cemetery,United States,South Carolina,Barnwell County,Dunbarton (historical),Dunbarton (historical),,33.1574093,-81.5364563,,,,human,true,
Williams Cemetery,United States,South Carolina,Barnwell County,Hattieville,Hattieville,,33.1283477,-81.5945414,,,,human,true,
Ford Cemetery,United States,South Carolina,Aiken County,Hawthorne (historical),Hawthorne (historical),,33.3521892,-81.7355493,,,,human,true,
Berry Cemetery,United States,South Carolina,Aiken County,Johnson Crossroads,Johnson Crossroads,,33.3850062,-81.6839983,,,,human,true,
Bates Cemetery,United States,South Carolina,Aiken County,White Pond,White Pond,,33.3532851,-81.4775112,,,,human,true,
Scott Cemetery,United States,South Carolina,Barnwell County,Greenland (historical),Greenland (historical),,33.3074697,-81.5320193,,,,human,true,
Dorch Cemetery,United States,South Carolina,Barnwell County,Greenland (historical),Greenland (historical),,33.3506173,-81.5623023,,,,human,true,
Church of the Holy Apostles Cemetery,United States,South Carolina,Barnwell County,Hells Half Acre,Hells Half Acre,,33.238909,-81.3630031,,https://www.FindAGrave.com/cemetery/1640045,,human,true,
Sunset Memory Gardens,United States,South Carolina,Aiken County,Langley,Langley,,33.5271484,-81.8508013,,,,human,true,
Neese Cemetery,United States,South Carolina,Lexington County,Swansea,Swansea,,33.7458686,-81.1277032,,,,human,true,
Fullmer Cemetery,United States,South Carolina,Saluda County,Delmar,Delmar,,33.9781514,-81.5181239,,,,human,true,
Barr Cemetery,United States,South Carolina,Lexington County,Leesville,Leesville,,33.9414274,-81.5264746,,,,human,true,
Warren Cemetery,United States,South Carolina,Lexington County,Batesburg-Leesville,Batesburg-Leesville,,33.9323055,-81.531294,,,,human,true,
Olive Branch Cemetery,United States,South Carolina,Lexington County,Batesburg,Batesburg,,33.9004456,-81.5443494,,,,human,true,
Hite Cemetery,United States,South Carolina,Lexington County,Batesburg,Batesburg,,33.8987178,-81.5634355,,,,human,true,
Gunter Cemetery,United States,South Carolina,Saluda County,Hibernia,Hibernia,,33.8833933,-81.5587404,,,,human,true,
Miller Creek Cemetery,United States,South Carolina,Allendale County,Sycamore,Sycamore,,33.0282407,-81.2013134,,,,human,true,
Rohoboth Cemetery,United States,South Carolina,McCormick County,Bethany (historical),Bethany (historical),,33.8412225,-82.1464611,,,,human,true,
Old Rohoboth Cemetery,United States,South Carolina,McCormick County,Bethany (historical),Bethany (historical),,33.8417341,-82.1466239,,,,human,true,
Rocky Swamp Cemetery,United States,South Carolina,Orangeburg County,Neeses,Neeses,,33.5092855,-81.1913441,,,,human,true,
Southlawn Cemetery & Mausoleum,United States,South Carolina,Aiken County,Oak Hill,Oak Hill,,33.4562556,-81.6856112,,,,human,true,
Black Swamp Cemetery,United States,South Carolina,Hampton County,Garnett,Garnett,,32.5954172,-81.2430838,,,,human,true,
Bethelehem Cemetery,United States,South Carolina,McCormick County,Clarks Hill,Clarks Hill,,33.6692732,-82.1726961,,,,human,true,
Mount Herman Cemetery,United States,South Carolina,Lexington County,Thor,Thor,,33.6933071,-81.2676793,,,,human,true,
Springfield Cemetery,United States,South Carolina,Orangeburg County,Springfield,Springfield,,33.4888735,-81.264928,,,,human,true,
Martin Cemetery,United States,South Carolina,Orangeburg County,Springfield,Springfield,,33.4863414,-81.2284475,,,,human,true,
Warrenville Cemetery,United States,SC,Aiken County,Warrenville,160 Cemetery Road,29851,33.5474206,-81.7991369,,,,human,true,
Bethany Cemetery,United States,South Carolina,Lexington County,Congaree (historical),Congaree (historical),,33.8791349,-81.2198957,,,,human,true,
Hair Cemetery,United States,South Carolina,Barnwell County,Long Branch,Long Branch,,33.3485319,-81.3933983,,,,human,true,
Bethany Cemetery,United States,South Carolina,Jasper County,Berrys Landing,Berrys Landing,,32.4291754,-81.2129886,,,,human,true,
Edwards Cemetery,United States,South Carolina,Hampton County,Stokes Bluff Landing,Stokes Bluff Landing,,32.5358885,-81.325201,,,,human,true,
Taylor Chapel Independent Methodist Church Cemetery,United States,South Carolina,Hampton County,Stokes Bluff Landing,Stokes Bluff Landing,,32.5305491,-81.3299058,,,,human,true,
Morgan Cemetery,United States,South Carolina,Jasper County,Myers (historical),Myers (historical),,32.5319892,-81.277273,,,,human,true,
Mount Pisgah A. M. E. Church Cemetery,United States,South Carolina,Jasper County,Groover Landing,Groover Landing,,32.4849176,-81.2400489,,,,human,true,
Porter Cemetery,United States,South Carolina,Jasper County,Groover Landing,Groover Landing,,32.4822943,-81.2216007,,,,human,true,
Oak Grove AME Church Cemetery,United States,South Carolina,Allendale County,Red Bluff Landing,Red Bluff Landing,,32.8508832,-81.5131662,,,,human,true,
Saxon Family Cemetery,United States,South Carolina,Allendale County,Red Bluff Landing,Red Bluff Landing,,32.8278151,-81.4909045,,,,human,true,
Gin Branch Cemetery,United States,South Carolina,Aiken County,Salley,Salley,,33.5582426,-81.2616471,,,,human,true,
Frost Branch Cemetery,United States,South Carolina,Barnwell County,Whaley,Whaley,,33.4431337,-81.3149363,,,,human,true,
Lartigue Cemetery,United States,South Carolina,Barnwell County,Blackville,Blackville,,33.3492021,-81.2711862,,,,human,true,
Jowers Cemetery,United States,South Carolina,Barnwell County,Ashleigh,Ashleigh,,33.3339437,-81.3023778,,,,human,true,
Jowers Cemetery,United States,South Carolina,Barnwell County,Farrells Mill,Farrells Mill,,33.331514,-81.3576954,,,,human,true,
Seven Pines Cemetery,United States,South Carolina,Barnwell County,Snelling,Snelling,,33.2531187,-81.4522732,,,,human,true,
Holmes Cemetery,United States,South Carolina,Barnwell County,Happy Bottom,Happy Bottom,,33.2188613,-81.4105957,,,,human,true,
Woods Cemetery,United States,South Carolina,Barnwell County,Patterson Mill,Patterson Mill,,33.18129,-81.5021583,,,,human,true,
Sanders Cemetery,United States,South Carolina,Barnwell County,Dunbarton (historical),Dunbarton (historical),,33.1625468,-81.580394,,,,human,true,
Furse Cemetery,United States,South Carolina,Allendale County,Millett,Millett,,33.0985215,-81.5215418,,,,human,true,
Hopewell Cemetery,United States,South Carolina,McCormick County,Woodlawn,Woodlawn,,33.6247844,-82.1371391,,,,human,true,
McKie Cemetery,United States,South Carolina,McCormick County,Woodlawn,Woodlawn,,33.6233907,-82.1311372,,,,human,true,
Hopewell Cemetery,United States,South Carolina,McCormick County,Woodlawn,Woodlawn,,33.6090546,-82.1190802,,,,human,true,
Taylor Cemetery,United States,South Carolina,Edgefield County,Morgana,Morgana,,33.6133208,-82.0817446,,,,human,true,
Crafton Cemetery,United States,South Carolina,Edgefield County,Morgana,Morgana,,33.6040814,-82.0801509,,,,human,true,
Thurmond Cemetery,United States,South Carolina,Edgefield County,Morgana,Morgana,,33.6145795,-82.0484496,,,,human,true,
McKie Cemetery,United States,South Carolina,Edgefield County,Colliers,Colliers,,33.6599929,-82.0870243,,,,human,true,
Ashbury Cemetery,United States,South Carolina,McCormick County,Meriwether,Meriwether,,33.6505182,-82.1586086,,,,human,true,
Middleton Cemetery,United States,South Carolina,McCormick County,Clarks Hill,Clarks Hill,,33.6597445,-82.1693076,,,,human,true,
Jones Cemetery,United States,South Carolina,McCormick County,Modoc Subdivision,Modoc Subdivision,,33.69853,-82.1989872,,,,human,true,
Modoc Cemetery,United States,South Carolina,McCormick County,Modoc,Modoc,,33.7350949,-82.2061354,,,,human,true,
Parksville Cemetery,United States,South Carolina,McCormick County,Parksville,Parksville,,33.788473,-82.2188188,,,,human,true,
Pine Grove Cemetery,United States,South Carolina,McCormick County,Plum Branch,Plum Branch,,33.8238938,-82.2873165,,,,human,true,
Republican Cemetery,United States,South Carolina,McCormick County,Little River Subdivision,Little River Subdivision,,33.8619928,-82.3413221,,,,human,true,
Wideman Cemetery,United States,South Carolina,McCormick County,Buffalo,Buffalo,,33.942395,-82.3440466,,,,human,true,
Indian Massacre Grave,United States,South Carolina,McCormick County,Bradley Corner,Bradley Corner,,33.994628,-82.3393491,,,,human,true,
Warren Cemetery,United States,South Carolina,Edgefield County,Harmony,Harmony,,33.808616,-81.8485856,,,,human,true,
Saint Pauls Cemetery,United States,South Carolina,Allendale County,Red Bluff Landing,Red Bluff Landing,,32.8895462,-81.429301,,,,human,true,
Garvin Cemetery,United States,South Carolina,Allendale County,Red Bluff Landing,Red Bluff Landing,,32.8891593,-81.42651,,,,human,true,
Spring Cemetery,United States,South Carolina,Aiken County,Talatha,Talatha,,33.4039016,-81.7130443,,,,human,true,
Larkin Glen Cemetery,United States,South Carolina,Lexington County,Shuler (historical),Shuler (historical),,33.8715284,-81.1418374,,,,human,true,
New Langley Cemetery,United States,South Carolina,Aiken County,Langley Villa,Langley Villa,,33.5122585,-81.8342179,,,,human,true,
Old Barnwell Baptist Church Cemetery,United States,SC,Barnwell County,Barnwell,Wall Street & Gilmore Street,29812,33.2465379,-81.3657561,,https://www.FindAGrave.com/cemetery/1974397,,human,true,
Wesley Cemetery,United States,South Carolina,Allendale County,Jennys,Jennys,,33.0320536,-81.045037,,,,human,true,
Padgett Cemetery,United States,South Carolina,Saluda County,Holston Crossroads,Holston Crossroads,,33.9158719,-81.6054559,,,,human,true,
Lotts Cemetery,United States,South Carolina,Saluda County,Holston Crossroads,Holston Crossroads,,33.9118557,-81.6023585,,,,human,true,
Pleasant Hill Church Graveyard,United States,South Carolina,Bamberg County,Hughes,Hughes,,33.1488146,-81.0101982,,,,human,true,
Mizpah Church Graveyard,United States,South Carolina,Bamberg County,Bufords Bridge,Bufords Bridge,,33.1188154,-81.1794528,,,,human,true,
Salem Church Graveyard,United States,South Carolina,Orangeburg County,Woodford,Woodford,,33.6518266,-81.1494853,,,,human,true,
Olar First Baptist Church Graveyard,United States,South Carolina,Bamberg County,Olar,Olar,,33.1838036,-81.1862781,,,,human,true,
Great Saltkehatchie Cemetery,United States,South Carolina,Allendale County,Ulmer,Ulmer,,33.101263,-81.194628,,,,human,true,
Mill Town Cemetery,United States,South Carolina,Saluda County,Ridge Spring,Ridge Spring,,33.8636668,-81.6520253,,,,human,true,
Pisgah Cemetery,United States,South Carolina,Lexington County,Grandview Estates,Grandview Estates,,33.9262082,-81.0797976,,,,human,true,
Peeples Cemetery,United States,South Carolina,Hampton County,Camp Branch,Camp Branch,,32.7972044,-81.0375116,,,,human,true,
Bethel Cemetery,United States,South Carolina,Aiken County,Monetta,Monetta,,33.8594757,-81.6005368,,,,human,true,
Humberts Cemetery,United States,South Carolina,Jasper County,Baker Hill,Baker Hill,,32.3782485,-81.1244621,,,,human,true,
Hopewell Church Graveyard,United States,South Carolina,Orangeburg County,Sawyerdale,Sawyerdale,,33.5827783,-81.2241333,,,,human,true,
Mount Calvary Cemetery,United States,South Carolina,Allendale County,Ulmer,Ulmer,,33.0895299,-81.2383223,,,,human,true,
Milton Antony Burial Site,United States,South Carolina,Aiken County,Hamburg,Hamburg,,33.4704083,-81.9629718,,,,human,true,
Thankful Baptist Church Cemetery,United States,South Carolina,Aiken County,Hamburg,Hamburg,,33.4670995,-81.9564673,,,,human,true,
Saint Johns Cemetery,United States,South Carolina,Lexington County,Silver Lake,Silver Lake,,33.8921043,-81.028401,,,,human,true,
Springdale Memorial Park,United States,South Carolina,Aiken County,Springdale,Springdale,,33.6022336,-81.8625046,,,,human,true,
Pineview Memorial Gardens,United States,South Carolina,Aiken County,Pineview Estates,Pineview Estates,,33.5463206,-81.9598062,,,,human,true,
Williams Cemetery,United States,South Carolina,Aiken County,Monetta,Monetta,,33.8378974,-81.589672,,,,human,true,
Easter Branch Cemetery,United States,South Carolina,Saluda County,Ridge Spring,Ridge Spring,,33.7745234,-81.670304,,,,human,true,
Hartley Cemetery,United States,South Carolina,Lexington County,Chinquapin Falls,Chinquapin Falls,,33.8442349,-81.5601799,,,,human,true,
Sawyer Cemetery,United States,South Carolina,Aiken County,Jones Crossroads,Jones Crossroads,,33.7830348,-81.5627031,,,,human,true,
Mount Harris Cemetery,United States,South Carolina,Aiken County,Quail Hollow,Quail Hollow,,33.5012252,-81.6819428,,,,human,true,
Kneece Cemetery,United States,South Carolina,Lexington County,Chinquapin Falls,Chinquapin Falls,,33.8342251,-81.5584673,,,,human,true,
Jackson Cemetery,United States,South Carolina,Aiken County,Jackson,Jackson,,33.3343021,-81.7829198,,,,human,true,
Jackson Cemetery,United States,South Carolina,Aiken County,Jackson,Jackson,,33.3350561,-81.7811342,,,,human,true,
Willis Cemetery,United States,South Carolina,Aiken County,Seiglers Crossroads,Seiglers Crossroads,,33.6034859,-81.6593706,,,,human,true,
Carter Cemetery,United States,South Carolina,Aiken County,Langley,Langley,,33.5468695,-81.8569757,,,,human,true,
Glover Cemetery,United States,South Carolina,Aiken County,Russell Hill,Russell Hill,,33.4804099,-81.8385221,,,,human,true,
Hammond Cemetery,United States,South Carolina,Aiken County,Beech Island,Beech Island,,33.4202456,-81.8620632,,,,human,true,
Hammond Cemetery,United States,South Carolina,Aiken County,Brookgreen,Brookgreen,,33.5269348,-81.9802081,,,,human,true,
Scott Cemetery,United States,South Carolina,Aiken County,Croft,Croft,,33.628584,-81.7136733,,,,human,true,
First Baptist Cemetery,United States,South Carolina,Aiken County,Aiken,Aiken,,33.5609136,-81.7187668,,,,human,true,
Scott Cemetery,United States,South Carolina,Aiken County,Oakwood,Oakwood,,33.5613579,-81.5621781,,,,human,true,
Williams Cemetery,United States,South Carolina,Aiken County,Graniteville,Graniteville,,33.5679183,-81.8219966,,,,human,true,
Goss Cemetery,United States,South Carolina,Aiken County,Kitchings Mill,Kitchings Mill,,33.5600478,-81.5214588,,,,human,true,
Montmorenci Cemetery,United States,South Carolina,Aiken County,Montmorenci,Montmorenci,,33.5234992,-81.6344603,,,,human,true,
Saint Marys Cemetery,United States,South Carolina,Aiken County,Westcliff,Westcliff,,33.5659413,-81.77167,,,,human,true,
Darien Cemetery,United States,South Carolina,Aiken County,Oakwood,Oakwood,,33.5396716,-81.574767,,,,human,true,
Fields Cemetery,United States,South Carolina,Aiken County,Springdale,Springdale,,33.6306289,-81.8606117,,,,human,true,
Tyler Cemetery,United States,South Carolina,Aiken County,Wagener,Wagener,,33.6031501,-81.3793473,,,,human,true,
Hankinson Cemetery,United States,South Carolina,Aiken County,Browns Hill,Browns Hill,,33.3760131,-81.841779,,,,human,true,
Green Cemetery,United States,South Carolina,Aiken County,Sunny Brook,Sunny Brook,,33.6512825,-81.8019945,,,,human,true,
Saint Thaddeus Cemetery,United States,South Carolina,Aiken County,Aiken,Aiken,,33.5618428,-81.7248594,,,,human,true,
Seigler Cemetery,United States,South Carolina,Aiken County,Seiglers Crossroads,Seiglers Crossroads,,33.6481376,-81.644189,,,,human,true,
Wrights Cemetery,United States,South Carolina,Aiken County,Couchton,Couchton,,33.5775008,-81.6363532,,,,human,true,
Timmerman Cemetery,United States,South Carolina,Aiken County,Eureka,Eureka,,33.7306153,-81.7398067,,,,human,true,
Millbrook Cemetery,United States,South Carolina,Aiken County,Virginia Acres,Virginia Acres,,33.5238462,-81.7175363,,,,human,true,
New Home Cemetery,United States,South Carolina,Allendale County,Sanders (historical),Sanders (historical),,32.9730441,-81.3032483,,,,human,true,
Smyrna Cemetery,United States,South Carolina,Allendale County,Gravel Hill (historical),Gravel Hill (historical),,32.9364876,-81.3519714,,,,human,true,
Smart Cemeteries,United States,South Carolina,Allendale County,Gravel Hill (historical),Gravel Hill (historical),,32.9270194,-81.368705,,,,human,true,
Harter Cemetery,United States,South Carolina,Allendale County,Tuten (historical),Tuten (historical),,33.0522056,-81.1348751,,,,human,true,
Antioch Cemetery,United States,South Carolina,Allendale County,Milbury,Milbury,,32.9476698,-81.4147961,,,,human,true,
Brown Cemetery,United States,South Carolina,Allendale County,Gravel Hill (historical),Gravel Hill (historical),,32.9402575,-81.4009257,,,,human,true,
Concord Cemetery,United States,South Carolina,Allendale County,Concord Crossroads,Concord Crossroads,,32.9910905,-81.4210952,,,,human,true,
McMillian Cemetery,United States,South Carolina,Bamberg County,Hughes,Hughes,,33.1497404,-81.059274,,,,human,true,
Starr Cemetery,United States,South Carolina,Bamberg County,Olar,Olar,,33.189088,-81.1746907,,,,human,true,
Log Bridge Cemetery,United States,South Carolina,Bamberg County,Bamberg,Bamberg,,33.2888189,-81.0498788,,,,human,true,
Jericho Cemetery,United States,South Carolina,Bamberg County,Sweden,Sweden,,33.382,-81.1491621,,,,human,true,
McMillian Cemetery,United States,South Carolina,Bamberg County,Springtown,Springtown,,33.1647968,-81.0849682,,,,human,true,
Bamberg County Memory Gardens,United States,South Carolina,Bamberg County,Ott (historical),Ott (historical),,33.3105371,-81.0803179,,,,human,true,
Honeyford Cemetery,United States,South Carolina,Bamberg County,Luther (historical),Luther (historical),,33.2590551,-81.1645554,,,,human,true,
Capernaum Cemetery,United States,South Carolina,Bamberg County,Luther (historical),Luther (historical),,33.2801192,-81.1480899,,,,human,true,
Kearse-Barbham Cemetery,United States,South Carolina,Bamberg County,Bufords Bridge,Bufords Bridge,,33.1145392,-81.1226573,,,,human,true,
Rizer Cemetery,United States,South Carolina,Bamberg County,Ehrhardt,Ehrhardt,,33.0467781,-81.0390334,,,,human,true,
Herin Cemetery,United States,South Carolina,Saluda County,Ward,Ward,,33.8263385,-81.7365427,,,,human,true,
Blocker Cemetery,United States,South Carolina,Edgefield County,Pleasant Lane,Pleasant Lane,,33.8657131,-81.9966537,,,,human,true,
Morris Cemetery,United States,South Carolina,Saluda County,Ward,Ward,,33.8306553,-81.7446072,,,,human,true,
Young Macedonia Cemetery,United States,South Carolina,Edgefield County,Crafton (historical),Crafton (historical),,33.6251773,-81.9733453,,,,human,true,
Eastview Cemetery,United States,South Carolina,Edgefield County,Edgefield,Edgefield,,33.796321,-81.9117786,,,,human,true,
Liberty Spring Cemetery,United States,South Carolina,Edgefield County,Sullivan Crossroads,Sullivan Crossroads,,33.8755181,-82.0927405,,,,human,true,
Corley Cemetery,United States,South Carolina,Edgefield County,Cleora,Cleora,,33.8501047,-82.0210517,,,,human,true,
Lott Cemetery,United States,South Carolina,Edgefield County,Johnston,Johnston,,33.8424415,-81.7866247,,,,human,true,
Marsh Cemetery,United States,South Carolina,Edgefield County,Huets Crossroads,Huets Crossroads,,33.7572377,-81.8688863,,,,human,true,
Wicker Cemetery,United States,South Carolina,Edgefield County,Pine House Crossroads,Pine House Crossroads,,33.7371295,-81.8609389,,,,human,true,
Holmes Cemetery,United States,South Carolina,Edgefield County,Mathais Crossroads,Mathais Crossroads,,33.8643859,-81.8332133,,,,human,true,
Sweetwater Cemetery,United States,South Carolina,Edgefield County,Murphys Estates,Murphys Estates,,33.5920616,-81.9508503,,,,human,true,
Nicholson Cemetery,United States,South Carolina,Aiken County,Springdale,Springdale,,33.6584332,-81.8621818,,,,human,true,
Mount Nebo Cemetery,United States,South Carolina,Edgefield County,Johnston,Johnston,,33.8383585,-81.8019891,,,,human,true,
Smith Cemetery,United States,South Carolina,Hampton County,Horsegall,Horsegall,,32.7620968,-81.0634006,,,,human,true,
Breeler Field Cemetery,United States,South Carolina,Hampton County,Shirley,Shirley,,32.677759,-81.3331524,,,,human,true,
Mount Zion Cemetery,United States,South Carolina,Hampton County,Rouse,Rouse,,32.8803232,-81.2719094,,,,human,true,
Union Cemetery,United States,South Carolina,Hampton County,Shirley,Shirley,,32.6904611,-81.3288755,,,,human,true,
Browning Cemetery,United States,South Carolina,Hampton County,Gifford,Gifford,,32.8404089,-81.2142534,,,,human,true,
Solomons Cemetery,United States,South Carolina,Hampton County,Shirley,Shirley,,32.6789392,-81.327861,,,,human,true,
Bostic Cemetery,United States,South Carolina,Jasper County,Cosby,Cosby,,32.592332,-81.2476851,,,,human,true,
Horse Pond Cemetery,United States,South Carolina,Hampton County,Shirley,Shirley,,32.6501383,-81.2859924,,,,human,true,
Lawtonville Cemetery,United States,South Carolina,Hampton County,Lawtonville Crossroads,Lawtonville Crossroads,,32.7516535,-81.272454,,,,human,true,
Black Swamp Cemetery,United States,South Carolina,Jasper County,Robertville,Robertville,,32.5863557,-81.2000283,,,,human,true,
Rhoden Ward Cemetery,United States,South Carolina,Jasper County,Tillman,Tillman,,32.4604686,-81.0619911,,,,human,true,
Cooper Cemetery,United States,South Carolina,Jasper County,Levy,Levy,,32.1894533,-81.0414112,,,,human,true,
Porter Cemetery,United States,South Carolina,Jasper County,Baker Hill,Baker Hill,,32.3778792,-81.1224682,,,,human,true,
Floyd Cemetery,United States,South Carolina,Jasper County,Tillman,Tillman,,32.4476629,-81.0896668,,,,human,true,
Boiling Springs Cemetery,United States,South Carolina,Lexington County,Ethon Crossroads,Ethon Crossroads,,33.8692062,-81.3148135,,,,human,true,
Saint Johns Cemetery,United States,South Carolina,Lexington County,Fairview Crossroads,Fairview Crossroads,,33.7896104,-81.3406364,,,,human,true,
Sightler Cemetery,United States,South Carolina,Lexington County,Lloydswoods,Lloydswoods,,33.9043216,-81.0703663,,,,human,true,
Pine Grove Cemetery,United States,South Carolina,Lexington County,Fairview Crossroads,Fairview Crossroads,,33.7623819,-81.3883888,,,,human,true,
Davis Cemetery,United States,South Carolina,Lexington County,Mims,Mims,,33.8420944,-81.5049231,,,,human,true,
Scofield Cemetery,United States,South Carolina,Lexington County,Pelion,Pelion,,33.7586186,-81.2659,,,,human,true,
Hallman Cemetery,United States,South Carolina,Lexington County,Kneece,Kneece,,33.8515527,-81.5161547,,,,human,true,
Saint Pauls Cemetery,United States,South Carolina,Lexington County,Silver Lake,Silver Lake,,33.881014,-81.0579552,,,,human,true,
Antioch Cemetery,United States,South Carolina,Lexington County,Sharpes Hill,Sharpes Hill,,33.7625204,-81.1633826,,,,human,true,
Oak Grove Cemetery,United States,South Carolina,Lexington County,Fairview Crossroads,Fairview Crossroads,,33.814015,-81.3690752,,,,human,true,
Hartley Cemetery,United States,South Carolina,Lexington County,Kneece,Kneece,,33.854948,-81.5349892,,,,human,true,
Bethlehem Cemetery,United States,South Carolina,Lexington County,Gilbert,Gilbert,,33.8630655,-81.408784,,,,human,true,
Bethany Cemetery,United States,South Carolina,McCormick County,Liberty Hill,Liberty Hill,,33.9235517,-82.1867036,,,,human,true,
Old Bethany Cemetery,United States,South Carolina,McCormick County,Liberty Hill,Liberty Hill,,33.9245188,-82.1857897,,,,human,true,
De La Howe Tomb,United States,South Carolina,McCormick County,Bordeaux,Bordeaux,,33.9387967,-82.411806,,,,human,true,
Wideman-Harris-Wilks Cemetery,United States,South Carolina,McCormick County,Bradley Corner,Bradley Corner,,33.9911857,-82.3747896,,,,human,true,
Hickory Hill Cemetery,United States,South Carolina,Orangeburg County,Pine Hill,Pine Hill,,33.5226451,-81.0765327,,,,human,true,
Double Branch Cemetery,United States,South Carolina,Orangeburg County,Pine Hill,Pine Hill,,33.5196529,-81.0297914,,,,human,true,
Pine Hill Cemetery,United States,South Carolina,Orangeburg County,Pine Hill,Pine Hill,,33.5217364,-81.0487784,,,,human,true,
Cherry Hill Cemetery,United States,South Carolina,Orangeburg County,Pine Hill,Pine Hill,,33.4914913,-81.0700164,,,,human,true,
Norway Cemetery,United States,South Carolina,Orangeburg County,Norway,Norway,,33.4528988,-81.1380342,,,,human,true,
Two Mile Cemetery,United States,South Carolina,Orangeburg County,Bolen Town,Bolen Town,,33.45515,-81.0412319,,,,human,true,
Shady Grove Cemetery,United States,South Carolina,Orangeburg County,Pine Hill,Pine Hill,,33.5566814,-81.039926,,,,human,true,
Emory Cemetery,United States,South Carolina,Saluda County,Emory,Emory,,33.9863131,-81.7059908,,,,human,true,
Providence Cemetery,United States,South Carolina,Saluda County,Holston Crossroads,Holston Crossroads,,33.9326168,-81.5982437,,,,human,true,
County Memorial Cemetery,United States,South Carolina,Saluda County,Richland,Richland,,33.9410781,-81.6885732,,,,human,true,
Norris Cemetery,United States,South Carolina,Saluda County,Holston Crossroads,Holston Crossroads,,33.9418752,-81.5818273,,,,human,true,
Holston Cemetery,United States,South Carolina,Saluda County,Holston Crossroads,Holston Crossroads,,33.9296689,-81.5848854,,,,human,true,
Foulk Cemetery,United States,South Carolina,Saluda County,Holston Crossroads,Holston Crossroads,,33.9534639,-81.5762931,,,,human,true,
Richland Springs Cemetery,United States,South Carolina,Saluda County,Richland,Richland,,33.9506225,-81.6996682,,,,human,true,
Gassaway Cemetery,United States,South Carolina,Saluda County,Limp,Limp,,33.9847858,-81.8318098,,,,human,true,
Saint Williams Cemetery,United States,South Carolina,Saluda County,Richland,Richland,,33.9306818,-81.6998277,,,,human,true,
Bartley Cemetery,United States,South Carolina,Edgefield County,Johnston,Johnston,,33.8474595,-81.7764389,,,,human,true,
Good Hope Cemetery,United States,South Carolina,Saluda County,Blacks,Blacks,,33.908544,-81.6860224,,,,human,true,
Jones Cemetery,United States,South Carolina,Saluda County,Ridge Spring,Ridge Spring,,33.8497174,-81.6777078,,,,human,true,
Holstein Cemetery,United States,South Carolina,Aiken County,Monetta,Monetta,,33.8717885,-81.6251369,,,,human,true,
Asbill Cemetery,United States,South Carolina,Aiken County,Monetta,Monetta,,33.8313064,-81.6311092,,,,human,true,
Dry Creek Cemetery,United States,South Carolina,Saluda County,Ward,Ward,,33.8614245,-81.7640498,,,,human,true,
Burton Cemetery,United States,South Carolina,Aiken County,Monetta,Monetta,,33.8679209,-81.6141791,,,,human,true,
Chisolm Cemetery,United States,South Carolina,Jasper County,Limehouse,Limehouse,,32.2367251,-81.1127236,,,,human,true,
Holmes Cemetery,United States,South Carolina,McCormick County,Bethany (historical),Bethany (historical),,33.8064644,-82.1211548,,,,human,true,
Bethany Church of Ivy Town Cemetery,United States,South Carolina,McCormick County,Hickory Knob Subdivision,Hickory Knob Subdivision,,33.8510634,-82.4360638,,,,human,true,
Cantelou Cemetery,United States,South Carolina,McCormick County,Little River Subdivision,Little River Subdivision,,33.8383348,-82.3764882,,,,human,true,
Dooly Family Cemetery,United States,South Carolina,McCormick County,Little River Subdivision,Little River Subdivision,,33.8522571,-82.4002643,,,,human,true,
Elijah Clark Gravesite,United States,South Carolina,McCormick County,Little River Subdivision,Little River Subdivision,,33.854498,-82.4025924,,,,human,true,
Smith Chapel Cemetery,United States,South Carolina,McCormick County,Hickory Knob Subdivision,Hickory Knob Subdivision,,33.8648958,-82.4498605,,,,human,true,
Adams Cemetery,United States,South Carolina,Colleton County,Cottageville,Cottageville,,32.9515596,-80.4906572,,,,human,true,
Berton Cemetery,United States,South Carolina,Jasper County,Switzerland,Switzerland,,32.4140803,-80.9703865,,,,human,true,
Bethel Cemetery,United States,South Carolina,Richland County,Pinewood,Pinewood,,33.8562656,-80.8798124,,,,human,true,
Bethel Cemetery,United States,South Carolina,Richland County,Pinewood,Pinewood,,33.8609878,-80.880368,,,,human,true,
Big House Cemetery,United States,South Carolina,Beaufort County,Oceanmarsh Subdivision,Oceanmarsh Subdivision,,32.4010262,-80.4964952,,,,human,true,
Bluefield Cemetery,United States,South Carolina,Berkeley County,Wilsons Landing,Wilsons Landing,,33.4473875,-80.1553614,,,,human,true,
Bluffton Cemetery,United States,South Carolina,Beaufort County,Bluffton,Bluffton,,32.2371463,-80.8764981,,,,human,true,
Burgess Cemetery,United States,South Carolina,Beaufort County,Saint Helena Island,Saint Helena Island,,32.3932489,-80.5087177,,,,human,true,
Castle Cemetery,United States,South Carolina,Charleston County,Runnymede,Runnymede,,32.8808071,-80.1022901,,,,human,true,
Cedar Grove Cemetery,United States,South Carolina,Beaufort County,Frogmore,Frogmore,,32.4143591,-80.5209396,,,,human,true,
Chandler Cemetery,United States,South Carolina,Sumter County,Shaws Crossroads,Shaws Crossroads,,33.937936,-80.2520224,,,,human,true,
Chaplin Cemetery,United States,South Carolina,Charleston County,Point Pleasant (historical),Point Pleasant (historical),,32.7435107,-80.1373179,,,,human,true,
Cherry Hill Cemetery,United States,South Carolina,Beaufort County,Saint Helena Island,Saint Helena Island,,32.3863048,-80.5181622,,,,human,true,
Church Hill Cemetery,United States,South Carolina,Colleton County,Iron Crossroads,Iron Crossroads,,32.8793401,-80.4887134,,,,human,true,
Clark Cemetery,United States,South Carolina,Sumter County,Oswego,Oswego,,33.9968232,-80.2886896,,,,human,true,
Cook Landing Cemetery,United States,South Carolina,Jasper County,Cook Landing,Cook Landing,,32.1943693,-80.9998329,,,,human,true,
Cooke Cemetery,United States,South Carolina,Dorchester County,Cooke Crossroads,Cooke Crossroads,,32.9496165,-80.19565,,,,human,true,
Coosaw Island Cemetery,United States,South Carolina,Beaufort County,Wilkins,Wilkins,,32.4835833,-80.5790789,,,,human,true,
Dargon Cemetery,United States,South Carolina,Sumter County,Hilldale,Hilldale,,33.8968242,-80.3986931,,,,human,true,
Drayton Cemetery,United States,South Carolina,Beaufort County,Gator Field,Gator Field,,32.2446471,-80.6917747,,,,human,true,
Fripp Point Cemetery,United States,South Carolina,Beaufort County,Oceanmarsh Subdivision,Oceanmarsh Subdivision,,32.422692,-80.503995,,,,human,true,
Frogmore Cemetery,United States,South Carolina,Beaufort County,Saint Helena Island,Saint Helena Island,,32.3607509,-80.5659404,,,,human,true,
Fuller Cemetery,United States,South Carolina,Beaufort County,Frogmore,Frogmore,,32.3932495,-80.5917733,,,,human,true,
Gause Cemetery,United States,South Carolina,Florence County,Friendfield,Friendfield,,33.9898836,-79.7086763,,,,human,true,
Goodin Cemetery,United States,South Carolina,Calhoun County,Fort Motte,Fort Motte,,33.7587668,-80.6781438,,,,human,true,
Government Cemetery,United States,South Carolina,Beaufort County,Folly Field,Folly Field,,32.2149264,-80.6926081,,,,human,true,
Habersham Cemetery,United States,South Carolina,Beaufort County,Broad River Bluff,Broad River Bluff,,32.4254708,-80.7653846,,,,human,true,
Haig Point Cemetery,United States,South Carolina,Beaufort County,Daufuskie Island,Daufuskie Island,,32.1429853,-80.8412206,,,,human,true,
Hampton Cemetery,United States,South Carolina,Beaufort County,Frogmore,Frogmore,,32.416859,-80.5176062,,,,human,true,
Huff Cemetery,United States,South Carolina,Berkeley County,Driggerstown,Driggerstown,,33.0276712,-80.0881438,,,,human,true,
Jenkins Island Cemetery,United States,South Carolina,Beaufort County,Hickory Bluff,Hickory Bluff,,32.2196489,-80.7645525,,,,human,true,
Jericho Cemetery,United States,South Carolina,Beaufort County,Magnolia Bluff,Magnolia Bluff,,32.3790845,-80.7251069,,,,human,true,
Johns Cemetery,United States,South Carolina,Sumter County,Quinns Crossroad,Quinns Crossroad,,33.9979335,-80.3498023,,,,human,true,
Joyner Cemetery,United States,South Carolina,Richland County,Kingville,Kingville,,33.8384877,-80.7084215,,,,human,true,
Keels Cemetery,United States,South Carolina,Williamsburg County,New Market (historical),New Market (historical),,33.5451885,-80.0035593,,,,human,true,
Laurel Bay Cemetery,United States,South Carolina,Beaufort County,Laurel Bay,Laurel Bay,,32.452969,-80.7914957,,,,human,true,
Lawton Cemetery,United States,South Carolina,Beaufort County,Lawton,Lawton,,32.1492241,-80.7875314,,,,human,true,
Lifeland Cemetery,United States,South Carolina,Berkeley County,Region Town (historical),Region Town (historical),,33.4460005,-80.0206346,,,,human,true,
Logues Cemetery,United States,South Carolina,Richland County,Harmon Estates,Harmon Estates,,33.9704311,-80.7636987,,,,human,true,
Macedonia Cemetery,United States,South Carolina,Colleton County,Long Creek Landing,Long Creek Landing,,32.9023949,-80.4064894,,,,human,true,
Middleton Place Cemetery,United States,South Carolina,Dorchester County,Greggs Landing,Greggs Landing,,32.8988799,-80.1366555,,,,human,true,
Miller Cemetery,United States,South Carolina,Sumter County,Park West,Park West,,33.9173792,-80.4023042,,,,human,true,
Mitchel Cemetery,United States,South Carolina,Sumter County,Rocky Bluff Crossroads,Rocky Bluff Crossroads,,33.9607129,-80.2914677,,,,human,true,
Moreland Cemetery,United States,South Carolina,Beaufort County,Palmetto Bluff,Palmetto Bluff,,32.1774272,-80.8912208,,,,human,true,
Mulberry Hill Cemetery,United States,South Carolina,Beaufort County,Saint Helena Island,Saint Helena Island,,32.3829717,-80.5239957,,,,human,true,
Oak Grove Cemetery,United States,South Carolina,Charleston County,Tenmile,Tenmile,,32.902089,-80.0197874,,,,human,true,
Oakland Cemetery,United States,South Carolina,Beaufort County,Frogmore,Frogmore,,32.4079709,-80.5834398,,,,human,true,
Opossum Point Cemetery,United States,South Carolina,Beaufort County,Opossum Point Landing,Opossum Point Landing,,32.1754845,-80.7662196,,,,human,true,
Orange Grove Cemetery,United States,South Carolina,Beaufort County,Scott,Scott,,32.3599179,-80.6028849,,,,human,true,
Pear Cemetery,United States,South Carolina,Berkeley County,Driggerstown,Driggerstown,,33.0290601,-80.0934219,,,,human,true,
Perry Cemetery,United States,South Carolina,Beaufort County,Saint Helena Island,Saint Helena Island,,32.3704729,-80.600107,,,,human,true,
Piedmont Cemetery,United States,South Carolina,Beaufort County,Frogmore,Frogmore,,32.4146368,-80.5184395,,,,human,true,
Port Royal Cemetery,United States,South Carolina,Beaufort County,Mariners Watch,Mariners Watch,,32.3871394,-80.6939957,,,,human,true,
Preference Cemetery,United States,South Carolina,Jasper County,Boyd,Boyd,,32.446857,-80.9101079,,,,human,true,
Prices Cemetery,United States,South Carolina,Charleston County,Barrelville,Barrelville,,32.6774027,-80.3545453,,,,human,true,
Pritchard Cemetery,United States,South Carolina,Beaufort County,Scott,Scott,,32.3590846,-80.6023293,,,,human,true,
Reeves Cemetery,United States,South Carolina,Dorchester County,Gettysville,Gettysville,,32.896284,-80.3848223,,,,human,true,
Republican Hall Cemetery,United States,South Carolina,Jasper County,Murad,Murad,,32.495466,-80.8609404,,,,human,true,
Reynolds Cemetery,United States,South Carolina,Beaufort County,Ashdale,Ashdale,,32.4549131,-80.6120503,,,,human,true,
Richmond Cemetery,United States,South Carolina,Berkeley County,Region Town (historical),Region Town (historical),,33.4607225,-80.0309125,,,,human,true,
Rosom Hill Cemetery,United States,South Carolina,Dorchester County,Waringville (historical),Waringville (historical),,32.9421162,-80.2914866,,,,human,true,
Rush Cemetery,United States,South Carolina,Clarendon County,Central Crossroads,Central Crossroads,,33.8998829,-79.9417378,,,,human,true,
Saint Lukes Cemetery,United States,South Carolina,Sumter County,Cherryvale,Cherryvale,,33.9748773,-80.4406382,,,,human,true,
Salvesbarg Cemetery,United States,South Carolina,Jasper County,Salvesbarg Landing,Salvesbarg Landing,,32.4738006,-80.8470515,,,,human,true,
Shell Point Cemetery,United States,South Carolina,Beaufort County,Shell Point,Shell Point,,32.3840843,-80.7373291,,,,human,true,
Shepherd Grove Cemetery,United States,South Carolina,Dorchester County,Gettysville,Gettysville,,32.9235054,-80.3714884,,,,human,true,
Stoney Cemetery,United States,South Carolina,Beaufort County,Hickory Bluff,Hickory Bluff,,32.2207602,-80.7587192,,,,human,true,
Tombee Cemetery,United States,South Carolina,Beaufort County,Longwood,Longwood,,32.3115872,-80.6206632,,,,human,true,
Venning Cemetery,United States,South Carolina,Charleston County,Seaside Farms Estates,Seaside Farms Estates,,32.8165645,-79.8339726,,,,human,true,
White Meeting Cemetery,United States,South Carolina,Colleton County,Burnt Church Crossroads,Burnt Church Crossroads,,32.7976766,-80.4912143,,,,human,true,
White-Dick Cemetery,United States,South Carolina,Sumter County,Jefferson Park,Jefferson Park,,33.9696007,-80.3592472,,,,human,true,
Williams Cemetery,United States,South Carolina,Sumter County,North Deerfield,North Deerfield,,33.940712,-80.4028597,,,,human,true,
Wilson Cemetery,United States,South Carolina,Georgetown County,Cow Head Landing,Cow Head Landing,,33.5515564,-79.4022781,,,,human,true,
Wrightfield Cemetery,United States,South Carolina,Jasper County,Boyd,Boyd,,32.422136,-80.9145525,,,,human,true,
Collins Cemetery,United States,South Carolina,Berkeley County,Green Bay,Green Bay,,33.0237823,-79.7856351,,,,human,true,
Fowler Cemetery,United States,South Carolina,Berkeley County,Green Bay,Green Bay,,33.0248933,-79.7556344,,,,human,true,
Gravel Hill Cemetery,United States,South Carolina,Berkeley County,Gravel Hill (historical),Gravel Hill (historical),,33.3258463,-79.9145958,,,,human,true,
Nelliefield Creek Cemetery,United States,South Carolina,Berkeley County,Old Vat (historical),Old Vat (historical),,32.9210068,-79.8550828,,,,human,true,
Slave Cemetery,United States,South Carolina,Berkeley County,New Hope,New Hope,,33.0937814,-79.8159123,,,,human,true,
Wappetow Cemetery,United States,South Carolina,Charleston County,Woodville,Woodville,,32.927395,-79.7164668,,,,human,true,
Carter Cemetery,United States,South Carolina,Bamberg County,Millersville (historical),Millersville (historical),,33.1326604,-80.925655,,,,human,true,
Prospect Cemetery,United States,South Carolina,Bamberg County,Millersville (historical),Millersville (historical),,33.1423825,-80.9256548,,,,human,true,
Betaw Plantation Cemetery,United States,South Carolina,Berkeley County,Matassee (historical),Matassee (historical),,33.3868337,-79.853964,,,,human,true,
Full Gospel Mission Cemetery,United States,South Carolina,Berkeley County,Bonneau,Bonneau,,33.3039169,-79.9312777,,,,human,true,
Oldfield Plantation Cemetery,United States,South Carolina,Berkeley County,Swamp Fox,Swamp Fox,,33.439334,-79.973411,,,,human,true,
Thomas Walter Grave,United States,South Carolina,Berkeley County,Wilsons Landing,Wilsons Landing,,33.4540544,-80.1431386,,,,human,true,
Apple Old Field Cemetery,United States,South Carolina,Berkeley County,Green Bay,Green Bay,,33.0315598,-79.7289665,,,,human,true,
Bonneau Ferry Plantation Cemetery,United States,South Carolina,Berkeley County,Richmond,Richmond,,33.0723931,-79.8881365,,,,human,true,
Cypress Gardens Cemetery,United States,South Carolina,Berkeley County,Woodland Landing,Woodland Landing,,33.0468382,-79.9470271,,,,human,true,
Exeter Plantation Cemetery,United States,South Carolina,Berkeley County,Berkeley Country Club Subdivision,Berkeley Country Club Subdivision,,33.1432259,-79.9892486,,,,human,true,
Saint James Chapel of Ease Cemetery,United States,South Carolina,Berkeley County,Strawberry,Strawberry,,33.067974,-80.0220527,,,,human,true,
Hyde Park Plantation Cemetery,United States,South Carolina,Berkeley County,Kensington,Kensington,,33.1186335,-79.8269888,,,,human,true,
Lewisfield Plantation Cemetery,United States,South Carolina,Berkeley County,Berkeley Country Club Subdivision,Berkeley Country Club Subdivision,,33.1607257,-79.9936928,,,,human,true,
Medway Plantation Cemetery,United States,South Carolina,Berkeley County,Pine Grove,Pine Grove,,33.032394,-79.9695279,,,,human,true,
Parnassus Plantation Cemetery,United States,South Carolina,Berkeley County,Pine Grove,Pine Grove,,33.0362829,-79.9714724,,,,human,true,
Pompion Hill Chapel Cemetery,United States,South Carolina,Berkeley County,New Hope,New Hope,,33.0864263,-79.8401149,,,,human,true,
Quimby Cemetery,United States,South Carolina,Berkeley County,Huger,Huger,,33.1018368,-79.8036897,,,,human,true,
Reed Corner Cemetery,United States,South Carolina,Berkeley County,Wrangle Town (historical),Wrangle Town (historical),,33.2248904,-79.797854,,,,human,true,
Richmond Plantation Cemetery,United States,South Carolina,Berkeley County,Richmond,Richmond,,33.0793374,-79.8581357,,,,human,true,
Silk Hope Plantation Cemetery,United States,South Carolina,Berkeley County,Limerick,Limerick,,33.1179477,-79.8181341,,,,human,true,
Yeamans Hall Plantation Cemetery,United States,South Carolina,Berkeley County,Gold Cup Springs,Gold Cup Springs,,32.9271182,-79.9781417,,,,human,true,
Mount Calvary Cemetery,United States,South Carolina,Berkeley County,Calestown,Calestown,,33.2908582,-79.7876244,,,,human,true,
Von Hollen Cemetery,United States,South Carolina,Berkeley County,Calestown,Calestown,,33.2990562,-79.7900748,,,,human,true,
Ashton Cemetery,United States,South Carolina,Colleton County,Ashton,Ashton,,33.02155,-80.9751026,,,,human,true,
Bridge Cemetery,United States,South Carolina,Colleton County,Sidney,Sidney,,33.0534997,-80.5581556,,,,human,true,
Canadys Cemetery,United States,South Carolina,Colleton County,Canadys,Canadys,,33.0584988,-80.6181551,,,,human,true,
Colonel Joseph Risher Cemetery,United States,South Carolina,Colleton County,Williams,Williams,,33.0321076,-80.8337114,,,,human,true,
Gruber Cemetery,United States,South Carolina,Colleton County,Sidney,Sidney,,33.049889,-80.5339893,,,,human,true,
John Herndon Cemetery,United States,South Carolina,Colleton County,Pattillo (historical),Pattillo (historical),,32.9568331,-80.7856567,,,,human,true,
May-Stokes-Raysor Cemetery,United States,South Carolina,Colleton County,Johnsville,Johnsville,,33.1446069,-80.7509307,,,,human,true,
Ruffin Cemetery,United States,South Carolina,Colleton County,Ruffin,Ruffin,,33.0051638,-80.818156,,,,human,true,
Smith Cemetery,United States,South Carolina,Colleton County,Padgetts,Padgetts,,33.1040505,-80.8703772,,,,human,true,
Smith Cemetery,United States,South Carolina,Colleton County,Padgetts,Padgetts,,33.0640511,-80.8653779,,,,human,true,
Spell-Risher Cemetery,United States,South Carolina,Colleton County,Johnsville,Johnsville,,33.1448847,-80.7506529,,,,human,true,
Bethel Cemetery,United States,South Carolina,Dorchester County,Sugar Hill,Sugar Hill,,33.2076617,-80.6570414,,,,human,true,
Hagerman Cemetery,United States,South Carolina,Dorchester County,Cat Hole,Cat Hole,,33.1368299,-80.6737091,,,,human,true,
Seigler Cemetery,United States,South Carolina,Dorchester County,Grover,Grover,,33.1187755,-80.5770433,,,,human,true,
Walters Cemetery,United States,South Carolina,Dorchester County,Texas,Texas,,33.1521079,-80.5737095,,,,human,true,
McClary Cemetery,United States,South Carolina,Williamsburg County,Nexsen (historical),Nexsen (historical),,33.6515534,-79.7700694,,,,human,true,
Lake City Presbyterian Cemetery,United States,South Carolina,Florence County,Lake City,Lake City,,33.8699701,-79.7503054,,,,human,true,
Stone Chapel Cemetery,United States,SC,Florence County,Hannah,1996 West Highway 378,29583,33.8967353,-79.6226406,,,,human,true,
Mount Zion Cemetery,United States,South Carolina,Dorchester County,Harleyville,Harleyville,,33.2234956,-80.4459298,,,,human,true,
Partridge Hill Cemetery,United States,South Carolina,Jasper County,Old House,Old House,,32.4849107,-80.8964964,,,,human,true,
Tomb of Colonel William Washington,United States,South Carolina,Charleston County,Rantowles,Rantowles,,32.7979538,-80.1453729,,,,human,true,
Cummingsville Cemetery,United States,South Carolina,Jasper County,Glasgow Landing,Glasgow Landing,,32.1422222,-80.9891667,,,,human,true,
Hillcrest Cemetery,United States,South Carolina,Horry County,Pine Valley Estates,Pine Valley Estates,,33.7922601,-79.022416,,,,human,true,
Kingston Cemetery,United States,South Carolina,Horry County,Conway,Conway,,33.8360966,-79.0448501,,,,human,true,
Leo Church of God Cemetary,United States,South Carolina,Florence County,Leo,Leo,,33.8080517,-79.6382458,,,,human,true,
Old Salem Cemetery,United States,South Carolina,Florence County,Salem,Salem,,33.8963003,-79.5130973,,,,human,true,
Lake City Cemetery,United States,South Carolina,Florence County,Lake City,Lake City,,33.8750083,-79.7495909,,,,human,true,
Brown Cemetery,United States,South Carolina,Florence County,Leo,Leo,,33.824992,-79.6333279,,,,human,true,
Browns Chapel Cemetery,United States,South Carolina,Florence County,Leo,Leo,,33.831899,-79.6311998,,,,human,true,
Indiantown Cemetery,United States,South Carolina,Williamsburg County,Indiantown,Indiantown,,33.724323,-79.5603756,,,,human,true,
Lake City Memorial Park,United States,South Carolina,Florence County,Wedgefield,Wedgefield,,33.8807149,-79.7713423,,,,human,true,
Cook Cemetery,United States,South Carolina,Florence County,Greenbriar Estates,Greenbriar Estates,,33.8681095,-79.8080413,,,,human,true,
First Baptist Church,United States,South Carolina,Florence County,Lake City,Lake City,,33.8700471,-79.7531125,,,,human,true,
New Town Cemetery,United States,South Carolina,Clarendon County,Central Crossroads,Central Crossroads,,33.8843806,-79.9173105,,,,human,true,
Beaufort National Cemetery,United States,South Carolina,Beaufort County,Beaufort,Beaufort,,32.4420451,-80.6799166,,https://www.cem.va.gov/cems/nchp/Beaufort.asp,,human,true,
Mount Calvary Cemetery,United States,South Carolina,Orangeburg County,Woodland,Woodland,,33.534934,-80.9020528,,,,human,true,
Elmwood Cemetery,United States,South Carolina,Georgetown County,Georgetown,Georgetown,,33.3743221,-79.2916878,,,,human,true,
St Mary of the Annunciation's Graveyard,United States,South Carolina,Charleston County,Charleston,Charleston,,32.7817569,-79.9327387,,,,human,true,
Bethel United Methodist Church Cemetery,United States,SC,Charleston County,Charleston,57 Pitt Street,29401,32.784136,-79.9411486,,,,human,true,
Coming Street Cemetery,United States,SC,Charleston County,Charleston,189 Coming Street,29403,32.7899389,-79.9430036,,,,human,true,
Saint John's Chapel Cemetery,United States,SC,Charleston County,Charleston,18 Hanover Street,29403,32.7942881,-79.9366371,,,,human,true,
Bethany Cemetery,United States,South Carolina,Charleston County,Myers,Myers,,32.8139849,-79.9482852,,,,human,true,
Kahal Kadosh Beth Elohim Cemetery,United States,South Carolina,Charleston County,Myers,Myers,,32.8132642,-79.9454398,,,,human,true,
St. Lawrence Cemetery,United States,South Carolina,Charleston County,Myers,Myers,,32.814614,-79.9436932,,,,human,true,
Heriot Street Cemetery,United States,South Carolina,Charleston County,Myers,Myers,,32.8158281,-79.9522356,,,,human,true,
Zion - Olivet Presbyterian Cemetery,United States,South Carolina,Charleston County,Myers,Myers,,32.818046,-79.954252,,,,human,true,
Cathedral of St. John the Baptist Churchyard,United States,South Carolina,Charleston County,Charleston,Charleston,,32.7768513,-79.9344125,,,,human,true,
Manning Cemetery,United States,South Carolina,Clarendon County,Manning,Manning,,33.7027172,-80.2056813,,,,human,true,
Belleville Memorial Cemetery,United States,South Carolina,Orangeburg County,Rosewood,Rosewood,,33.5279343,-80.8124987,,,,human,true,
Greenlawn Memorial Park,United States,South Carolina,Richland County,Gordon Springs,Gordon Springs,,33.9737921,-80.950499,,,,human,true,
West End Cemetery,United States,South Carolina,Calhoun County,Saint Matthews,Saint Matthews,,33.6624482,-80.7885524,,,,human,true,
Woodlawn Cemetery,United States,South Carolina,Bamberg County,Embree,Embree,,33.2432776,-80.9170462,,,,human,true,
Biggin Cemetery,United States,South Carolina,Berkeley County,Stony Landing,Stony Landing,,33.2125072,-79.9666998,,,,human,true,
Memorial Park Cemetery,United States,South Carolina,Orangeburg County,Hyde Park,Hyde Park,,33.5089982,-80.8766203,,,,human,true,
Rocks Plantation Graveyard,United States,South Carolina,Berkeley County,Corsada (historical),Corsada (historical),,33.4005074,-80.2337791,,,,human,true,
Walworth Cemetery,United States,South Carolina,Orangeburg County,Eutaw Springs,Eutaw Springs,,33.3737766,-80.2801021,,,,human,true,
Evergreen Memorial Park,United States,South Carolina,Sumter County,Bon Air Terrace,Bon Air Terrace,,33.9395374,-80.3757907,,,,human,true,
Six Oaks Cemetery at Sea Pines,United States,South Carolina,Beaufort County,Lawton,Lawton,,32.1456507,-80.7896117,,,,human,true,
Vereen Cemetery,United States,South Carolina,Horry County,Thompson (historical),Thompson (historical),,33.5778506,-79.0379634,,,,human,true,
Collins Creek Cemetery,United States,South Carolina,Horry County,Burgess,Burgess,,33.5989949,-79.0611651,,,,human,true,
Old Fort Cemetery,United States,South Carolina,Beaufort County,Waterford Place,Waterford Place,,32.3900339,-80.6888251,,,,human,true,
Bethlehem Cemetery,United States,South Carolina,Beaufort County,Waterford Place,Waterford Place,,32.4056604,-80.6875911,,,,human,true,
Evergreen Cemetery,United States,South Carolina,Colleton County,Rhodes Crossroads,Rhodes Crossroads,,32.9334096,-80.6975363,,,,human,true,
Grace Cemetery,United States,South Carolina,Colleton County,Walterboro,Walterboro,,32.932312,-80.6842397,,,,human,true,
Sunnyside Cemetery,United States,South Carolina,Orangeburg County,Hallmark Hills,Hallmark Hills,,33.4976657,-80.8666673,,,,human,true,
Jewish Cemetery,United States,South Carolina,Georgetown County,Steele Town,Steele Town,,33.3699109,-79.2796296,,,,human,true,
Prince George Winyah Cemetery,United States,South Carolina,Georgetown County,Steele Town,Steele Town,,33.3691843,-79.2802206,,,,human,true,
Screven Historical Cemetary,United States,South Carolina,Georgetown County,Steele Town,Steele Town,,33.3661081,-79.280953,,,,human,true,
Pineland Cemetery,United States,SC,Dorchester County,Summerville,Butler Street,29485,33.0117899,-80.1686561,,,,human,true,
Pauley Swamp Cemetary,United States,South Carolina,Horry County,Dongola,Dongola,,33.7570611,-79.1845311,,,,human,true,
Pauley Swamp Cemetary,United States,South Carolina,Horry County,Dongola,Dongola,,33.7575717,-79.1856901,,,,human,true,
Olive Branch Cemetery,United States,South Carolina,Charleston County,Wando Estates,Wando Estates,,32.825915,-79.8385269,,,,human,true,
Cattle Creek Cemetery,United States,South Carolina,Orangeburg County,Lambrick,Lambrick,,33.3225184,-80.7511241,,,,human,true,
Sumter Cemetery,United States,South Carolina,Sumter County,Marigold Heights,Marigold Heights,,33.9141316,-80.3606274,,,,human,true,
Zion Cemetery,United States,South Carolina,Beaufort County,Folly Field,Folly Field,,32.2016642,-80.6997707,,,,human,true,
Braddocks Point Cemetery,United States,South Carolina,Beaufort County,Harbour Town,Harbour Town,,32.1360476,-80.8127218,,,,human,true,
Saint Johns Cemetery,United States,South Carolina,Berkeley County,Sugar Hill,Sugar Hill,,33.210901,-80.0429266,,,,human,true,
Trinity Episcopal Church and Cemetery,United States,South Carolina,Berkeley County,Pinopolis,Pinopolis,,33.2293332,-80.0378064,,,,human,true,
Old Nazereth Cemetery,United States,South Carolina,Berkeley County,Wampee,Wampee,,33.240206,-80.0315714,,,,human,true,
St. Michael's Churchyard,United States,South Carolina,Charleston County,Charleston,Charleston,,32.7761446,-79.9305463,,,,human,true,
Huguenot Church Graveyard,United States,South Carolina,Charleston County,Charleston,Charleston,,32.7781732,-79.9290771,,,,human,true,
West Cemetery,United States,South Carolina,Charleston County,Charleston,Charleston,,32.7789188,-79.9299567,,,,human,true,
Circular Congregational Church Burying Ground,United States,South Carolina,Charleston County,Charleston,Charleston,,32.7789316,-79.9308086,,,,human,true,
Unitarian Churchyard,United States,South Carolina,Charleston County,Charleston,Charleston,,32.778474,-79.934003,,,,human,true,
St. John's Lutheran Churchyard,United States,South Carolina,Charleston County,Charleston,Charleston,,32.7788581,-79.9340929,,,,human,true,
Providence Cemetery,United States,SC,Orangeburg County,Santee,Santee,29142,33.4357087,-80.5193681,,,,human,true,
Dantzler-Hart Cemetery,United States,South Carolina,Orangeburg County,Wells,Wells,,33.3906891,-80.4836798,,,,human,true,
Antioch Cemetery,United States,South Carolina,Orangeburg County,Felderville,Felderville,,33.4603793,-80.5259226,,,,human,true,
Providence Cemetery,United States,South Carolina,Orangeburg County,Providence,Providence,,33.3930029,-80.5400092,,,,human,true,
Gresham Cemetery,United States,South Carolina,Orangeburg County,Oaks Crossroads,Oaks Crossroads,,33.4909053,-80.603085,,,,human,true,
Bookhart Cemetery,United States,South Carolina,Orangeburg County,Elloree,Elloree,,33.5487491,-80.592264,,,,human,true,
Mount Zion Cemetery,United States,South Carolina,Calhoun County,Oak Grove,Oak Grove,,33.7841965,-80.9356519,,,,human,true,
Bell Cemetery,United States,South Carolina,Orangeburg County,Milligans,Milligans,,33.476648,-80.4584559,,,,human,true,
Fort Johnson Presbyterian Church Cemetery,United States,South Carolina,Charleston County,Westchester,Westchester,,32.7176236,-79.9652748,,,,human,true,
Aynor Cemetery,United States,South Carolina,Horry County,Aynor,Aynor,,33.9918211,-79.2055181,,,,human,true,
Farmer & Laborers Cemetery,United States,South Carolina,Charleston County,Myers,Myers,,32.818159,-79.9537958,,,,human,true,
Washington Chapel Methodist Episcopal Cemetery,United States,South Carolina,Charleston County,Myers,Myers,,32.8182672,-79.9534831,,,,human,true,
G.W. Heyward Cemetery,United States,South Carolina,Charleston County,Myers,Myers,,32.8181888,-79.9531844,,,,human,true,
Gertrude Heyward Cemetery,United States,South Carolina,Charleston County,Myers,Myers,,32.8182204,-79.9530288,,,,human,true,
Chapel Hill Church Cemetery,United States,South Carolina,Orangeburg County,Santee,Santee,,33.4905742,-80.4831664,,,,human,true,
African American Cemetary,United States,South Carolina,Charleston County,Old Town,Old Town,,32.807121,-79.9842474,,,,human,true,
Evergreen Cemetery,United States,South Carolina,Clarendon County,Summerton,Summerton,,33.6076314,-80.3549018,,,,human,true,
Beulah Cemetery,United States,South Carolina,Sumter County,Shaws Crossroads,Shaws Crossroads,,33.9630651,-80.2478581,,,,human,true,
Bull Swamp Cemetery,United States,South Carolina,Orangeburg County,Fersners,Fersners,,33.5221223,-80.7808587,,,,human,true,
Pineville Cemetery,United States,South Carolina,Orangeburg County,Bowman,Bowman,,33.4028474,-80.7111253,,,,human,true,
Duncan Chapel Cemetery,United States,South Carolina,Dorchester County,Duncan Chapel,Duncan Chapel,,33.2950214,-80.5617716,,,,human,true,
Scranton United Methodist Church Cemetery,United States,South Carolina,Florence County,Scranton,Scranton,,33.9177825,-79.741173,,,,human,true,
Oak Grove Cemetery,United States,South Carolina,Calhoun County,Oak Grove,Oak Grove,,33.7709044,-80.9725698,,,,human,true,
St. Helena Cemetery,United States,South Carolina,Beaufort County,Beaufort,Beaufort,,32.4348431,-80.674674,,,,human,true,
Baptist Church of Beaufort Cemetery,United States,South Carolina,Beaufort County,Beaufort,Beaufort,,32.434812,-80.673523,,,,human,true,
St. Helena Cemetery,United States,South Carolina,Beaufort County,Beaufort,Beaufort,,32.4340498,-80.6746919,,,,human,true,
Eutawville Cemetery,United States,South Carolina,Orangeburg County,Little Belvidere,Little Belvidere,,33.4003296,-80.3310426,,,,human,true,
Greenlawn Cemetery,United States,South Carolina,Williamsburg County,Moore Crossroads,Moore Crossroads,,33.8639475,-79.8527303,,,,human,true,
Grahamville Cemetery,United States,South Carolina,Jasper County,Grahamville,Grahamville,,32.4705159,-80.9740193,,,,human,true,
Rose Hill Cemetery,United States,South Carolina,Georgetown County,Rose Hill,Rose Hill,,33.5927043,-79.4014489,,,,human,true,
Saint Lukes Cemetery,United States,South Carolina,Florence County,Salem,Salem,,33.899523,-79.490714,,,,human,true,
Elim Cemetery,United States,South Carolina,Williamsburg County,Warsaw,Warsaw,,33.5202283,-79.5772391,,,,human,true,
New Hope Cemetery,United States,South Carolina,Berkeley County,Shulerville,Shulerville,,33.1921574,-79.6294771,,,,human,true,
Saint James Cemetery,United States,South Carolina,Berkeley County,Washington,Washington,,33.2617444,-79.6593339,,,,human,true,
Spring Gully Cemetery,United States,South Carolina,Williamsburg County,Tisdale,Tisdale,,33.5108066,-79.6387619,,,,human,true,
Savannah Creek Memorial Cemetery,United States,South Carolina,Berkeley County,Savanna Creek,Savanna Creek,,33.3043681,-79.7698103,,,,human,true,
Johnson Cemetery,United States,South Carolina,Berkeley County,Calestown,Calestown,,33.281736,-79.8063411,,,,human,true,
Hickory Grove Cemetery,United States,South Carolina,Berkeley County,Hickory Grove (historical),Hickory Grove (historical),,33.2353991,-79.8438228,,,,human,true,
Taylor Cemetery,United States,South Carolina,Berkeley County,Hickory Grove (historical),Hickory Grove (historical),,33.268809,-79.855434,,,,human,true,
Providence Cemetery,United States,South Carolina,Berkeley County,Providence,Providence,,33.2703912,-79.8973355,,,,human,true,
Edens Cemetery,United States,South Carolina,Berkeley County,Alvin,Alvin,,33.3527743,-79.8193619,,,,human,true,
Payne Chapel Cemetery,United States,South Carolina,Berkeley County,Saw Mill,Saw Mill,,33.1220189,-79.9166298,,,,human,true,
Sunset Memorial Cemetery,United States,South Carolina,Berkeley County,Judge Town,Judge Town,,33.430962,-80.0017137,,,,human,true,
Rudd Cemetery,United States,South Carolina,Berkeley County,Lebanon,Lebanon,,33.1517592,-80.2094798,,,,human,true,
Blanton Cemetery,United States,South Carolina,Berkeley County,Lebanon,Lebanon,,33.1339099,-80.2032873,,,,human,true,
Holy Cross Cemetery,United States,South Carolina,Charleston County,Marsh Point,Marsh Point,,32.740636,-79.9143268,,,,human,true,
JacksonboroCommunity Cemetery,United States,South Carolina,Colleton County,Jacksonboro,Jacksonboro,,32.7501169,-80.4628909,,,,human,true,
Calvary Cemetery,United States,South Carolina,Berkeley County,Whitesville,Whitesville,,33.1538405,-80.060027,,,,human,true,
Harleyville Cemetery,United States,South Carolina,Dorchester County,Harleyville,Harleyville,,33.2005275,-80.4517891,,,,human,true,
Moore Cemetery,United States,South Carolina,Dorchester County,Rosinville,Rosinville,,33.2340615,-80.5050713,,,,human,true,
Doctors Creek Cemetery,United States,South Carolina,Colleton County,Stokes,Stokes,,32.938274,-80.7326739,,,,human,true,
Russellville Cemetery,United States,South Carolina,Berkeley County,Russellville,Russellville,,33.392936,-79.9706229,,,,human,true,
Cordesville Cemetery,United States,South Carolina,Berkeley County,Old Cordesville,Old Cordesville,,33.1798145,-79.919958,,,,human,true,
Heyward Family Cemetery,United States,South Carolina,Jasper County,Old House,Old House,,32.4554771,-80.8966043,,,,human,true,
Hoods Chapel Cemetery,United States,South Carolina,Berkeley County,Hickory Grove (historical),Hickory Grove (historical),,33.2758793,-79.8606741,,,,human,true,
Stoney Creek Cemetery,United States,South Carolina,Beaufort County,Tomotley,Tomotley,,32.6232117,-80.828193,,,,human,true,
Rice Path Cemetery,United States,SC,Colleton County,Islandton,Sniders Highway,,32.9095005,-80.9357992,,,,human,true,
Williamsburg Cemetery,United States,South Carolina,Williamsburg County,Woodland Acres,Woodland Acres,,33.6677143,-79.8165181,,,,human,true,
Beth Or Cemetery,United States,South Carolina,Williamsburg County,Woodland Acres,Woodland Acres,,33.6684689,-79.8169879,,,,human,true,
Kingstree Memorial Gardens,United States,South Carolina,Williamsburg County,Woodland Acres,Woodland Acres,,33.6691624,-79.8060174,,,,human,true,
Harmony Cemetery,United States,South Carolina,Williamsburg County,Antioch,Antioch,,33.4924964,-79.6117561,,,,human,true,
Mexico Cemetery,United States,South Carolina,Berkeley County,Wing Road,Wing Road,,33.4452744,-80.10975,,,,human,true,
Coulter Cemetery,United States,South Carolina,Sumter County,Wedgewood,Wedgewood,,33.8408472,-80.5174629,,,,human,true,
Inlet Cemetery,United States,South Carolina,Beaufort County,Sherwood Forest,Sherwood Forest,,32.4082721,-80.6433691,,,,human,true,
The Droze Cemetery,United States,South Carolina,Berkeley County,Fairfax,Fairfax,,33.0302207,-80.0570462,,,,human,true,
Beaufort Memorial Gardens,United States,South Carolina,Beaufort County,Burton,Burton,,32.4307163,-80.7145425,,,,human,true,
Brunsons Cemetery,United States,South Carolina,Sumter County,Brunsons Store,Brunsons Store,,33.8632519,-80.2172043,,,,human,true,
Confederate Cemetery,United States,South Carolina,Charleston County,Moultrie Heights,Moultrie Heights,,32.7856718,-79.8737278,,,,human,true,
Ebenezer Cemetery,United States,South Carolina,Orangeburg County,Cordova,Cordova,,33.431602,-80.9280611,,,,human,true,
Old Neck Cemetery,United States,South Carolina,Marion County,Brittons Neck,Brittons Neck,,33.8630558,-79.3313112,,,,human,true,
Asbury Cemetery,United States,South Carolina,Sumter County,Shiloh,Shiloh,,33.9562585,-80.040262,,,,human,true,
McClary Cemetery,United States,South Carolina,Williamsburg County,Nexsen (historical),Nexsen (historical),,33.6310593,-79.775581,,,,human,true,
Cades Cemetery,United States,South Carolina,Williamsburg County,Cades,Cades,,33.7807083,-79.7999859,,,,human,true,
Godwin Cemetery,United States,South Carolina,Florence County,Lake City,Lake City,,33.882983,-79.7478917,,,,human,true,
Camp Branch Cemetery,United States,South Carolina,Florence County,Camp Branch,Camp Branch,,33.9088714,-79.8168272,,,,human,true,
Eaddy-Ford Cemetery,United States,South Carolina,Williamsburg County,Saint Johns Crossroads,Saint Johns Crossroads,,33.8067981,-79.5166531,,,,human,true,
Eaddy Cemetery,United States,South Carolina,Florence County,Prospect Crossroads,Prospect Crossroads,,33.8232053,-79.5208502,,,,human,true,
Baxley Cemetery,United States,South Carolina,Florence County,Prospect Crossroads,Prospect Crossroads,,33.8322888,-79.5414716,,,,human,true,
Powell Cemetery,United States,South Carolina,Florence County,Prospect Crossroads,Prospect Crossroads,,33.8338469,-79.5675042,,,,human,true,
Hanna Cemetery,United States,South Carolina,Florence County,Prospect Crossroads,Prospect Crossroads,,33.8198481,-79.5775107,,,,human,true,
Power-DuRant Cemetery,United States,South Carolina,Florence County,Prospect Crossroads,Prospect Crossroads,,33.8057289,-79.5442246,,,,human,true,
Saint Paul Cemetery,United States,South Carolina,Clarendon County,Davis Crossroads,Davis Crossroads,,33.5669956,-80.3608708,,,,human,true,
Butler Cemetery,United States,South Carolina,Clarendon County,Saint Paul,Saint Paul,,33.5297249,-80.3731863,,,,human,true,
Brown Cemetery,United States,South Carolina,Clarendon County,Belser Crossroads,Belser Crossroads,,33.6321281,-80.3992645,,,,human,true,
Calvary Cemetery,United States,South Carolina,Sumter County,Hodges Corner,Hodges Corner,,33.7005099,-80.4173003,,,,human,true,
Reynolds Cemetery,United States,South Carolina,Sumter County,Hodges Corner,Hodges Corner,,33.7573488,-80.4077634,,,,human,true,
Home Branch Cemetery,United States,South Carolina,Clarendon County,Paxville,Paxville,,33.7437702,-80.3173052,,,,human,true,
Marshall Cemetery,United States,South Carolina,Sumter County,Lakewood,Lakewood,,33.8514202,-80.3315197,,,,human,true,
Wood Chapel Cemetery,United States,South Carolina,Sumter County,Concord Estates,Concord Estates,,33.8774516,-80.3268758,,,,human,true,
Jones Cemetery,United States,South Carolina,Sumter County,Moses Heights,Moses Heights,,33.8940509,-80.3281951,,,,human,true,
Webb Cemetery,United States,South Carolina,Sumter County,Kingman Heights,Kingman Heights,,33.9033912,-80.3314314,,,,human,true,
Singleton Cemetery,United States,South Carolina,Sumter County,Warwick Estates,Warwick Estates,,33.886576,-80.3795246,,,,human,true,
St. Paul's Lutheran Cemetery,United States,South Carolina,Charleston County,Moultrie Heights,Moultrie Heights,,32.7845571,-79.8685235,,,,human,true,
Beth Israel Cemetery,United States,South Carolina,Beaufort County,Beaufort,Beaufort,,32.43747,-80.680132,,,,human,true,
Evergreen Cemetery,United States,South Carolina,Beaufort County,Beaufort,Beaufort,,32.4388062,-80.6800975,,,,human,true,
Citizens Cemetery,United States,South Carolina,Beaufort County,Beaufort,Beaufort,,32.4391886,-80.6811936,,,,human,true,
Aimwell Cemetery,United States,South Carolina,Florence County,Mount Zion,Mount Zion,,33.949126,-79.5534645,,,,human,true,
Mount Zion Cemetery,United States,South Carolina,Florence County,Mount Zion,Mount Zion,,33.9506048,-79.5538166,,,,human,true,
Poston Cemetery,United States,South Carolina,Florence County,Butler Crossroads,Butler Crossroads,,33.9234699,-79.5585359,,,,human,true,
Prosser Cemetery,United States,South Carolina,Florence County,Poston Crossroads,Poston Crossroads,,33.9000845,-79.5414662,,,,human,true,
Salem Cemetery,United States,South Carolina,Florence County,Salem,Salem,,33.8875043,-79.5125929,,,,human,true,
Johnson Cemetery,United States,South Carolina,Florence County,Johnsonville,Johnsonville,,33.8422071,-79.4690337,,,,human,true,
Grier Cemetery,United States,South Carolina,Florence County,Johnsonville,Johnsonville,,33.8235726,-79.4527815,,,,human,true,
Lake Chapel Cemetery,United States,South Carolina,Williamsburg County,Saint Johns Crossroads,Saint Johns Crossroads,,33.8089736,-79.4875339,,,,human,true,
New Hope Cemetery,United States,South Carolina,Florence County,Johnsonville,Johnsonville,,33.8251063,-79.4247712,,,,human,true,
Powell Cemetery,United States,South Carolina,Williamsburg County,Muddy Creek Crossroads,Muddy Creek Crossroads,,33.8175814,-79.4053665,,,,human,true,
Johnson Cemetery,United States,South Carolina,Williamsburg County,Muddy Creek Crossroads,Muddy Creek Crossroads,,33.7971205,-79.3977852,,,,human,true,
Ebenezer Cemetery,United States,South Carolina,Williamsburg County,Muddy Creek Crossroads,Muddy Creek Crossroads,,33.7782131,-79.4109004,,,,human,true,
Old Johnsonville Cemetery,United States,South Carolina,Florence County,Venters,Venters,,33.7873737,-79.4447099,,,,human,true,
Old Johnsonville Cemetery,United States,South Carolina,Florence County,Venters,Venters,,33.7875899,-79.4436123,,,,human,true,
Garden of Devotion Cemetery,United States,South Carolina,Florence County,Venters,Venters,,33.7925739,-79.4428053,,,,human,true,
Mary Field Cemetery,United States,South Carolina,Beaufort County,Daufuskie Landing,Daufuskie Landing,,32.1155885,-80.8864111,,,,human,true,
Hughes Cemetery,United States,South Carolina,Charleston County,Red Top,Red Top,,32.8056823,-80.1295942,,,,human,true,
Live Oak Memorial Gardens,United States,South Carolina,Charleston County,Shadowmoss,Shadowmoss,,32.8502608,-80.068203,,,,human,true,
Riverview Memorial Park,United States,South Carolina,Charleston County,Ashley Shores,Ashley Shores,,32.845492,-79.9891707,,,,human,true,
Brown Cemetery,United States,South Carolina,Charleston County,Ashleyville,Ashleyville,,32.7968911,-79.9865664,,,,human,true,
McDowell Cemetery,United States,South Carolina,Berkeley County,Wando,Wando,,32.9323854,-79.8341196,,,,human,true,
Saint Thomas Cemetery,United States,South Carolina,Berkeley County,Old Vat (historical),Old Vat (historical),,32.9606313,-79.8573187,,,,human,true,
Belle Isle Plantation Cemetery,United States,South Carolina,Berkeley County,Wing Road,Wing Road,,33.4539537,-80.0871335,,,,human,true,
Bluford Cemetery,United States,South Carolina,Berkeley County,Wing Road,Wing Road,,33.4489142,-80.0755065,,,,human,true,
Mahan Plantation Cemetery,United States,South Carolina,Berkeley County,Region Town (historical),Region Town (historical),,33.4458538,-80.0545137,,,,human,true,
Sunset Memorial Cemetery,United States,South Carolina,Charleston County,Ashley Heights,Ashley Heights,,32.9302892,-80.0569368,,,,human,true,
Johnson Cemetery,United States,South Carolina,Charleston County,Ashley Heights,Ashley Heights,,32.9272175,-80.0502584,,,,human,true,
Jaxville Cemetery,United States,South Carolina,Beaufort County,Pinckney Colony,Pinckney Colony,,32.2877338,-80.8870069,,,,human,true,
Saint James Cemetery,United States,South Carolina,Dorchester County,Saint George,Saint George,,33.1973891,-80.5624758,,,,human,true,
Saint George Cemetery,United States,South Carolina,Dorchester County,Saint George,Saint George,,33.1891483,-80.582425,,,,human,true,
Good Hope Cemetery,United States,South Carolina,Dorchester County,Hudsontown,Hudsontown,,33.2052793,-80.5921627,,,,human,true,
Laurel Hill Cemetery,United States,South Carolina,Beaufort County,Daniels,Daniels,,32.4892391,-80.6197346,,,,human,true,
Peniel Cemetery,United States,South Carolina,Colleton County,Sniders Crossroads,Sniders Crossroads,,32.888627,-80.8803898,,,,human,true,
Peniel Cemetery,United States,South Carolina,Colleton County,Sniders Crossroads,Sniders Crossroads,,32.8867801,-80.8807096,,,,human,true,
Adnah Cemetery,United States,South Carolina,Colleton County,Varntown (historical),Varntown (historical),,32.8928827,-80.8863949,,,,human,true,
Ulmer Cemetery,United States,South Carolina,Colleton County,Sniders Crossroads,Sniders Crossroads,,32.9177442,-80.8631259,,,,human,true,
Breland Cemetery,United States,South Carolina,Colleton County,Sniders Crossroads,Sniders Crossroads,,32.9314022,-80.8599195,,,,human,true,
Bethel Cemetery,United States,South Carolina,Colleton County,Bells Crossroads,Bells Crossroads,,32.9380598,-80.857153,,,,human,true,
Old Field Creek Cemetery,United States,South Carolina,Colleton County,Bells Crossroads,Bells Crossroads,,32.9724829,-80.8572483,,,,human,true,
Smyly Cemetery,United States,South Carolina,Colleton County,Smyly,Smyly,,33.0305637,-80.7911823,,,,human,true,
Smoaks Cemetery,United States,South Carolina,Colleton County,Smoaks,Smoaks,,33.088661,-80.8209787,,,,human,true,
Trinity Cemetery,United States,South Carolina,Colleton County,Smoaks,Smoaks,,33.0923211,-80.8138249,,,,human,true,
May Cemetery,United States,South Carolina,Bamberg County,Whetstone Crossroads,Whetstone Crossroads,,33.1466026,-80.8093818,,,,human,true,
Ridge Cemetery,United States,South Carolina,Berkeley County,Wide Awake,Wide Awake,,33.0422283,-80.1110199,,,,human,true,
Salem Cemetery,United States,South Carolina,Berkeley County,Wide Awake,Wide Awake,,33.0481092,-80.1101551,,,,human,true,
Buck Graveyard,United States,South Carolina,Horry County,Bucksville,Bucksville,,33.7157234,-79.0674466,,,,human,true,
Sullivan's Island Historic Cemetery,United States,SC,Charleston County,Sullivan's Island,406 Patriot Street,29482,32.7643186,-79.8383534,,,,human,true,
Beulah Cemetery,United States,South Carolina,Dorchester County,Cat Hole,Cat Hole,,33.1602581,-80.7129162,,,,human,true,
Thompson Cemetery,United States,South Carolina,Dorchester County,Dorange,Dorange,,33.2361219,-80.7138966,,,,human,true,
McAlhany Cemetery,United States,South Carolina,Bamberg County,Whetstone Crossroads,Whetstone Crossroads,,33.1973216,-80.7905892,,,,human,true,
Hagan Cemetery,United States,South Carolina,Colleton County,Padgetts,Padgetts,,33.121103,-80.8823047,,,,human,true,
Little Swamp Cemetery,United States,South Carolina,Colleton County,Padgetts,Padgetts,,33.0807318,-80.9009523,,,,human,true,
Carter Ford Cemetery,United States,South Carolina,Colleton County,Lodge,Lodge,,33.0719964,-80.9226664,,,,human,true,
Jones Cemetery,United States,South Carolina,Colleton County,Lodge,Lodge,,33.0475919,-80.9424973,,,,human,true,
Strickland Cemetery,United States,South Carolina,Colleton County,Williams,Williams,,33.0607537,-80.8487367,,,,human,true,
Connor Cemetery,United States,South Carolina,Colleton County,Johnsville,Johnsville,,33.1282081,-80.7479298,,,,human,true,
Old Miss Cemetery,United States,South Carolina,Dorchester County,Cat Hole,Cat Hole,,33.12822,-80.7273485,,,,human,true,
Harper Cemetery,United States,South Carolina,Dorchester County,Rosinville,Rosinville,,33.2117853,-80.5379681,,,,human,true,
Midway Cemetery,United States,South Carolina,Williamsburg County,Midway Crossroads,Midway Crossroads,,33.7664441,-79.547027,,,,human,true,
Isaac Hayne Tomb,United States,South Carolina,Colleton County,Burnt Church Crossroads,Burnt Church Crossroads,,32.8069643,-80.479374,,,,human,true,
Buzzard Roost Cemetery,United States,South Carolina,Colleton County,Jacksonboro,Jacksonboro,,32.7825441,-80.4717553,,,,human,true,
Pennyroyal Cemetery,United States,South Carolina,Georgetown County,Moyd,Moyd,,33.3344296,-79.3411231,,,,human,true,
Baptist Cemetery,United States,South Carolina,Georgetown County,Steele Town,Steele Town,,33.3703788,-79.2777124,,,,human,true,
Hucks Field Cemetery,United States,South Carolina,Georgetown County,Cribb Crossroads,Cribb Crossroads,,33.6416131,-79.2666181,,,,human,true,
Rose Hill Cemetery,United States,South Carolina,Beaufort County,Roseida,Roseida,,32.4686922,-80.7401208,,,,human,true,
Byrd Cemetery,United States,South Carolina,Orangeburg County,Branchville,Branchville,,33.2574888,-80.8330209,,,,human,true,
Spell Cemetery,United States,SC,Dorchester County,Smoaks,Augusta Highway,29481,33.1186269,-80.7119427,,,,human,true,
Union Cemetery,United States,South Carolina,Williamsburg County,Bryans Crossroads,Bryans Crossroads,,33.5668142,-79.833141,,,,human,true,
Elliot Cemetery,United States,South Carolina,Beaufort County,Hilton Head Plantation,Hilton Head Plantation,,32.2655599,-80.724232,,,,human,true,
Talbird Cemetery,United States,South Carolina,Beaufort County,Seabrook Landing,Seabrook Landing,,32.2476145,-80.7449594,,,,human,true,
Emanuel AME Church Cemetery,United States,South Carolina,Charleston County,Myers,Myers,,32.8167119,-79.9496547,,,,human,true,
Grecian Society of Charleston Cemetery,United States,South Carolina,Charleston County,Myers,Myers,,32.8161431,-79.949067,,,,human,true,
Brown Fellowship Society Cemetery (modern),United States,South Carolina,Charleston County,Myers,Myers,,32.8161056,-79.9480157,,,,human,true,
Friendly Union Society Cemetery,United States,South Carolina,Charleston County,Myers,Myers,,32.8161061,-79.948259,,,,human,true,
Christian Benevolent Society Cemetery,United States,South Carolina,Charleston County,Myers,Myers,,32.8163554,-79.947546,,,,human,true,
Unity and Friendship Society Cemetery,United States,South Carolina,Charleston County,Myers,Myers,,32.816104,-79.9471391,,,,human,true,
Humane and Friendly Society Cemetery,United States,South Carolina,Charleston County,Myers,Myers,,32.816106,-79.947695,,,,human,true,
