name,country,state,county,city,street_address,zip_code,latitude,longitude,email,website,phone_number,type,is_operational,description
Bland Cemetery,United States,Tennessee,Fayette County,Belmont,Belmont,,35.3918162,-89.4976949,,,,human,true,
Collier Cemeteries,United States,Tennessee,Haywood County,Fredonia,Fredonia,,35.4170272,-89.4459069,,,,human,true,
Shaw Cemetery,United States,Tennessee,Shelby County,Arlington,Arlington,,35.2573092,-89.6609136,,,,human,true,
Shepherd Cemetery,United States,Tennessee,Fayette County,Rather,Rather,,35.0828666,-89.2797923,,,,human,true,
Shepherd Cemetery,United States,Tennessee,Fayette County,Rather,Rather,,35.0856444,-89.2786812,,,,human,true,
Shiloh Cemetery,United States,Tennessee,Fayette County,Pattersonville,Pattersonville,,35.1075886,-89.3389607,,,,human,true,
Simmons Cemetery,United States,Tennessee,Hardeman County,Vildo,Vildo,,35.43008,-89.1167319,,,,human,true,
Simmons Cemetery,United States,Tennessee,Crockett County,Bells,Bells,,35.7172955,-89.0806204,,,,human,true,
Smith Cemetery,United States,Tennessee,Hardeman County,Cedar Chapel,Cedar Chapel,,35.4042477,-89.1650663,,,,human,true,
Stone Cemetery,United States,Tennessee,Fayette County,New Bethel,New Bethel,,35.0820346,-89.541745,,,,human,true,
Stout Cemetery,United States,Tennessee,Fayette County,Hays,Hays,,35.0056472,-89.5020221,,,,human,true,
Taylor Cemetery,United States,Tennessee,Fayette County,Miller,Miller,,35.3567497,-89.2856249,,,,human,true,
Teel Cemetery,United States,Tennessee,Fayette County,Rossville Junction,Rossville Junction,,35.0434243,-89.5350784,,,,human,true,
Tharp Cemetery,United States,Tennessee,Fayette County,Warren,Warren,,35.2039761,-89.4411855,,,,human,true,
Thomas Cemetery,United States,Tennessee,Shelby County,Arlington,Arlington,,35.2700866,-89.6261904,,,,human,true,
Tipton Cemetery,United States,Tennessee,Tipton County,Solo,Solo,,35.554803,-89.6111885,,,,human,true,
Trainer Cemetery,United States,Tennessee,Fayette County,Mount Moriah,Mount Moriah,,35.3250834,-89.2489572,,,,human,true,
Union Grove Cemetery,United States,Tennessee,Tipton County,Beaver,Beaver,,35.5070264,-89.825361,,,,human,true,
Vison Cemetery,United States,Tennessee,Madison County,Hatchie,Hatchie,,35.418413,-89.0517304,,,,human,true,
Vison Cemetery,United States,Tennessee,Madison County,Hatchie,Hatchie,,35.4309128,-89.0667308,,,,human,true,
Walker Cemetery,United States,Tennessee,Fayette County,Piperton,Piperton,,35.0109252,-89.5853579,,,,human,true,
Walker Cemetery,United States,Tennessee,Fayette County,Piperton,Piperton,,35.0139808,-89.5845245,,,,human,true,
Walker Cemetery,United States,Tennessee,Haywood County,Woodland,Woodland,,35.5209115,-89.1183988,,,,human,true,
Waller Cemetery,United States,Tennessee,Fayette County,Macon,Macon,,35.1961986,-89.4711864,,,,human,true,
Warr Cemetery,United States,Tennessee,Fayette County,Elba,Elba,,35.0798126,-89.5659123,,,,human,true,
Warr Cemetery,United States,Tennessee,Fayette County,Elba,Elba,,35.0798126,-89.5709124,,,,human,true,
Wells Cemetery,United States,Tennessee,Shelby County,Arlington,Arlington,,35.2498094,-89.6698028,,,,human,true,
Whitetaker Cemetery,United States,Tennessee,Fayette County,Somerville,Somerville,,35.2406411,-89.30007,,,,human,true,
Williams Cemetery,United States,Tennessee,Hardeman County,Cedar Chapel,Cedar Chapel,,35.3914701,-89.155066,,,,human,true,
Williams Cemetery,United States,Tennessee,Tipton County,Randolph,Randolph,,35.5186929,-89.8870294,,,,human,true,
Williams Chapel Cemetery,United States,Tennessee,Dyer County,Bonicord,Bonicord,,35.9472948,-89.3222934,,,,human,true,
Williamson Cemetery,United States,Tennessee,Fayette County,Canadaville,Canadaville,,35.1617554,-89.5725785,,,,human,true,
Williamson Cemetery,United States,Tennessee,Fayette County,Lambert,Lambert,,35.3389733,-89.4425738,,,,human,true,
Wilson Cemetery,United States,Tennessee,Fayette County,Oakland,Oakland,,35.2320314,-89.5167431,,,,human,true,
Yancy Cemetery,United States,Tennessee,Fayette County,Canadaville,Canadaville,,35.1442558,-89.5806345,,,,human,true,
Adams Cemetery,United States,Tennessee,Tipton County,Munford,Munford,,35.4553609,-89.8356394,,,,human,true,
Albritton Cemetery,United States,Tennessee,Crockett County,Chestnut Bluff,Chestnut Bluff,,35.8584073,-89.3159041,,,,human,true,
Alexander Cemetery,United States,Tennessee,Fayette County,Macon,Macon,,35.1598108,-89.5353553,,,,human,true,
Ambrose Cemetery,United States,Tennessee,Fayette County,Forty Five,Forty Five,,35.0359235,-89.3364611,,,,human,true,
Anderson Cemetery,United States,Tennessee,Lauderdale County,Halls,Halls,,35.8750744,-89.4242397,,,,human,true,
Bailey Cemetery,United States,Tennessee,Fayette County,Canadaville,Canadaville,,35.1742552,-89.5845232,,,,human,true,
Baskerville Cemetery,United States,Tennessee,Haywood County,Fredonia,Fredonia,,35.3589728,-89.4209064,,,,human,true,
Bates Cemetery,United States,Tennessee,Lauderdale County,Oak Grove,Oak Grove,,35.6417462,-89.7989711,,,,human,true,
Baxter Cemetery,United States,Tennessee,Shelby County,Fisherville,Fisherville,,35.1614781,-89.6850818,,,,human,true,
Beech Bluff Cemetery,United States,Tennessee,Lauderdale County,Halls,Halls,,35.8603524,-89.4117394,,,,human,true,
Belmount Cemetery,United States,Tennessee,Shelby County,Lucy,Lucy,,35.3173084,-89.9511988,,,,human,true,
Benjestown Cemetery,United States,Tennessee,Shelby County,Northaven,Northaven,,35.2648097,-90.0498128,,,,human,true,
Bettis Cemetery,United States,Tennessee,Crockett County,Chestnut Bluff,Chestnut Bluff,,35.8536852,-89.3264599,,,,human,true,
Blain Cemetery,United States,Tennessee,Fayette County,Elba,Elba,,35.0859235,-89.5614677,,,,human,true,
Brooks Cemetery,United States,Tennessee,Shelby County,Eads,Eads,,35.1898106,-89.657303,,,,human,true,
Brooks Cemetery,United States,Tennessee,Crockett County,Chestnut Bluff,Chestnut Bluff,,35.8595185,-89.3317378,,,,human,true,
Brown Cemetery,United States,Tennessee,Fayette County,Somerville,Somerville,,35.2053644,-89.3536828,,,,human,true,
Carnes Cemetery,United States,Tennessee,Hardeman County,Cedar Chapel,Cedar Chapel,,35.3720262,-89.1722886,,,,human,true,
Carpenter Cemetery,United States,Tennessee,Fayette County,Macon,Macon,,35.1442555,-89.5042434,,,,human,true,
Carter Cemetery,United States,Tennessee,Crockett County,Chestnut Bluff,Chestnut Bluff,,35.8500741,-89.3122929,,,,human,true,
Casey Cemetery,United States,Tennessee,Crockett County,Walnut Hill,Walnut Hill,,35.7353502,-89.0472862,,,,human,true,
Chaffin Cemetery,United States,Tennessee,Fayette County,Warren,Warren,,35.2245311,-89.4320184,,,,human,true,
Clark Cemetery,United States,Tennessee,Fayette County,Williston,Williston,,35.1759205,-89.3528497,,,,human,true,
Clay Cemetery,United States,Tennessee,Fayette County,Canadaville,Canadaville,,35.1770327,-89.5514667,,,,human,true,
Clay Cemetery,United States,Tennessee,Fayette County,Oakland,Oakland,,35.1836992,-89.5370218,,,,human,true,
Clifton Summit Cemetery,United States,Tennessee,Fayette County,Braden,Braden,,35.3643951,-89.5837314,,,,human,true,
Cross Cemetery,United States,Tennessee,Fayette County,Canadaville,Canadaville,,35.1814773,-89.6028571,,,,human,true,
Currie Cemetery,United States,Tennessee,Haywood County,Woodland,Woodland,,35.5584107,-89.1200656,,,,human,true,
Dudney Cemetery,United States,Tennessee,Fayette County,Canadaville,Canadaville,,35.1675886,-89.5850789,,,,human,true,
Dungan Cemetery,United States,Tennessee,Fayette County,Williston,Williston,,35.1761986,-89.4039623,,,,human,true,
Dupree Cemeteries,United States,Tennessee,Fayette County,Hickory Withe,Hickory Withe,,35.1934213,-89.5570223,,,,human,true,
Dupree Cemetery,United States,Tennessee,Fayette County,Pattersonville,Pattersonville,,35.1889755,-89.2897921,,,,human,true,
Flournoy Cemetery,United States,Tennessee,Fayette County,Longtown,Longtown,,35.373973,-89.527576,,,,human,true,
Forrest Cemetery,United States,Tennessee,Madison County,Leighton,Leighton,,35.5314664,-89.0792314,,,,human,true,
Forrest Cemetery,United States,Tennessee,Madison County,Leighton,Leighton,,35.5514659,-89.0753424,,,,human,true,
Gallaway Cemetery,United States,Tennessee,Fayette County,Gallaway,Gallaway,,35.3428628,-89.6084116,,,,human,true,
Gatley Cemetery,United States,Tennessee,Fayette County,Tanyard (historical),Tanyard (historical),,35.195364,-89.2539577,,,,human,true,
Glenn Cemetery,United States,Tennessee,Crockett County,Chestnut Bluff,Chestnut Bluff,,35.8511851,-89.3084039,,,,human,true,
Good Hope Cemetery,United States,Tennessee,Crockett County,Bells,Bells,,35.7270175,-89.0781203,,,,human,true,
Granbery Cemetery,United States,Tennessee,Fayette County,Macon,Macon,,35.1598106,-89.4925762,,,,human,true,
Granbery Cemetery,United States,Tennessee,Fayette County,Macon,Macon,,35.167866,-89.4900761,,,,human,true,
Green Cemetery,United States,Tennessee,Fayette County,Rather,Rather,,35.1000886,-89.3050708,,,,human,true,
Harris Cemetery,United States,Tennessee,Fayette County,Macon,Macon,,35.1528663,-89.4856317,,,,human,true,
Harris Cemetery,United States,Tennessee,Fayette County,Gallaway,Gallaway,,35.3392519,-89.633968,,,,human,true,
Harwell Cemetery,United States,Tennessee,Haywood County,Fredonia,Fredonia,,35.367306,-89.4417404,,,,human,true,
Heaslet Cemetery,United States,Tennessee,Fayette County,Macon,Macon,,35.112867,-89.4670202,,,,human,true,
Hillard Nolley Cemetery,United States,Tennessee,Fayette County,Griffen,Griffen,,35.2678642,-89.5425769,,,,human,true,
Hopewell Cemetery,United States,Tennessee,Fayette County,Gallaway,Gallaway,,35.3659179,-89.6175785,,,,human,true,
Hunter Cemetery,United States,Tennessee,Fayette County,Elba,Elba,,35.1200896,-89.5870237,,,,human,true,
Hunter Cemetery,United States,Tennessee,Fayette County,Canadaville,Canadaville,,35.1706441,-89.5692451,,,,human,true,
Hutchins Cemetery,United States,Tennessee,Fayette County,Williston,Williston,,35.1984201,-89.3603498,,,,human,true,
Jenkins Cemetery,United States,Tennessee,Fayette County,Canadaville,Canadaville,,35.1314784,-89.611191,,,,human,true,
Jenkins Cemetery,United States,Tennessee,Fayette County,Canadaville,Canadaville,,35.1348115,-89.5817457,,,,human,true,
Johnson Cemetery,United States,Tennessee,Fayette County,Hays Crossing,Hays Crossing,,35.1053673,-89.4789651,,,,human,true,
Ketchum Cemetery,United States,Tennessee,Fayette County,Warren,Warren,,35.218698,-89.4467411,,,,human,true,
Kinney Cemetery,United States,Tennessee,Hardeman County,Cedar Chapel,Cedar Chapel,,35.384248,-89.1481215,,,,human,true,
Knox Cemetery,United States,Tennessee,Fayette County,Hays,Hays,,35.0198135,-89.5017443,,,,human,true,
Land Cemetery,United States,Tennessee,Shelby County,Pea Point (historical),Pea Point (historical),,35.2503651,-89.7006371,,,,human,true,
Lewis Parrot Cemetery,United States,Tennessee,Fayette County,Macon,Macon,,35.1620325,-89.4406302,,,,human,true,
Liberty Cemetery,United States,Tennessee,Crockett County,Johnsons Grove,Johnsons Grove,,35.763685,-89.1822897,,,,human,true,
Little John Cemetery,United States,Tennessee,Shelby County,Little John,Little John,,35.2986977,-89.9728662,,,,human,true,
Log Union Cemetery,United States,Tennessee,Shelby County,Pea Point (historical),Pea Point (historical),,35.2445319,-89.7273045,,,,human,true,
Lucas Cemetery,United States,Tennessee,Fayette County,Longtown,Longtown,,35.3178632,-89.5503547,,,,human,true,
Luckenbill Cemetery,United States,Tennessee,Crockett County,Walnut Hill,Walnut Hill,,35.6970176,-89.0339526,,,,human,true,
Ludicia Cemetery,United States,Tennessee,Shelby County,Madge,Madge,,35.3628627,-89.6814691,,,,human,true,
Mabone Cemetery,United States,Tennessee,Fayette County,Canadaville,Canadaville,,35.164811,-89.6214688,,,,human,true,
McCoy Cemetery,United States,Tennessee,Dyer County,Fowlkes,Fowlkes,,35.9536839,-89.3828501,,,,human,true,
McCraw Cemetery,United States,Tennessee,Shelby County,Madge,Madge,,35.3714734,-89.6278565,,,,human,true,
McCulley Cemetery,United States,Tennessee,Shelby County,Eads,Eads,,35.2003659,-89.6153573,,,,human,true,
McFerrin Cemetery,United States,Tennessee,Fayette County,Powers,Powers,,35.2103645,-89.3811836,,,,human,true,
McRee Cemetery,United States,Tennessee,Fayette County,New Bethel,New Bethel,,35.0728681,-89.5234111,,,,human,true,
McRee Cemetery,United States,Tennessee,Fayette County,New Bethel,New Bethel,,35.0734236,-89.5214666,,,,human,true,
Mebane Cemetery,United States,Tennessee,Fayette County,Elba,Elba,,35.1350891,-89.5453558,,,,human,true,
Miller Cemetery,United States,Tennessee,Fayette County,Miller,Miller,,35.3564719,-89.2825692,,,,human,true,
Miller Cemetery,United States,Tennessee,Hardeman County,Vildo,Vildo,,35.4150805,-89.1353434,,,,human,true,
Moe Cemetery,United States,Tennessee,Fayette County,Williston,Williston,,35.191476,-89.3900729,,,,human,true,
Moody Cemetery,United States,Tennessee,Fayette County,Pattersonville,Pattersonville,,35.1145327,-89.308682,,,,human,true,
Moore Cemetery,United States,Tennessee,Fayette County,Elba,Elba,,35.1273116,-89.558134,,,,human,true,
Moore Cemetery,United States,Tennessee,Hardeman County,Vildo,Vildo,,35.4014694,-89.0989536,,,,human,true,
Morris Cemetery,United States,Tennessee,Fayette County,New Bethel,New Bethel,,35.1353669,-89.5309108,,,,human,true,
Morris Cemetery,United States,Tennessee,Fayette County,Williston,Williston,,35.1498103,-89.4020179,,,,human,true,
Murrell Cemetery,United States,Tennessee,Fayette County,Canadaville,Canadaville,,35.1592554,-89.5561892,,,,human,true,
Nash Cemetery,United States,Tennessee,Dyer County,Hawkinsville,Hawkinsville,,35.9250727,-89.2820148,,,,human,true,
New Cauley Cemetery,United States,Tennessee,Hardeman County,Vildo,Vildo,,35.3906366,-89.1325655,,,,human,true,
New Hope Cemetery,United States,Tennessee,Lauderdale County,Fort Pillow,Fort Pillow,,35.6673013,-89.7236911,,,,human,true,
Old Cauley Cemetery,United States,Tennessee,Hardeman County,Vildo,Vildo,,35.3970253,-89.1339544,,,,human,true,
Old Randolph Cemetery,United States,Tennessee,Tipton County,Randolph,Randolph,,35.5236928,-89.8856406,,,,human,true,
Oursler Cemetery,United States,Tennessee,Fayette County,Rossville Junction,Rossville Junction,,35.0175917,-89.563135,,,,human,true,
Parks Cemetery,United States,Tennessee,Fayette County,Tanyard (historical),Tanyard (historical),,35.1811977,-89.2661803,,,,human,true,
Parr Cemetery,United States,Tennessee,Fayette County,Moscow,Moscow,,35.0262019,-89.421186,,,,human,true,
Parr Cemetery,United States,Tennessee,Lauderdale County,Poplar Grove,Poplar Grove,,35.9122959,-89.4247952,,,,human,true,
Perry Cemetery,United States,Tennessee,Fayette County,Powers,Powers,,35.2186978,-89.4072955,,,,human,true,
Person Cemetery,United States,Tennessee,Fayette County,Warren,Warren,,35.2250868,-89.4561858,,,,human,true,
Pipkins Cemetery,United States,Tennessee,Tipton County,Mason,Mason,,35.4128103,-89.5154135,,,,human,true,
Porter Cemetery,United States,Tennessee,Fayette County,Macon,Macon,,35.1467556,-89.5331331,,,,human,true,
Powell Cemetery,United States,Tennessee,Fayette County,Williston,Williston,,35.1906426,-89.3631277,,,,human,true,
Priddy Cemetery,United States,Tennessee,Shelby County,Eads,Eads,,35.195644,-89.6650809,,,,human,true,
Rives Cemetery,United States,Tennessee,Fayette County,Forty Five,Forty Five,,35.0100905,-89.2972932,,,,human,true,
Rives Cemetery,United States,Tennessee,Fayette County,Forty Five,Forty Five,,35.0123127,-89.2959043,,,,human,true,
Rutherford Cemetery,United States,Tennessee,Lauderdale County,Key Corner,Key Corner,,35.9175739,-89.4745184,,,,human,true,
Saint Paul Cemetery,United States,Tennessee,Tipton County,Mason,Mason,,35.4339718,-89.5431317,,,,human,true,
Sammons Cemetery,United States,Tennessee,Hardeman County,Cedar Chapel,Cedar Chapel,,35.4053589,-89.1783999,,,,human,true,
Samuels Cemetery,United States,Tennessee,Lauderdale County,Oak Grove,Oak Grove,,35.6386907,-89.7967489,,,,human,true,
Scott Cemetery,United States,Tennessee,Hardeman County,Grand Junction,Grand Junction,,35.0114789,-89.1811786,,,,human,true,
Scratchunder Cemetery,United States,Tennessee,Haywood County,Willis,Willis,,35.4989691,-89.2939582,,,,human,true,
Scrub Oak Cemetery,United States,Tennessee,Tipton County,Gailor,Gailor,,35.4467492,-89.4995193,,,,human,true,
Smiths Chapel Cemetery,United States,Tennessee,Fayette County,Pattersonville,Pattersonville,,35.1331434,-89.2992372,,,,human,true,
Bethel Cemetery,United States,Tennessee,Shelby County,Mudville,Mudville,,35.3742515,-89.726748,,,,human,true,
Robinson Cemetery,United States,Tennessee,Shelby County,Mudville,Mudville,,35.3556408,-89.7267482,,,,human,true,
Saint Pauls Cemetery,United States,Tennessee,Shelby County,Northaven,Northaven,,35.2561988,-90.0437015,,,,human,true,
Bethel Cemetery,United States,Tennessee,Haywood County,Bethel,Bethel,,35.7437242,-89.2783444,,,,human,true,
Cliff Cemetery,United States,Tennessee,Haywood County,Union,Union,,35.5428558,-89.1514551,,,,human,true,
Taylors Chapel Cemetery,United States,Tennessee,Fayette County,Miller,Miller,,35.3448056,-89.3067366,,,,human,true,
Remberts Cemetery,United States,Tennessee,Shelby County,Lucy,Lucy,,35.3234193,-89.9403652,,,,human,true,
Smith Cemetery,United States,Tennessee,Shelby County,Bolton,Bolton,,35.3381412,-89.769805,,,,human,true,
Noblin Cemetery,United States,Tennessee,Shelby County,West Union,West Union,,35.3739738,-89.9600877,,,,human,true,
Barton Cemetery,United States,Tennessee,Shelby County,Egypt,Egypt,,35.2348101,-89.948977,,,,human,true,
Goldsby Cemetery,United States,Tennessee,Shelby County,Lucy,Lucy,,35.2978644,-89.9070311,,,,human,true,
Ussery Cemetery,United States,Tennessee,Hardeman County,Sugar Hill,Sugar Hill,,35.218973,-89.0539519,,,,human,true,
Point Cemetery,United States,Tennessee,Shelby County,Overton,Overton,,35.2336991,-89.9931448,,,,human,true,
Corona Cemetery,United States,Tennessee,Tipton County,Corona,Corona,,35.4303418,-90.0808419,,,,human,true,
Banyan Payne Family Cemetery,United States,Tennessee,Tipton County,Idaville,Idaville,,35.4501718,-89.7152849,,,,human,true,
Tabernacle Cemetery,United States,Tennessee,Haywood County,Bradford,Bradford,,35.6545704,-89.2077874,,,,human,true,
Memphis Memorial Park Cemetery,United States,Tennessee,Shelby County,Brookfield,Brookfield,,35.1103166,-89.8739437,,,,human,true,
Bethlehem Cemetery,United States,Tennessee,Shelby County,Capleville,Capleville,,35.0071027,-89.8845206,,,,human,true,
Memory Hill Gardens,United States,Tennessee,Shelby County,Bush Grove,Bush Grove,,35.2285715,-89.7870311,,,,human,true,
Temple Israel Cemetery,United States,Tennessee,Shelby County,Bunker Hill,Bunker Hill,,35.1001609,-90.0264601,,,,human,true,
Forest Hill Cemetery,United States,Tennessee,Shelby County,Bunker Hill,Bunker Hill,,35.0962077,-90.023051,,,,human,true,
Calvary Cemetery,United States,Tennessee,Shelby County,Bunker Hill,Bunker Hill,,35.1037816,-90.0232924,,,,human,true,
Hollywood Cemetery,United States,Tennessee,Shelby County,Bunker Hill,Bunker Hill,,35.0908252,-90.0228257,,,,human,true,
Oakview Memorial Park,United States,Tennessee,Crockett County,Crossroads,Crossroads,,35.7525991,-89.1107421,,,,human,true,
Belleview Cemetery,United States,Tennessee,Crockett County,Bells,Bells,,35.7190778,-89.089816,,,,human,true,
Elmwood Cemetery,United States,Tennessee,Shelby County,Annesdale-Snowden,Annesdale-Snowden,,35.1218327,-90.0290109,,,,human,true,
All Saints Cemetery,United States,Tennessee,Shelby County,Bleak (historical),Bleak (historical),,35.0073084,-89.8125846,,,,human,true,
Memphis National Cemetery,United States,TN,Shelby County,Memphis,3568 Townes Avenue,38122,35.1727121,-89.9376613,,https://www.cem.va.gov/cems/nchp/Memphis.asp,+1-901-386-8311,human,true,
Galilee Memorial Gardens,United States,Tennessee,Shelby County,Oak Grove,Oak Grove,,35.2168519,-89.7864507,,,,human,true,
Bond Cemetery,United States,Tennessee,Madison County,Leighton,Leighton,,35.548424,-89.0329209,,,,human,true,
Brown Creek Cemetery,United States,Tennessee,Haywood County,Woodland,Woodland,,35.5627501,-89.0954944,,,,human,true,
Hayes Chapel Cemetery,United States,Tennessee,Madison County,Mercer,Mercer,,35.4886156,-89.0572858,,,,human,true,
Mercer Cemetery,United States,Tennessee,Madison County,Mercer,Mercer,,35.4840238,-89.0474487,,,,human,true,
Shelby County Cemetary,United States,Tennessee,Shelby County,Bush Grove,Bush Grove,,35.219462,-89.7836983,,,,human,true,
Beth Sholom Memorial Gardens,United States,Tennessee,Shelby County,Oak Grove,Oak Grove,,35.1880272,-89.81268,,,,human,true,
Thurmand Cemetery,United States,Tennessee,Lauderdale County,Halls,Halls,,35.8688068,-89.4281595,,,,human,true,
Zion Cemetery,United States,Tennessee,Haywood County,Rudolph,Rudolph,,35.7032382,-89.2443135,,,,human,true,
Anderson Chapel Cemetery,United States,Tennessee,Lauderdale County,Halls,Halls,,35.8793007,-89.4217744,,,,human,true,
Elon Cemetery,United States,Tennessee,Lauderdale County,Double Bridges,Double Bridges,,35.9116707,-89.4492531,,,,human,true,
Trinity Cemetery,United States,Tennessee,Haywood County,Nutbush,Nutbush,,35.6906295,-89.4082636,,,,human,true,
Son of Zion Cemetery,United States,Tennessee,Shelby County,Annesdale-Snowden,Annesdale-Snowden,,35.1111314,-90.0137691,,,,human,true,
Miller Chapel Cemetery,United States,Tennessee,Dyer County,Bonicord,Bonicord,,35.938637,-89.3165082,,,,human,true,
Towson Cemetery,United States,Tennessee,Tipton County,Covington,Covington,,35.5903212,-89.6338207,,,,human,true,
Bethlehem Cemetery,United States,Tennessee,Lauderdale County,Henning,Henning,,35.6708935,-89.5560739,,,,human,true,
Tipton Memorial Gardens,United States,Tennessee,Tipton County,Mount Carmel,Mount Carmel,,35.5296527,-89.6291736,,,,human,true,
Scotts Chapel Cemetery,United States,Tennessee,Fayette County,Gallaway,Gallaway,,35.3329741,-89.6161991,,,,human,true,
Layton Cemetery,United States,Tennessee,Fayette County,Gallaway,Gallaway,,35.3227277,-89.6218101,,,,human,true,
Hayes Cemetery,United States,Tennessee,Shelby County,Arlington,Arlington,,35.2830372,-89.6877992,,,,human,true,
West Tennessee State Veterans Cemetery,United States,TN,Shelby County,Memphis,4000 Forest Hill-Irene Road,38125,35.0376898,-89.7561284,WTSV.Cemetery@tn.gov,,+1 901 543 7005,human,true,
Saint James Cemetery,United States,Tennessee,Shelby County,Collierville,Collierville,,35.0392344,-89.6822518,,,,human,true,
Union Cemetery,United States,Tennessee,Shelby County,Lucy,Lucy,,35.3021095,-89.9151724,,,,human,true,
Memorial Garden Cemetery,United States,Tennessee,Shelby County,Lucy,Lucy,,35.3113251,-89.944187,,,,human,true,
Macedonia Mercer Cemetery,United States,Tennessee,Haywood County,Saint Peters,Saint Peters,,35.553553,-89.4290021,,,,human,true,
Turnpike Cemetery,United States,Tennessee,Tipton County,Cotton Lake,Cotton Lake,,35.5799721,-89.4510879,,,,human,true,
Bethany Cemetery,United States,Tennessee,Hardeman County,Newcastle,Newcastle,,35.2560377,-89.1691858,,,,human,true,
Crowder Cemetery,United States,Tennessee,Hardeman County,Whiteville,Whiteville,,35.3083003,-89.1639272,,,,human,true,
Green Cemetery,United States,Tennessee,Lauderdale County,Mack,Mack,,35.6655255,-89.7465339,,,,human,true,
Mount Carmel Cemetery,United States,Tennessee,Shelby County,Bunker Hill,Bunker Hill,,35.0891367,-90.020206,,,,human,true,
Oakville Cemetery,United States,Tennessee,Shelby County,Oakville,Oakville,,35.0686983,-89.9400697,,,,human,true,
Magnolia Cemetery,United States,Tennessee,Haywood County,Brownsville,Brownsville,,35.5939567,-89.244747,,,,human,true,
Israel Cemetery,United States,Tennessee,Haywood County,Brownsville,Brownsville,,35.6035518,-89.2505778,,,,human,true,
Knights of Pythias Cemetery,United States,Tennessee,Haywood County,Brownsville,Brownsville,,35.599288,-89.2480906,,,,human,true,
Memorial Gardens Cemetery,United States,Tennessee,Lauderdale County,Opossum,Opossum,,35.7131777,-89.5528541,,,,human,true,
Bethel Cemetery,United States,Tennessee,Tipton County,Tipton,Tipton,,35.4075869,-89.7977519,,,,human,true,
Baron Hirsch Cemetery,United States,Tennessee,Shelby County,Bunker Hill,Bunker Hill,,35.1033874,-90.0072224,,,,human,true,
Anshei Sphard Cemetery,United States,Tennessee,Shelby County,Bellevue,Bellevue,,35.0871957,-89.9871375,,,,human,true,
Temple Israel Cemetery,United States,Tennessee,Shelby County,Bunker Hill,Bunker Hill,,35.1015698,-90.0280829,,,,human,true,
Munford Cemetery,United States,Tennessee,Tipton County,Covington,Covington,,35.5599828,-89.6536605,,,,human,true,
Canfield Cemetery,United States,Tennessee,Lauderdale County,Ripley,Ripley,,35.737972,-89.5190125,,,,human,true,
Good Shepherd Cemetery,United States,Tennessee,Hardeman County,Middleburg,Middleburg,,35.1851,-89.0957888,,,,human,true,
Bettis Family Cemetery,United States,Tennessee,Shelby County,Stonewall Place,Stonewall Place,,35.1395394,-90.0064552,,,,human,true,
Walker Cemetery,United States,Tennessee,Dyer County,Bonicord,Bonicord,,35.9581288,-89.2913477,,,,human,true,
Johnson Cemetery,United States,Tennessee,Fayette County,Pattersonville,Pattersonville,,35.1187425,-89.2804357,,,,human,true,
Raleigh Frayser Memorial Cemetery,United States,Tennessee,Shelby County,Egypt,Egypt,,35.2541171,-89.9423403,,,,human,true,
Oakwood Cemetery,United States,Tennessee,Haywood County,Haywood Heights,Haywood Heights,,35.5906741,-89.2677906,,,,human,true,
Thomas Chapel Cemetery,United States,Tennessee,Fayette County,New Bethel,New Bethel,,35.0773977,-89.5187736,,,,human,true,
Bedford Plantation Cemetary,United States,Tennessee,Shelby County,Bailey,Bailey,,35.0582465,-89.737984,,,,human,true,
Shady Grove Cemetery,United States,Tennessee,Fayette County,Williston,Williston,,35.1757662,-89.3969932,,,,human,true,
Wesley Cemetery,United States,Tennessee,Fayette County,Williston,Williston,,35.1837412,-89.4130488,,,,human,true,
Rosser Cemetery,United States,Tennessee,Fayette County,Gallaway,Gallaway,,35.3419756,-89.6243979,,,,human,true,
Spring Hill Cemetery,United States,Tennessee,Fayette County,Warren,Warren,,35.2319121,-89.4343445,,,,human,true,
Walton Cemetery,United States,Tennessee,Tipton County,Holly Grove,Holly Grove,,35.555147,-89.7334632,,,,human,true,
Shiloh Cemetery,United States,Tennessee,Tipton County,Garland,Garland,,35.5842329,-89.7351082,,,,human,true,
Bartlett United Methodist Cemetery,United States,Tennessee,Shelby County,Ellendale,Ellendale,,35.2276315,-89.8281694,,,,human,true,
Hardwick Cemetery,United States,Tennessee,Hardeman County,Rogers Springs,Rogers Springs,,35.0303901,-89.0188871,,,,human,true,
Toll Gate Cemetery,United States,Tennessee,Shelby County,Oak Grove,Oak Grove,,35.2054593,-89.7883757,,,,human,true,
Peebles Cemetery,United States,Tennessee,Fayette County,Somerville,Somerville,,35.2076829,-89.3598982,,,,human,true,
Bethuel Cemetery,United States,Tennessee,Shelby County,Kerrville,Bethuel Road,,35.3718547,-89.847192,,,,human,true,
Kerrville Cemetery,United States,Tennessee,Shelby County,Kerrville,Kerrville,,35.3802696,-89.8555673,,,,human,true,
Union Hill Cemetery,United States,Tennessee,Shelby County,Kerrville,Kerrville,,35.4141233,-89.8608216,,,,human,true,
Saint Marks Cemetery,United States,Tennessee,Tipton County,Wilkinsville,Wilkinsville,,35.4119338,-89.9098042,,,,human,true,
Fellowship Cemetery,United States,Tennessee,Tipton County,Quito,Quito,,35.4017502,-89.9271063,,,,human,true,
Saluted Cemetery,United States,Tennessee,Tipton County,Wilkinsville,Wilkinsville,,35.3791441,-89.8984668,,,,human,true,
Mount Olive Cemetery,United States,Tennessee,Shelby County,Crossroads,Crossroads,,35.1257691,-89.6568091,,,,human,true,
Prospect Cemetery,United States,Tennessee,Haywood County,Macedonia,Macedonia,,35.5626959,-89.3235098,,,,human,true,
Outlaw Cemetery,United States,Tennessee,Haywood County,Macedonia,Macedonia,,35.5429118,-89.3772125,,,,human,true,
Harris Cemetery,United States,Tennessee,Haywood County,Macedonia,Macedonia,,35.5906833,-89.3446426,,,,human,true,
Rosenwald Cemetery,United States,Tennessee,Haywood County,Brownsville,Brownsville,,35.5918482,-89.2499041,,,,human,true,
Richards Cemetery,United States,Tennessee,Haywood County,Brownsville,Brownsville,,35.593694,-89.234611,,,,human,true,
Chestnut Grove Cemetery,United States,Tennessee,Haywood County,Willow Grove,Willow Grove,,35.5952775,-89.1533344,,,,human,true,
Drake Cemetery,United States,Tennessee,Haywood County,Union,Union,,35.5847855,-89.113535,,,,human,true,
Gildfield Cemetery,United States,Tennessee,Shelby County,Gildfield,Gildfield,,35.3049055,-89.7855133,,,,human,true,
King Cemetery,United States,Tennessee,Lake County,Four Points,Four Points,,35.9810218,-89.3969388,,,,human,true,
LaGrange Cemetery,United States,Tennessee,Fayette County,La Grange,La Grange,,35.0563503,-89.2449314,,,,human,true,
Taylor Cemetery,United States,Tennessee,Haywood County,Allens,Allens,,35.6529902,-89.2029521,,,,human,true,
Forest Hill Funeral Home and Memorial Park East,United States,Tennessee,Shelby County,Oak Grove,Oak Grove,,35.1912358,-89.8323264,,,,human,true,
New Park Cemetery,United States,Tennessee,Shelby County,Persey,Persey,,35.0258244,-90.0655872,,,,human,true,
Bethlehem Cemetery,United States,Tennessee,Shelby County,Persey,Persey,,35.027793,-90.0706139,,,,human,true,
Center Hill Cemetery,United States,Tennessee,Shelby County,Irene (historical),Irene (historical),,34.9889834,-89.7440418,,,,human,true,
Powell Cemetery,United States,Tennessee,Haywood County,Wellwood,Wellwood,,35.624696,-89.1086315,,,,human,true,
Brigance Cemetery,United States,Tennessee,Crockett County,Walnut Hill,Walnut Hill,,35.7006969,-89.0633565,,,,human,true,
Walnut Hill Cemetery,United States,Tennessee,Crockett County,Walnut Hill,Walnut Hill,,35.7050805,-89.0504292,,,,human,true,
Crossroads Cemetery,United States,Tennessee,Lauderdale County,Curve,Curve,,35.7910131,-89.462779,,,,human,true,
Braswell Cemetery,United States,Tennessee,Fayette County,Hickory Withe,Hickory Withe,,35.199784,-89.5871521,,,,human,true,
Mount Vernon Cemetery,United States,Tennessee,Fayette County,Rossville Junction,Rossville Junction,,35.0397629,-89.5291804,,,,human,true,
Watkins Cemetery,United States,Tennessee,Fayette County,Williston,Williston,,35.1187117,-89.3601689,,,,human,true,
Haywood County Memorial Gardens,United States,Tennessee,Haywood County,Willow Grove,Willow Grove,,35.5915439,-89.218569,,,,human,true,
Valentine Cemetery,United States,Tennessee,Hardeman County,Grand Junction,Grand Junction,,34.9961288,-89.1608854,,,,human,true,
Marlow Cemetery,United States,Tennessee,Crockett County,Liberty Hall,Liberty Hall,,35.765194,-89.0365807,,,,human,true,
Rayner Cemetery,United States,Tennessee,Fayette County,Oakland,Oakland,,35.2094011,-89.5213054,,,,human,true,
Galilee Cemetery,United States,Tennessee,Shelby County,Madge,Madge,,35.3993189,-89.6934624,,,,human,true,
Chambers Chapel Cemetery,United States,Tennessee,Shelby County,Lenow,Lenow,,35.2127885,-89.6993854,,,,human,true,
Pleasant Grove Cemetery,United States,Tennessee,Lauderdale County,Edith,Edith,,35.8480335,-89.5361336,,,,human,true,
Kail Cemetery,United States,Tennessee,Crockett County,Brims Corner,Brims Corner,,35.7708148,-89.1552168,,,,human,true,
Potters Field,United States,Tennessee,Shelby County,Rugby,Rugby,,35.2038213,-90.0059588,,,,human,true,
Averys Cemetery,United States,Tennessee,Crockett County,Quincy,Quincy,,35.8307371,-89.0648848,,,,human,true,
Enon Church Cemetery,United States,Tennessee,Lauderdale County,Nankipoo,Nankipoo,,35.862832,-89.4844313,,,,human,true,
Belle Vernon Cemetery,United States,Tennessee,Crockett County,Friendship,Friendship,,35.9137205,-89.2496169,,,,human,true,
Mount Pleasant Cemetery,United States,Tennessee,Haywood County,Hillville,Hillville,,35.4516462,-89.1687943,,,,human,true,
Malone Cemetery,United States,Tennessee,Tipton County,Canaan Grove,Canaan Grove,,35.4436153,-89.6052682,,,,human,true,
Grand Junction Cemetery,United States,Tennessee,Hardeman County,Grand Junction,Grand Junction,,35.0434427,-89.1924888,,,,human,true,
Pleasant Grove Cemetery,United States,Tennessee,Hardeman County,Grand Junction,Grand Junction,,35.0426814,-89.196028,,,,human,true,
Mount Pleasant Cemetery,United States,Tennessee,Lauderdale County,Arp,Arp,,35.7722528,-89.5977181,,,,human,true,
Garden of Everlasting Life,United States,Tennessee,Tipton County,Rialto,Rialto,,35.628784,-89.6148551,,,,human,true,
Mount Pleasant Cemetery,United States,Tennessee,Lauderdale County,Opossum,Opossum,,35.7116291,-89.5653985,,,,human,true,
Hess Cemetery,United States,Tennessee,Haywood County,Bradford,Bradford,,35.6521953,-89.2279864,,,,human,true,
Spring Hill Cemetery,United States,Tennessee,Haywood County,Edward Grove,Edward Grove,,35.7063759,-89.4431173,,,,human,true,
Shaws Chapel Cemetery,United States,Tennessee,Haywood County,Shaw,Shaw,,35.7219934,-89.3365618,,,,human,true,
Hickory Grove Cemetery,United States,Tennessee,Haywood County,Christmasville,Christmasville,,35.6827637,-89.2936724,,,,human,true,
Bowers Chapel Cemetery,United States,Tennessee,Gibson County,Gibson Wells,Gibson Wells,,35.8929663,-89.0604624,,,,human,true,
New Cemetery,United States,Tennessee,Crockett County,Shady Grove,Shady Grove,,35.8329593,-89.2047673,,,,human,true,
Nunn Cemetery,United States,Tennessee,Crockett County,Shady Grove,Shady Grove,,35.8257055,-89.2068415,,,,human,true,
Evans Cemetery,United States,Tennessee,Crockett County,Crossroads,Crossroads,,35.7618907,-89.1328182,,,,human,true,
Elcanaan Cemetery,United States,Tennessee,Lauderdale County,Pleasant Hill,Pleasant Hill,,35.6682968,-89.6650547,,,,human,true,
Mt. Olive Church Cemetery,United States,Tennessee,Fayette County,Tanyard (historical),Tanyard (historical),,35.2028156,-89.223461,,,,human,true,
Saulsbury Cemetery,United States,Tennessee,Hardeman County,Saulsbury,Saulsbury,,35.0498714,-89.0975456,,,,human,true,
Mount Vernon Cemetery,United States,Tennessee,Shelby County,Oaklawn,Oaklawn,,35.2841384,-90.0387647,,,,human,true,
Antioch Cemetery,United States,Tennessee,Hardeman County,Saulsbury,Saulsbury,,35.0133844,-89.0782344,,,,human,true,
Wright Cemetery,United States,Tennessee,Hardeman County,Saulsbury,Saulsbury,,35.0505792,-89.1009201,,,,human,true,
Pruette Cemetery,United States,Tennessee,Hardeman County,Van Buren,Van Buren,,35.0989946,-89.0810465,,,,human,true,
Avent Cemetery,United States,Tennessee,Hardeman County,Van Buren,Van Buren,,35.1536335,-89.067494,,,,human,true,
New Hope Cemetery,United States,Tennessee,Shelby County,Rocky Point (historical),Rocky Point (historical),,35.1273006,-89.7689639,,,,human,true,
Beaver Cemetery,United States,Tennessee,Fayette County,Gallaway,Gallaway,,35.3545824,-89.6238947,,,,human,true,
Barrow Cemetery,United States,Tennessee,Tipton County,Corona,Corona,,35.4639607,-90.0868589,,,,human,true,
Harris Grove Cemetery,United States,Tennessee,Crockett County,Alamo,Alamo,,35.778017,-89.1434743,,,,human,true,
Jones Cemetery,United States,Tennessee,Haywood County,Fredonia,Fredonia,,35.4005384,-89.4451385,,,,human,true,
Mount Olive Cemetery,United States,Tennessee,Shelby County,Island Forty,Island Forty,,35.3112885,-90.1611145,,,,human,true,
Greenock Cemetery,United States,Tennessee,Shelby County,Island Forty,Island Forty,,35.3107318,-90.1581478,,,,human,true,
Van Pelt Cemetery,United States,Tennessee,Fayette County,Moscow,Moscow,,35.0404279,-89.4180664,,,,human,true,
Oak Grove Cemetery,United States,Tennessee,Fayette County,Moscow,Moscow,,35.0184288,-89.4061865,,,,human,true,
Hodge Cemetery,United States,Tennessee,Dyer County,Bishop,Bishop,,35.9836575,-89.353212,,,,human,true,
Sorrell Chapel Cemetery,United States,Tennessee,Dyer County,Bishop,Bishop,,35.9772571,-89.3458411,,,,human,true,
Bridget Cemetery,United States,Tennessee,Crockett County,Maury Junction,Maury Junction,,35.8675786,-89.2052317,,,,human,true,
Walnut Grove Cemetery,United States,Tennessee,Gibson County,Spring Hill,Spring Hill,,35.994141,-89.0757136,,,,human,true,
Eckles Madison Family Cemetery,United States,Tennessee,Shelby County,Normal,Normal,,35.1106895,-89.9368719,,,,human,true,
Morrison Cemetery,United States,Tennessee,Hardeman County,Vildo,Vildo,,35.400645,-89.1036047,,,,human,true,
Evergreen Cemetery,United States,Tennessee,Fayette County,Williston,Williston,,35.1636422,-89.365796,,,,human,true,
Cole Cemetery,United States,Tennessee,Haywood County,Meux Corner,Meux Corner,,35.4188665,-89.3876352,,,,human,true,
Butterworth Cemetery,United States,Tennessee,Lake County,Four Points,Four Points,,35.9893187,-89.3972794,,,,human,true,
Vildo Cemetery,United States,Tennessee,Hardeman County,Vildo,Vildo,,35.4045481,-89.110746,,,,human,true,
Ravenscroft Cemetery,United States,Tennessee,Tipton County,Beaver,Beaver,,35.5078022,-89.8219606,,,,human,true,
Macedonia Cemetery,United States,Tennessee,Crockett County,Fruitvale,Fruitvale,,35.7372289,-89.0386749,,,,human,true,
Ramsey Cemetery,United States,Tennessee,Crockett County,Cypress,Cypress,,35.7375777,-89.0672672,,,,human,true,
Antioch Cemetery,United States,Tennessee,Crockett County,Broadview,Broadview,,35.8582483,-89.2577604,,,,human,true,
Williams Cemetery,United States,Tennessee,Crockett County,Walnut Hill,Walnut Hill,,35.7017724,-89.0458658,,,,human,true,
Young Cemetery,United States,Tennessee,Crockett County,Liberty Hall,Liberty Hall,,35.7669159,-89.0159063,,,,human,true,
Quincy Cemetery,United States,Tennessee,Crockett County,Quincy,Quincy,,35.837805,-89.0903959,,,,human,true,
Young Cemetery,United States,Tennessee,Crockett County,Chestnut Bluff,Chestnut Bluff,,35.8625894,-89.3290277,,,,human,true,
Pond Creek Cemetery,United States,Tennessee,Crockett County,Brims Corner,Brims Corner,,35.8112674,-89.1671593,,,,human,true,
Poston Cemetery,United States,Tennessee,Crockett County,Dog Hill,Dog Hill,,35.8126165,-89.2815964,,,,human,true,
Roberson Cemetery,United States,Tennessee,Crockett County,Johnsons Grove,Johnsons Grove,,35.7580485,-89.1737723,,,,human,true,
Williams Cemetery,United States,Tennessee,Crockett County,Fruitvale,Fruitvale,,35.7381416,-89.0114853,,,,human,true,
Jones Cemetery,United States,Tennessee,Dyer County,Tigrett,Tigrett,,35.9552178,-89.27473,,,,human,true,
Saint Peter Cemetery,United States,Tennessee,Dyer County,Tigrett,Tigrett,,35.9615625,-89.252015,,,,human,true,
Palestine Cemetery,United States,Tennessee,Dyer County,Bruceville,Bruceville,,35.9180783,-89.3533771,,,,human,true,
Holly Spring Cemetery,United States,Tennessee,Dyer County,Fowlkes,Fowlkes,,35.9623408,-89.3681313,,,,human,true,
Shelton Cemetery,United States,Tennessee,Dyer County,Bonicord,Bonicord,,35.9416708,-89.328161,,,,human,true,
Mount Pisgah Cemetery,United States,Tennessee,Dyer County,Hawkinsville,Hawkinsville,,35.916007,-89.2902043,,,,human,true,
Mount Moriah Cemetery,United States,Tennessee,Fayette County,Mount Moriah,Mount Moriah,,35.3328168,-89.2150716,,,,human,true,
Perry Cemetery,United States,Tennessee,Fayette County,Laconia,Laconia,,35.259202,-89.2452947,,,,human,true,
Rehobeth Cemetery,United States,Tennessee,Fayette County,Laconia,Laconia,,35.2316067,-89.264545,,,,human,true,
Smyrna Cemetery,United States,Tennessee,Fayette County,Fayette Corners,Fayette Corners,,35.3691822,-89.226789,,,,human,true,
Pleasant Hill Cemetery,United States,Tennessee,Fayette County,Laconia,Laconia,,35.2973958,-89.246035,,,,human,true,
Jones Cemetery,United States,Tennessee,Haywood County,Dancyville,Dancyville,,35.3973293,-89.2552079,,,,human,true,
Travelers Rest Church Cemetery,United States,Tennessee,Fayette County,Laconia,Laconia,,35.2840635,-89.2598136,,,,human,true,
Spring Hill Cemetery,United States,Tennessee,Fayette County,Liberty Hill,Liberty Hill,,35.3220027,-89.255062,,,,human,true,
Liberty Baptist Church Ce4metery,United States,Tennessee,Fayette County,Liberty Hill,Liberty Hill,,35.304248,-89.2793487,,,,human,true,
Mount Carmel Cemetery,United States,Tennessee,Fayette County,Laconia,Laconia,,35.2842507,-89.2678911,,,,human,true,
Poplar Springs Cemetery,United States,Tennessee,Fayette County,Braden,Braden,,35.3642809,-89.5920628,,,,human,true,
Wall Cemetery,United States,Tennessee,Fayette County,Braden,Braden,,35.3577772,-89.5739143,,,,human,true,
O'Kelly Cemetery,United States,Tennessee,Fayette County,Braden,Braden,,35.3339677,-89.5674536,,,,human,true,
Mason Cemetery,United States,Tennessee,Fayette County,Longtown,Longtown,,35.346804,-89.4917127,,,,human,true,
Douglas Chapel Cemetery,United States,Tennessee,Fayette County,Braden,Braden,,35.3792669,-89.5789824,,,,human,true,
Union Hill Cemetery,United States,Tennessee,Fayette County,Gallaway,Gallaway,,35.3336494,-89.5792781,,,,human,true,
Harris Cemetery,United States,Tennessee,Fayette County,Braden,Braden,,35.3453315,-89.5709666,,,,human,true,
Burrow Cemetery,United States,Tennessee,Fayette County,Gallaway,Gallaway,,35.3475265,-89.6317274,,,,human,true,
Mount Sinai Cemetery,United States,Tennessee,Fayette County,Longtown,Longtown,,35.3647538,-89.5342491,,,,human,true,
Hebron Cemetery,United States,Tennessee,Haywood County,Fredonia,Fredonia,,35.3899618,-89.4125519,,,,human,true,
Belmont Cemetery,United States,Tennessee,Fayette County,Belmont,Belmont,,35.3755933,-89.4867767,,,,human,true,
Braden-Melton Cemetery,United States,Tennessee,Fayette County,Braden,Braden,,35.3728104,-89.5439239,,,,human,true,
Melton Cemetery,United States,Tennessee,Fayette County,Braden,Braden,,35.3714007,-89.5457813,,,,human,true,
Patterson Cemetery,United States,Tennessee,Fayette County,Lambert,Lambert,,35.3380173,-89.4641952,,,,human,true,
Woodlawn Cemetery,United States,Tennessee,Fayette County,Belmont,Belmont,,35.3929694,-89.498215,,,,human,true,
Porter Cemetery,United States,Tennessee,Fayette County,Belmont,Belmont,,35.3894222,-89.5008453,,,,human,true,
Maclin Quarter Cemetery,United States,Tennessee,Fayette County,Belmont,Belmont,,35.3705171,-89.4683581,,,,human,true,
Stafford Cemetery,United States,Tennessee,Fayette County,Griffen,Griffen,,35.2573455,-89.4990438,,,,human,true,
Douglas Cemetery,United States,Tennessee,Fayette County,Longtown,Longtown,,35.3203739,-89.5103393,,,,human,true,
Herron Cemetery,United States,Tennessee,Fayette County,Gallaway,Gallaway,,35.3231492,-89.5740401,,,,human,true,
Mount Pleasant Cemetery,United States,Tennessee,Fayette County,Hickory Withe,Hickory Withe,,35.2466158,-89.5676386,,,,human,true,
Waymond Cemetery,United States,Tennessee,Fayette County,Hickory Withe,Hickory Withe,,35.2775074,-89.6106298,,,,human,true,
Pipkin Cemetery,United States,Tennessee,Fayette County,Gallaway,Gallaway,,35.3085076,-89.5937936,,,,human,true,
Hood Cemetery,United States,Tennessee,Fayette County,Feathers Chapel,Feathers Chapel,,35.2636927,-89.4387257,,,,human,true,
Carter Cemetery,United States,Tennessee,Fayette County,Feathers Chapel,Feathers Chapel,,35.2796051,-89.4523298,,,,human,true,
Hobson Cemetery,United States,Tennessee,Fayette County,Moorman,Moorman,,35.3087319,-89.3503113,,,,human,true,
Asbury Cemetery,United States,Tennessee,Fayette County,Pattersonville,Pattersonville,,35.1695181,-89.3249584,,,,human,true,
Sardis Cemetery,United States,Tennessee,Fayette County,Macon,Macon,,35.1790191,-89.4512925,,,,human,true,
Pisgah Cemetery,United States,Tennessee,Fayette County,Somerville,Somerville,,35.2037025,-89.307752,,,,human,true,
Mount Olive Church Cemetery,United States,Tennessee,Fayette County,Williston,Williston,,35.1936964,-89.3384171,,,,human,true,
Somerville Cemetery,United States,Tennessee,Fayette County,Somerville,Somerville,,35.2411355,-89.3550984,,,,human,true,
Macon Cemetery,United States,Tennessee,Fayette County,Macon,Macon,,35.1630624,-89.4777196,,,,human,true,
Macon Cemetery,United States,Tennessee,Fayette County,Macon,Macon,,35.1580753,-89.4900296,,,,human,true,
Oakland Cemetery,United States,Tennessee,Fayette County,Oakland,Oakland,,35.2259228,-89.516322,,,,human,true,
McCulley Cemetery,United States,Tennessee,Fayette County,Oakland,Oakland,,35.229849,-89.4869565,,,,human,true,
Bell Grove Cemetery,United States,Tennessee,Fayette County,Oakland,Oakland,,35.2308394,-89.5476555,,,,human,true,
Pulliam Cemetery,United States,Tennessee,Fayette County,New Bethel,New Bethel,,35.0971263,-89.5305219,,,,human,true,
Mount Zion Cemetery,United States,Tennessee,Fayette County,Macon,Macon,,35.1136316,-89.4817014,,,,human,true,
Pleasants Cemetery,United States,Tennessee,Fayette County,Macon,Macon,,35.1201828,-89.5015772,,,,human,true,
Harrell Cemetery,United States,Tennessee,Fayette County,Elba,Elba,,35.1143386,-89.5999838,,,,human,true,
Anthony Cemetery,United States,Tennessee,Fayette County,Kirk,Kirk,,35.1082218,-89.6169259,,,,human,true,
Waller Cemetery,United States,Tennessee,Fayette County,Macon,Macon,,35.1276001,-89.5116234,,,,human,true,
Farwell Cemetery,United States,Tennessee,Fayette County,Canadaville,Canadaville,,35.1538507,-89.597501,,,,human,true,
Farley Cemetery,United States,Tennessee,Fayette County,New Bethel,New Bethel,,35.0888601,-89.5177335,,,,human,true,
New Bethel Cemetery,United States,Tennessee,Fayette County,New Bethel,New Bethel,,35.0935713,-89.5343209,,,,human,true,
Sales Cemetery,United States,Tennessee,Fayette County,Hays Crossing,Hays Crossing,,35.0899386,-89.4364786,,,,human,true,
Saint Pauls Cemetery,United States,Tennessee,Fayette County,Williston,Williston,,35.1272825,-89.3803983,,,,human,true,
Ebenezer Cemetery,United States,Tennessee,Fayette County,Williston,Williston,,35.142682,-89.3499271,,,,human,true,
Jones Chapel Cemetery,United States,Tennessee,Fayette County,Williston,Williston,,35.1394683,-89.4049861,,,,human,true,
Fredonia Cemetery,United States,Tennessee,Fayette County,Williston,Williston,,35.1081001,-89.375791,,,,human,true,
Mount Pisgah Cemetery,United States,Tennessee,Fayette County,Pattersonville,Pattersonville,,35.1475778,-89.3071613,,,,human,true,
Macedonia Cemetery,United States,Tennessee,Fayette County,Moscow,Moscow,,35.1034559,-89.3745021,,,,human,true,
Bethlehem Cemetery,United States,Tennessee,Fayette County,Hays,Hays,,35.039473,-89.4545634,,,,human,true,
Hickory Grove Cemetery,United States,Tennessee,Fayette County,Forty Five,Forty Five,,35.0053098,-89.3183904,,,,human,true,
New Friendship Cemetery,United States,Tennessee,Fayette County,Forty Five,Forty Five,,35.0538505,-89.3463269,,,,human,true,
Franklin Cemetery,United States,Tennessee,Fayette County,Rather,Rather,,35.0589219,-89.3024915,,,,human,true,
Teague Cemetery,United States,Tennessee,Fayette County,Hays Crossing,Hays Crossing,,35.0554817,-89.4672446,,,,human,true,
Pleasant Grove Cemetery,United States,Tennessee,Fayette County,Hays,Hays,,35.0132064,-89.4766072,,,,human,true,
Mount Zion Cemetery,United States,Tennessee,Fayette County,Piperton,Piperton,,35.0503285,-89.599632,,,,human,true,
Tabernacle Cemetery,United States,Tennessee,Fayette County,Piperton,Piperton,,35.0455285,-89.6393327,,,,human,true,
Mayos Cemetery,United States,Tennessee,Fayette County,Rather,Rather,,35.0685433,-89.2900186,,,,human,true,
New Zion Church Cemetery,United States,Tennessee,Fayette County,La Grange,La Grange,,35.0813969,-89.2452318,,,,human,true,
Belmont Church Cemetery,United States,Tennessee,Fayette County,Belmont,Belmont,,35.3675251,-89.4945391,,,,human,true,
Parks Chapel Cemetery,United States,Tennessee,Fayette County,Tanyard (historical),Tanyard (historical),,35.1955984,-89.2514257,,,,human,true,
Whiteville Mennonite Cemetery,United States,Tennessee,Fayette County,Fayette Corners,Fayette Corners,,35.34518,-89.1911571,,,,human,true,
Clover Garden Church Cemetery,United States,Tennessee,Fayette County,Fayette Corners,Fayette Corners,,35.3678717,-89.2074683,,,,human,true,
Mount Olive Church Cemetery Cemetery,United States,Tennessee,Fayette County,Miller,Miller,,35.3576908,-89.3069185,,,,human,true,
Alexander Community Cemetery,United States,Tennessee,Fayette County,Liberty Hill,Liberty Hill,,35.3179846,-89.3113482,,,,human,true,
Armour-McWilliams Cemetery,United States,Tennessee,Lauderdale County,Halls,Halls,,35.880738,-89.4136256,,,,human,true,
Wilson Cemetery,United States,Tennessee,Gibson County,Spring Hill,Spring Hill,,35.9705337,-89.0978726,,,,human,true,
Spring Hill Baptist Church Cemetery,United States,Tennessee,Gibson County,Spring Hill,Spring Hill,,35.9861171,-89.1221049,,,,human,true,
Spring Hill Cemetery,United States,Tennessee,Gibson County,Spring Hill,Spring Hill,,35.9871849,-89.1211086,,,,human,true,
Olive Branch Cemetery,United States,Tennessee,Gibson County,Brazil,Brazil,,35.9676281,-89.0607682,,,,human,true,
Bartlett Chapel Cemetery,United States,Tennessee,Hardeman County,Whiteville,Whiteville,,35.3355131,-89.0799956,,,,human,true,
Norment Cemetery,United States,Tennessee,Hardeman County,Whiteville,Whiteville,,35.3347549,-89.1213258,,,,human,true,
Clifft Cemetery,United States,Tennessee,Hardeman County,Sugar Hill,Sugar Hill,,35.2241535,-89.0276939,,,,human,true,
Mount Comfort Cemetery,United States,Tennessee,Fayette County,Tanyard (historical),Tanyard (historical),,35.164901,-89.1787451,,,,human,true,
Farley Cemetery,United States,Tennessee,Hardeman County,Whiteville,Whiteville,,35.3484197,-89.1428907,,,,human,true,
Nuckolls Cemetery,United States,Tennessee,Hardeman County,Bolivar,Bolivar,,35.2646686,-89.0008768,,,,human,true,
Roper Cemetery,United States,Tennessee,Hardeman County,Bolivar,Bolivar,,35.2647192,-89.0000765,,,,human,true,
Parker Cemetery,United States,Tennessee,Hardeman County,Vildo,Vildo,,35.367308,-89.0749926,,,,human,true,
Duncan Cemetery,United States,Tennessee,Hardeman County,Vildo,Vildo,,35.3877899,-89.0947666,,,,human,true,
Cloverport Chapel Cemetery,United States,Tennessee,Hardeman County,Cloverport,Cloverport,,35.4065554,-89.0067526,,,,human,true,
Woods Cemetery,United States,Tennessee,Hardeman County,Center Point,Center Point,,35.1351011,-89.1618231,,,,human,true,
Ramah Cemetery,United States,Tennessee,Hardeman County,Rogers Springs,Rogers Springs,,35.0513584,-88.9996366,,,,human,true,
Mount Salem Church Cemetery,United States,Tennessee,Hardeman County,Van Buren,Van Buren,,35.1324842,-89.0602103,,,,human,true,
Pleasant Grove Church Cemetery,United States,Tennessee,Hardeman County,Van Buren,Van Buren,,35.1309317,-89.0642544,,,,human,true,
Prospect Church Cemetery,United States,Tennessee,Hardeman County,Center Point,Center Point,,35.101725,-89.1668261,,,,human,true,
Mount Zion Cemetery,United States,Tennessee,Hardeman County,Van Buren,Van Buren,,35.1372304,-89.0155253,,,,human,true,
Spring Chapel Cemetery,United States,Tennessee,Hardeman County,Grand Junction,Grand Junction,,35.0187693,-89.1809328,,,,human,true,
Saint Paul Skipper SPrings Cemetery,United States,Tennessee,Hardeman County,Grand Junction,Grand Junction,,34.9971546,-89.181597,,,,human,true,
New Bethel Baptist Church Cemetery,United States,Tennessee,Hardeman County,Sugar Hill,Sugar Hill,,35.2080901,-89.0547896,,,,human,true,
River Of Life Church Cemetery,United States,Tennessee,Hardeman County,Saulsbury,Saulsbury,,35.0397338,-89.0853989,,,,human,true,
Union Cemetery,United States,Tennessee,Haywood County,Union,Union,,35.5684795,-89.1214733,,,,human,true,
Norvell Cemetery,United States,Tennessee,Haywood County,Woodland,Woodland,,35.5408162,-89.0940658,,,,human,true,
Chote Cemetery,United States,Tennessee,Haywood County,Stanton,Stanton,,35.4596819,-89.3940796,,,,human,true,
Zion Cemetery,United States,Tennessee,Haywood County,Willow Grove,Willow Grove,,35.6139825,-89.16682,,,,human,true,
Woodlawn Cemetery,United States,Tennessee,Haywood County,Lebanon,Lebanon,,35.6534954,-89.3644807,,,,human,true,
Beech Grove Cemetery,United States,Tennessee,Haywood County,Sunnyhill,Sunnyhill,,35.5424518,-89.2035013,,,,human,true,
Eureka Cemetery,United States,Tennessee,Haywood County,Forked Deer,Forked Deer,,35.7745284,-89.3847697,,,,human,true,
Wesley Cemetery,United States,Tennessee,Haywood County,Birds Bower,Birds Bower,,35.4712863,-89.4180941,,,,human,true,
Cobb Cemetery,United States,Tennessee,Haywood County,Allens,Allens,,35.6312551,-89.1590832,,,,human,true,
Currie Cemetery,United States,Tennessee,Haywood County,Woodland,Woodland,,35.5519801,-89.1083227,,,,human,true,
Dancyville Cemetery,United States,Tennessee,Haywood County,Dancyville,Dancyville,,35.4050158,-89.29451,,,,human,true,
Dancyville Church Cemetery,United States,Tennessee,Haywood County,Dancyville,Dancyville,,35.4088913,-89.2926451,,,,human,true,
Dancyville Church Cemetery,United States,Tennessee,Haywood County,Dancyville,Dancyville,,35.4101521,-89.2996075,,,,human,true,
Dancyville Church Cemetery,United States,Tennessee,Haywood County,Dancyville,Dancyville,,35.4005842,-89.2990972,,,,human,true,
Saint Peters Cemetery,United States,Tennessee,Haywood County,Saint Peters,Saint Peters,,35.6317873,-89.3872253,,,,human,true,
Saint John Cemetery,United States,Tennessee,Haywood County,Saint John,Saint John,,35.4394767,-89.2861999,,,,human,true,
Wortham Chapel Cemetery,United States,Tennessee,Haywood County,Owl City,Owl City,,35.7154064,-89.1606463,,,,human,true,
Estes Cemetery,United States,Tennessee,Lauderdale County,Orysa,Orysa,,35.6139111,-89.4653182,,,,human,true,
Woodville Cemetery,United States,Tennessee,Haywood County,Woodville,Woodville,,35.7628407,-89.432926,,,,human,true,
Green Leaf Cemetery,United States,Tennessee,Hancock County,Keeling,Keeling,,35.440807,-89.4632296,,,,human,true,
Salem Cemetery,United States,Tennessee,Haywood County,Willow Grove,Willow Grove,,35.5547588,-89.1866959,,,,human,true,
Harmony Cemetery,United States,Tennessee,Haywood County,Eurekaton,Eurekaton,,35.4433421,-89.2296693,,,,human,true,
Good Hope Church Cemetery,United States,Tennessee,Haywood County,Eurekaton,Eurekaton,,35.4442399,-89.2293487,,,,human,true,
Saint Paul Cemetery,United States,Tennessee,Haywood County,Sunnyhill,Sunnyhill,,35.5326,-89.2495407,,,,human,true,
Prospect Cemetery,United States,Tennessee,Haywood County,Prospect,Prospect,,35.4538048,-89.2755514,,,,human,true,
Walker Cemetery,United States,Tennessee,Haywood County,Saint Peters,Saint Peters,,35.6180617,-89.4326391,,,,human,true,
Good Hope Church Cemetery,United States,Tennessee,Haywood County,Eurekaton,Eurekaton,,35.449159,-89.2133047,,,,human,true,
Spring Hill Cemetery,United States,Tennessee,Haywood County,Spring Hill,Spring Hill,,35.4508682,-89.2725172,,,,human,true,
Lebanon Cemetery,United States,Tennessee,Haywood County,Lebanon,Lebanon,,35.6111506,-89.3581427,,,,human,true,
Alamo Cemetery,United States,Tennessee,Crockett County,Alamo,Alamo,,35.7823194,-89.1194623,,,,human,true,
Pilgrims Rest Cemetery,United States,Tennessee,Lauderdale County,Three Point,Three Point,,35.6966792,-89.6991138,,,,human,true,
Canaan Cemetery,United States,Tennessee,Lauderdale County,Glimp,Glimp,,35.6997528,-89.663659,,,,human,true,
New Hope Cemetery,United States,Tennessee,Lauderdale County,Central,Central,,35.7969623,-89.5447513,,,,human,true,
Ashport Cemetery,United States,Tennessee,Lauderdale County,Lightfoot,Lightfoot,,35.7725351,-89.6346013,,,,human,true,
Marrows Cemetery,United States,Tennessee,Lauderdale County,Orysa,Orysa,,35.6188576,-89.5218507,,,,human,true,
Leggett Cemetery,United States,Tennessee,Haywood County,Woodville,Woodville,,35.7892345,-89.4363345,,,,human,true,
Saint Pauls Cemetery,United States,Tennessee,Lauderdale County,Durhamville,Durhamville,,35.6471121,-89.493723,,,,human,true,
Holmes Cemetery,United States,Tennessee,Lauderdale County,Oak Hill Subdivision,Oak Hill Subdivision,,35.6983783,-89.4896715,,,,human,true,
Saint James Cemetery,United States,Tennessee,Lauderdale County,Three Point,Three Point,,35.6958885,-89.6883206,,,,human,true,
Asbury Cemetery,United States,Tennessee,Lauderdale County,Asbury,Asbury,,35.7307836,-89.5705595,,,,human,true,
Grace Church Cemetery,United States,Tennessee,Lauderdale County,Central,Central,,35.800472,-89.5378628,,,,human,true,
Clark Family Cemetery,United States,Tennessee,Lauderdale County,Opossum,Opossum,,35.6989534,-89.575813,,,,human,true,
Poplar Grove Cemetery,United States,Tennessee,Lauderdale County,Opossum,Opossum,,35.6958264,-89.579899,,,,human,true,
Antioch Church Cemetery,United States,Tennessee,Lauderdale County,Curve,Curve,,35.8233661,-89.4466609,,,,human,true,
Carter Cemetery,United States,Tennessee,Lauderdale County,Curve,Curve,,35.8235807,-89.448116,,,,human,true,
Willette Family Cemetery,United States,Tennessee,Lauderdale County,Gates,Gates,,35.8436266,-89.4060372,,,,human,true,
Gates Cemetery,United States,Tennessee,Lauderdale County,Gates,Gates,,35.8441366,-89.4063587,,,,human,true,
Western Valley Cemetery,United States,Tennessee,Lauderdale County,Three Point,Three Point,,35.6965224,-89.6768756,,,,human,true,
Dunavant Cemetery,United States,Tennessee,Lauderdale County,Nankipoo,Nankipoo,,35.8695499,-89.4573368,,,,human,true,
Rhodes Cemetery,United States,Tennessee,Lauderdale County,Gates,Gates,,35.8440931,-89.4131864,,,,human,true,
Walnut Grove Cemetery,United States,Tennessee,Lauderdale County,Arp,Arp,,35.7917252,-89.6181292,,,,human,true,
Lightfoot Cemetery,United States,Tennessee,Lauderdale County,Lightfoot,Lightfoot,,35.7460002,-89.6363105,,,,human,true,
Durham Cemetery,United States,Tennessee,Lauderdale County,Durhamville,Durhamville,,35.6525143,-89.4793843,,,,human,true,
Western State Cemetery,United States,Tennessee,Hardeman County,Sugar Hill,Sugar Hill,,35.2738089,-89.0338622,,,,human,true,
Springfield Cemetery,United States,Tennessee,Madison County,Leighton,Leighton,,35.578172,-89.0174271,,,,human,true,
Shady Grove Cemetery,United States,Tennessee,Madison County,Mercer,Mercer,,35.4811903,-89.008663,,,,human,true,
Hawkins Cemetery,United States,Tennessee,Madison County,Leighton,Leighton,,35.5950115,-89.0549984,,,,human,true,
West Canaan Cemetery,United States,Tennessee,Shelby County,Millington,Millington,,35.3631133,-89.8895574,,,,human,true,
Gratitude Cemetery,United States,Tennessee,Shelby County,Bolton,Bolton,,35.3343184,-89.7142891,,,,human,true,
West Union Cemetery,United States,Tennessee,Shelby County,West Union,West Union,,35.3693066,-89.9595885,,,,human,true,
Oak Springs Cemetery,United States,Tennessee,Shelby County,Mudville,Mudville,,35.3481177,-89.7211367,,,,human,true,
Oak Springs Cemetery,United States,Tennessee,Shelby County,Mudville,Mudville,,35.3480969,-89.7200377,,,,human,true,
Saint James Cemetery,United States,Tennessee,Shelby County,Williams Chapel,Williams Chapel,,35.3375704,-89.8357154,,,,human,true,
Williams Chapel Cemetery,United States,Tennessee,Shelby County,Williams Chapel,Williams Chapel,,35.3372647,-89.8372918,,,,human,true,
Rosemark Cemetery,United States,Tennessee,Shelby County,Mudville,Mudville,,35.3779476,-89.7391954,,,,human,true,
Pleasant Union Cemetery,United States,Tennessee,Shelby County,Mudville,Mudville,,35.3797059,-89.7387341,,,,human,true,
Embury Cemetery,United States,Tennessee,Shelby County,Griffin Corner,Griffin Corner,,35.3356641,-89.9948609,,,,human,true,
Saint James Cemetery,United States,Tennessee,Shelby County,Williams Chapel,Williams Chapel,,35.3571219,-89.8197294,,,,human,true,
Macedonia Cemetery,United States,Tennessee,Shelby County,Madge,Madge,,35.3820283,-89.6798381,,,,human,true,
Macedonia Cemetery,United States,Tennessee,Shelby County,Madge,Madge,,35.3828435,-89.6783488,,,,human,true,
Independence Cemetery,United States,Tennessee,Shelby County,Griffin Corner,Griffin Corner,,35.3371947,-89.9771972,,,,human,true,
Moore Cemetery,United States,Tennessee,Shelby County,Fisherville,Fisherville,,35.1601175,-89.6439501,,,,human,true,
Seward Cemetery,United States,Tennessee,Shelby County,Eads,Eads,,35.2086774,-89.6442345,,,,human,true,
Fisherville Cemetery,United States,Tennessee,Shelby County,Fisherville,Fisherville,,35.1582234,-89.6662386,,,,human,true,
Morning Sun Cemetery,United States,Tennessee,Shelby County,Lenow,Lenow,,35.1983509,-89.7412714,,,,human,true,
Pisgah Cemetery,United States,Tennessee,Shelby County,Pisgah,Pisgah,,35.1597858,-89.7088629,,,,human,true,
Big Creek Cemetery,United States,Tennessee,Shelby County,Millington,Millington,,35.3138273,-89.8851921,,,,human,true,
Noahs Cemetery,United States,Tennessee,Shelby County,Pearley (historical),Pearley (historical),,35.2992473,-89.8362008,,,,human,true,
Mount Sinai Cemetery,United States,Tennessee,Shelby County,Bolton,Bolton,,35.3087078,-89.7210691,,,,human,true,
Ward Memorial Cemetery,United States,Tennessee,Shelby County,Lucy,Lucy,,35.2950759,-89.9428006,,,,human,true,
Morning Grove Cemetery,United States,Tennessee,Shelby County,Lenow,Lenow,,35.1961547,-89.7484081,,,,human,true,
Pleasant View Cemetery,United States,Tennessee,Shelby County,Bush Grove,Bush Grove,,35.2556034,-89.7733949,,,,human,true,
Grays Creek Cemetery,United States,Tennessee,Shelby County,Eads,Eads,,35.2121366,-89.6817801,,,,human,true,
Egypt Cemetery,United States,Tennessee,Shelby County,Egypt,Egypt,,35.247797,-89.9245441,,,,human,true,
Zion Hill Cemetery,United States,Tennessee,Shelby County,Lucy,Lucy,,35.2818728,-89.9137422,,,,human,true,
Salem Cemetery,United States,Tennessee,Shelby County,Bolton,Bolton,,35.3128282,-89.7451924,,,,human,true,
Schwerein Family Cemetery,United States,Tennessee,Shelby County,Pea Point (historical),Pea Point (historical),,35.2496345,-89.7012669,,,,human,true,
Reid Cemetery,United States,Tennessee,Shelby County,Fisherville,Fisherville,,35.1814602,-89.6696169,,,,human,true,
Pleasant Ridge Cemetery,United States,Tennessee,Shelby County,Gildfield,Gildfield,,35.2978884,-89.8133799,,,,human,true,
Raleigh Cemetery,United States,Tennessee,Shelby County,Raleigh,Raleigh,,35.2023584,-89.9184743,,,,human,true,
New Sardis Church Cemetery,United States,Tennessee,Shelby County,Bleak (historical),Bleak (historical),,35.0049582,-89.8048016,,,,human,true,
Bethany Cemetery,United States,Tennessee,Shelby County,Center Point (historical),Center Point (historical),,35.1136781,-89.6941343,,,,human,true,
Germantown Cemetery,United States,Tennessee,Shelby County,Germantown,Germantown,,35.0854432,-89.8138856,,,,human,true,
Saint Marks Cemetery,United States,Tennessee,Shelby County,Collierville,Collierville,,35.0349528,-89.657726,,,,human,true,
Magnolia Cemetery,United States,Tennessee,Shelby County,Collierville,Collierville,,35.0336043,-89.6604772,,,,human,true,
Mount Moriah Cemetery,United States,Tennessee,Shelby County,Greenlawn,Greenlawn,,35.0502896,-89.8517174,,,,human,true,
Abington Cemetery,United States,Tennessee,Shelby County,Collierville,Collierville,,35.0461422,-89.6770694,,,,human,true,
Lakeview Memorial Gardens,United States,Tennessee,Shelby County,White Chapel,White Chapel,,35.0428132,-90.1223313,,,,human,true,
Saint Matthew Cemetery,United States,Tennessee,Shelby County,Little John,Little John,,35.320131,-90.0051344,,,,human,true,
Jerusalem Cemetery,United States,Tennessee,Shelby County,Darwin,Darwin,,35.0200244,-90.1232603,,,,human,true,
Mount Pisgah Cemetery,United States,Tennessee,Shelby County,Locke,Locke,,35.3312462,-90.0243631,,,,human,true,
Mount Joyner Church Cemetery,United States,Tennessee,Shelby County,Scaife,Scaife,,35.0002955,-90.0425211,,,,human,true,
Mount Pisgah Cemetery,United States,Tennessee,Shelby County,Pisgah Heights,Pisgah Heights,,35.0489787,-90.0958252,,,,human,true,
New Zion Cemetery,United States,Tennessee,Shelby County,West Junction,West Junction,,35.066463,-90.0905343,,,,human,true,
Saint Paul Cemetery,United States,Tennessee,Shelby County,Jester (historical),Jester (historical),,35.3656894,-90.0061979,,,,human,true,
Chapel Hill Cemetery,United States,Tennessee,Tipton County,Saint Paul,Saint Paul,,35.4932011,-89.9469519,,,,human,true,
Saint Paul Church Cemetery,United States,Tennessee,Tipton County,Saint Paul,Saint Paul,,35.4911494,-89.945236,,,,human,true,
Byrd Burial Ground,United States,Tennessee,Tipton County,Peckerwood Point,Peckerwood Point,,35.4501811,-89.8939669,,,,human,true,
Poplar Grove Cemetery,United States,Tennessee,Tipton County,Drummonds,Drummonds,,35.4616345,-89.9124876,,,,human,true,
Holy Temple Cemetery,United States,Tennessee,Tipton County,Idaville,Idaville,,35.4552216,-89.7111556,,,,human,true,
Mount Tipton Cemetery,United States,Tennessee,Tipton County,Clopton,Clopton,,35.4725145,-89.6905039,,,,human,true,
Clopton Cemetery,United States,Tennessee,Tipton County,Clopton,Clopton,,35.447552,-89.6691053,,,,human,true,
Elm Grove Cemetery,United States,Tennessee,Tipton County,Elm Grove,Elm Grove,,35.5726853,-89.8117431,,,,human,true,
Dickens Cemetery,United States,Tennessee,Tipton County,Jamestown,Jamestown,,35.5566464,-89.8542877,,,,human,true,
Indian Creek Cemetery,United States,Tennessee,Tipton County,Holly Grove,Holly Grove,,35.521661,-89.7420399,,,,human,true,
Charleston Cemetery,United States,Tennessee,Tipton County,Charleston,Charleston,,35.4949602,-89.5101643,,,,human,true,
Saint Matthews Cemetery,United States,Tennessee,Tipton County,Charleston,Charleston,,35.4988417,-89.5132474,,,,human,true,
Salem Cemetery,United States,Tennessee,Tipton County,Canaan Grove,Canaan Grove,,35.4785955,-89.5630165,,,,human,true,
Randolph Cemetery,United States,Tennessee,Tipton County,Randolph,Randolph,,35.5218881,-89.8788936,,,,human,true,
Avery Cemetery,United States,Tennessee,Tipton County,Leighs,Leighs,,35.6097026,-89.6650377,,,,human,true,
Leighs Chapel Cemetery,United States,Tennessee,Tipton County,Leighs,Leighs,,35.610359,-89.6669944,,,,human,true,
Morrison Cemetery,United States,Tennessee,Tipton County,Brighton,Brighton,,35.490764,-89.7128508,,,,human,true,
Cedar Hill Cemetery,United States,Tennessee,Tipton County,Mason,Mason,,35.4204673,-89.5405608,,,,human,true,
Magnolia Cemetery,United States,Tennessee,Tipton County,Mason,Mason,,35.4210446,-89.5407962,,,,human,true,
Cotton Cemetery,United States,Tennessee,Tipton County,Charleston,Charleston,,35.5249644,-89.5324849,,,,human,true,
Ebenezer Cemetery,United States,Tennessee,Tipton County,Ebenezer,Ebenezer,,35.4123507,-89.6188366,,,,human,true,
Trinity Cemetery,United States,Tennessee,Tipton County,Gailor,Gailor,,35.455764,-89.5186702,,,,human,true,
Crigger Cemetery,United States,Tennessee,Tipton County,Munford,Munford,,35.452714,-89.8100165,,,,human,true,
Campground Cemetery,United States,Tennessee,Tipton County,Hopewell,Hopewell,,35.4969518,-89.8535587,,,,human,true,
Sharpe Cemetery,United States,Tennessee,Tipton County,Tabernacle,Tabernacle,,35.5089274,-89.5814762,,,,human,true,
Smyrna Cemetery,United States,Tennessee,Tipton County,Burlison,Burlison,,35.5606985,-89.777602,,,,human,true,
Beech Chapel Cemetery,United States,Tennessee,Tipton County,Gailor,Gailor,,35.452643,-89.518522,,,,human,true,
Mount Lebanon Cemetery,United States,Tennessee,Tipton County,Mount Lebanon,Mount Lebanon,,35.6060216,-89.7063397,,,,human,true,
Robinson Cemetery,United States,Tennessee,Tipton County,Gainesville,Gainesville,,35.4141951,-89.5943997,,,,human,true,
Mount Carmel Cemetery,United States,Tennessee,Tipton County,Mount Carmel,Mount Carmel,,35.4950945,-89.6490826,,,,human,true,
Kings Hill Cemetery,United States,Tennessee,Tipton County,Green Hills,Green Hills,,35.511483,-89.6770607,,,,human,true,
Hall Cemetery,United States,Tennessee,Tipton County,Covington,Covington,,35.536961,-89.6479091,,,,human,true,
Plummers Grove Cemetery,United States,Tennessee,Tipton County,Solo,Solo,,35.5780509,-89.5771431,,,,human,true,
Clay Cemetery,United States,Tennessee,Dyer County,Bonicord,Bonicord,,35.9760493,-89.3453335,,,,human,true,
Fayette County Memorial Park Cemetery,United States,Tennessee,Fayette County,Warren,Warren,,35.2302445,-89.4550858,,,,human,true,
Brodnax Cemetery,United States,Tennessee,Tipton County,Mason,Mason,,35.3750642,-89.530473,,,,human,true,
Middleburg Cemetery,United States,Tennessee,Hardeman County,Middleburg,Middleburg,,35.1983407,-89.0897051,,,,human,true,
Old Bethel Church Cemetery,United States,Tennessee,Hardeman County,Middleburg,Middleburg,,35.1985557,-89.0886054,,,,human,true,
Bucksnort Cemetery,United States,Tennessee,Wayne County,Yates (historical),Yates (historical),,35.1331369,-87.6903025,,,,human,true,
Risner Cemetery,United States,Tennessee,Wayne County,Highland,Highland,,35.248135,-87.7208571,,,,human,true,
Short Cemetery,United States,Tennessee,Giles County,Cobb Subdivision,Cobb Subdivision,,35.1678585,-87.081121,,,,human,true,
Shouse Cemetery,United States,Tennessee,Hickman County,Woodland Heights,Woodland Heights,,35.76479,-87.5058484,,,,human,true,
Simmons Cemetery,United States,Tennessee,Decatur County,Dunbar,Dunbar,,35.4606296,-88.1169776,,,,human,true,
Sisco Cemetery,United States,Tennessee,Lewis County,Salem,Salem,,35.618961,-87.4308479,,,,human,true,
Smith Cemetery,United States,Tennessee,Giles County,Kedron,Kedron,,35.0317496,-87.0522317,,,,human,true,
Smith Cemetery,United States,Tennessee,Lawrence County,Hensley Ridge (historical),Hensley Ridge (historical),,35.0961924,-87.4991884,,,,human,true,
Smith Cemetery,United States,Tennessee,Hardin County,Economy (historical),Economy (historical),,35.2217474,-88.1653122,,,,human,true,
Smith Cemetery,United States,Tennessee,Chester County,Hickory Corners,Hickory Corners,,35.316747,-88.6769963,,,,human,true,
Smith Cemetery,United States,Tennessee,Hardin County,Stringtown,Stringtown,,35.3506329,-88.1811459,,,,human,true,
Smith Cemetery,United States,Tennessee,Chester County,Cabo,Cabo,,35.4406318,-88.472547,,,,human,true,
Smith Cemetery,United States,Tennessee,Lewis County,Bachelder,Bachelder,,35.502298,-87.3036234,,,,human,true,
Smith Cemetery,United States,Tennessee,Perry County,Crooked Creek,Crooked Creek,,35.8545083,-87.9041956,,,,human,true,
Smith Cemetery,United States,Tennessee,Carroll County,Williams Chapel,Williams Chapel,,35.8945081,-88.3661586,,,,human,true,
Smith Cemetery,United States,Tennessee,Dickson County,Redden (historical),Redden (historical),,35.957008,-87.4644593,,,,human,true,
Smith Chapel Cemetery,United States,Tennessee,Maury County,McCains,McCains,,35.5500732,-87.0483392,,,,human,true,
Sparks Cemetery,United States,Tennessee,Wayne County,Clifton,Clifton,,35.38702,-88.039197,,,,human,true,
Sparks Cemetery,United States,Tennessee,Hardin County,Lott Landing,Lott Landing,,35.3925757,-88.0955878,,,,human,true,
Sparks Cemetery,United States,Tennessee,Humphreys County,Water Valley,Water Valley,,35.9761739,-87.63752,,,,human,true,
Springer Cemetery,United States,Tennessee,Hickman County,Crossroads,Crossroads,,35.7353461,-87.5369606,,,,human,true,
Stafford Cemetery,United States,Tennessee,Giles County,Weakley,Weakley,,35.2614686,-87.1802906,,,,human,true,
Stanfill Cemetery,United States,Tennessee,Hickman County,Bond,Bond,,35.7539572,-87.4100131,,,,human,true,
Stanley Cemetery,United States,Tennessee,Hickman County,Pleasantville,Pleasantville,,35.6956234,-87.7447451,,,,human,true,
Stevens Cemetery,United States,Tennessee,Lawrence County,Bonnertown,Bonnertown,,35.0017497,-87.2750178,,,,human,true,
Stewart Cemetery,United States,Tennessee,Chester County,Lula (historical),Lula (historical),,35.4700753,-88.4417129,,,,human,true,
Stills Cemetery,United States,Tennessee,Decatur County,Bible Hill,Bible Hill,,35.6847899,-88.126703,,,,human,true,
Stoney- Lonesome Cemetery,United States,Tennessee,Lewis County,Gordonsburg,Gordonsburg,,35.5606295,-87.4200149,,,,human,true,
Stout Cemetery,United States,Tennessee,Wayne County,Ransom Stand,Ransom Stand,,35.033695,-87.950587,,,,human,true,
Stout Cemetery,United States,Tennessee,Hardin County,Walnut Grove (historical),Walnut Grove (historical),,35.0356406,-88.1722601,,,,human,true,
Stricklin Cemetery,United States,Tennessee,Hardin County,Lowryville,Lowryville,,35.1125826,-88.0792003,,,,human,true,
Sweeney Cemetery,United States,Tennessee,Hardin County,Box Elder,Box Elder,,35.2942463,-88.321428,,,,human,true,
Tanner Cemetery,United States,Tennessee,Perry County,Mousetail (historical),Mousetail (historical),,35.6920116,-87.9972534,,,,human,true,
Taylor Cemetery,United States,Tennessee,Hardin County,Pyburn,Pyburn,,35.0984174,-88.2583727,,,,human,true,
Taylor Cemetery,United States,Tennessee,Perry County,Linden,Linden,,35.6334024,-87.8350259,,,,human,true,
Taylor Cemetery,United States,Tennessee,Hickman County,Bon Aqua Junction,Bon Aqua Junction,,35.9120091,-87.3150111,,,,human,true,
Temple Cemetery,United States,Tennessee,Hickman County,Pinewood,Pinewood,,35.9167312,-87.4536256,,,,human,true,
The Mound Cemetery,United States,Tennessee,Perry County,Sugar Hill,Sugar Hill,,35.5453492,-87.8150254,,,,human,true,
Thomas Cemetery,United States,Tennessee,Hardin County,Caney Hollow,Caney Hollow,,35.0020304,-88.2180955,,,,human,true,
Thompson Cemetery,United States,Tennessee,Giles County,Minor Hill,Minor Hill,,35.0661934,-87.1694581,,,,human,true,
Thornton Cemetery,United States,Tennessee,Hickman County,Whitehouse,Whitehouse,,35.907842,-87.620297,,,,human,true,
Tidwell Cemetery,United States,Tennessee,Maury County,Sulphur Springs (historical),Sulphur Springs (historical),,35.8156226,-87.0358379,,,,human,true,
Timmons Cemetery,United States,Tennessee,Maury County,Athendale,Athendale,,35.6578486,-87.0694503,,,,human,true,
Tippitt Cemetery,United States,Tennessee,Benton County,McIllwain,McIllwain,,35.8878407,-88.0736468,,,,human,true,
Todd Cemetery,United States,Tennessee,Henderson County,Farmville (historical),Farmville (historical),,35.8239535,-88.2678212,,,,human,true,
Tolley Cemetery,United States,Tennessee,Decatur County,Utah,Utah,,35.6089586,-88.078089,,,,human,true,
Townsend Cemetery,United States,Tennessee,Perry County,Crooked Creek,Crooked Creek,,35.8136757,-87.9283629,,,,human,true,
Tripp Cemetery,United States,Tennessee,Lawrence County,Mars Hill,Mars Hill,,35.2475801,-87.2972383,,,,human,true,
Tacker Cemetery,United States,Tennessee,Hardin County,Gibbs (historical),Gibbs (historical),,35.0578623,-88.178371,,,,human,true,
Tucker Cemetery,United States,Tennessee,Wayne County,Carrollville (historical),Carrollville (historical),,35.4053527,-87.9883621,,,,human,true,
Tucker Cemetery,United States,Tennessee,Dickson County,Iron Hill,Iron Hill,,35.9783964,-87.3547344,,,,human,true,
Turnbo Cemetery,United States,Tennessee,Wayne County,Clifton,Clifton,,35.4056305,-88.0116961,,,,human,true,
Turner Cemetery,United States,Tennessee,McNairy County,Cypress,Cypress,,35.0186986,-88.6778295,,,,human,true,
Turner Cemetery,United States,Tennessee,Hickman County,Whitehouse,Whitehouse,,35.9095087,-87.5819625,,,,human,true,
Vanhook Cemetery,United States,Tennessee,Humphreys County,Polecat,Polecat,,35.9472843,-87.9205856,,,,human,true,
Varbrough Cemetery,United States,Tennessee,Humphreys County,Hustburg,Hustburg,,35.9742281,-87.9541982,,,,human,true,
Vaughn Cemetery,United States,Tennessee,Williamson County,Craigfield,Craigfield,,35.8864543,-87.2208422,,,,human,true,
Vestal Cemetery,United States,Tennessee,Maury County,New Hope,New Hope,,35.7309023,-87.0519496,,,,human,true,
Vincent Cemetery,United States,Tennessee,Lewis County,Aethra,Aethra,,35.5678516,-87.3466797,,,,human,true,
Vineyard Cemetery,United States,Tennessee,Humphreys County,Water Valley,Water Valley,,35.989507,-87.6430758,,,,human,true,
Vineyard Cemetery,United States,Tennessee,Dickson County,Tidwell,Tidwell,,35.9989515,-87.3708459,,,,human,true,
Voorhies Cemetery,United States,Tennessee,Lewis County,Voorhies,Voorhies,,35.4414649,-87.5497413,,,,human,true,
Walker Cemetery,United States,Tennessee,Wayne County,Ashland,Ashland,,35.4489635,-87.6861337,,,,human,true,
Walker Cemetery,United States,Tennessee,Lewis County,Lucerne (historical),Lucerne (historical),,35.5597962,-87.3841807,,,,human,true,
Walker Cemetery,United States,Tennessee,Maury County,Westwood,Westwood,,35.6047944,-87.1041737,,,,human,true,
Walker Cemetery,United States,Tennessee,Decatur County,Jeannette,Jeannette,,35.7153445,-88.0658675,,,,human,true,
Walker Cemetery,United States,Tennessee,Humphreys County,Buffalo,Buffalo,,35.9011746,-87.8183591,,,,human,true,
Walker Cemetery,United States,Tennessee,Humphreys County,Polecat,Polecat,,35.9745061,-87.8972514,,,,human,true,
Wall Cemetery,United States,Tennessee,Williamson County,Smarden,Smarden,,35.8306222,-87.0669497,,,,human,true,
Wallace Cemetery,United States,Tennessee,Decatur County,Largo,Largo,,35.5539601,-88.069199,,,,human,true,
Wallace Cemetery,United States,Tennessee,Decatur County,Utah,Utah,,35.5817372,-88.0830888,,,,human,true,
Wallace Cemetery,United States,Tennessee,Henderson County,Oak Grove,Oak Grove,,35.6514581,-88.3094874,,,,human,true,
Wamble Cemetery,United States,Tennessee,Chester County,Hickory Corners,Hickory Corners,,35.3692456,-88.7058866,,,,human,true,
Warren Cemetery,United States,Tennessee,McNairy County,Selmer,Selmer,,35.1775831,-88.5606026,,,,human,true,
Watson Cemetery,United States,Tennessee,Hardeman County,Toone,Toone,,35.3653578,-88.9389493,,,,human,true,
Watson Cemetery,United States,Tennessee,Maury County,Athendale,Athendale,,35.6892367,-87.053061,,,,human,true,
Watson Cemetery,United States,Tennessee,Hickman County,Deans,Deans,,35.7264578,-87.476959,,,,human,true,
Weatherspoon Cemetery,United States,Tennessee,Hickman County,Spot,Spot,,35.8520099,-87.5814067,,,,human,true,
West Cemetery,United States,Tennessee,Maury County,Mowd (historical),Mowd (historical),,35.6950699,-87.0577833,,,,human,true,
Wetherspoon Hollow Cemetery,United States,Tennessee,Humphreys County,Milltown,Milltown,,35.9942293,-87.5669624,,,,human,true,
Wheat Cemetery,United States,Tennessee,Hickman County,Bond,Bond,,35.7234025,-87.3969574,,,,human,true,
White Cemetery,United States,Tennessee,Decatur County,Mount Tabor,Mount Tabor,,35.6070143,-88.1111457,,,,human,true,
White Cemetery,United States,Tennessee,Maury County,Gant,Gant,,35.6845148,-87.1575079,,,,human,true,
Whitson Cemetery,United States,Tennessee,Giles County,Bodenham,Bodenham,,35.2667462,-87.1552897,,,,human,true,
Whitson Cemetery,United States,Tennessee,Hickman County,Whitfield,Whitfield,,35.8122886,-87.5525168,,,,human,true,
Whitwell Cemetery,United States,Tennessee,Perry County,Sugar Hill,Sugar Hill,,35.5617377,-87.8247479,,,,human,true,
Wiley Cemetery,United States,Tennessee,Dickson County,Tidwell,Tidwell,,35.9847851,-87.3622346,,,,human,true,
Wilkerson Cemetery,United States,Tennessee,Wayne County,Martins Mills,Martins Mills,,35.2267461,-87.9989179,,,,human,true,
Wilkerson Cemetery,United States,Tennessee,Giles County,Riversburg,Riversburg,,35.2986896,-87.0813979,,,,human,true,
Wilkins Cemetery,United States,Tennessee,Decatur County,Jeannette,Jeannette,,35.7053448,-88.0772567,,,,human,true,
Wilkinson Cemetery,United States,Tennessee,Giles County,Pulaski,Pulaski,,35.2164687,-87.0300078,,,,human,true,
Williams Cemetery,United States,Tennessee,McNairy County,Hickory Flats,Hickory Flats,,35.2342482,-88.431431,,,,human,true,
Williams Cemetery,United States,Tennessee,Lawrence County,Barnesville,Barnesville,,35.4461877,-87.3936264,,,,human,true,
Williams Cemetery,United States,Tennessee,Henderson County,Poplar Springs,Poplar Springs,,35.7681212,-88.2050406,,,,human,true,
Williams Cemetery,United States,Tennessee,Gibson County,Gibson,Gibson,,35.8270127,-88.8428383,,,,human,true,
Wilson Cemetery,United States,Tennessee,Henderson County,Wildersville,Wildersville,,35.8103431,-88.3647691,,,,human,true,
Winding Ridge Cemetery,United States,Tennessee,McNairy County,Copeland (historical),Copeland (historical),,35.2895244,-88.4189311,,,,human,true,
Winn Cemetery,United States,Tennessee,Maury County,Pleasant Grove,Pleasant Grove,,35.5114626,-87.0030606,,,,human,true,
Wisdom Cemetery,United States,Tennessee,Lawrence County,Pinkney,Pinkney,,35.1828582,-87.531132,,,,human,true,
Wisener Cemetery,United States,Tennessee,Maury County,Athendale,Athendale,,35.6678162,-87.0840537,,,,human,true,
Wisner Cemetery,United States,Tennessee,Maury County,Concord (historical),Concord (historical),,35.6789593,-87.1100068,,,,human,true,
Wolverton Cemetery,United States,Tennessee,McNairy County,Copeland (historical),Copeland (historical),,35.2684139,-88.4114305,,,,human,true,
Wood Cemetery,United States,Tennessee,Hardin County,Pyburn,Pyburn,,35.0803623,-88.2555953,,,,human,true,
Wood Cemetery,United States,Tennessee,Giles County,Weakley,Weakley,,35.2756349,-87.1541784,,,,human,true,
Woodard Cemetery,United States,Tennessee,Carroll County,Howley,Howley,,35.8575656,-88.5642206,,,,human,true,
Woody Cemetery,United States,Tennessee,Maury County,Santa Fe,Santa Fe,,35.7164584,-87.1388962,,,,human,true,
Woody Cemetery,United States,Tennessee,Hickman County,Johnsons Mill,Johnsons Mill,,35.770346,-87.2377873,,,,human,true,
Wooten Cemetery,United States,Tennessee,McNairy County,Cypress,Cypress,,35.0289766,-88.7444981,,,,human,true,
Worley Cemetery,United States,Tennessee,Hardin County,New Hope,New Hope,,35.1931377,-88.3303176,,,,human,true,
Wortham Cemetery,United States,Tennessee,Maury County,Broadview,Broadview,,35.5047969,-87.1113965,,,,human,true,
Wright Cemetery,United States,Tennessee,Humphreys County,Cedar Grove,Cedar Grove,,35.9283965,-87.775302,,,,human,true,
Wright Cemetery,United States,Tennessee,Williamson County,Clement Lake Estates,Clement Lake Estates,,35.9981182,-87.1327844,,,,human,true,
Wyly Cemetery,United States,Tennessee,Benton County,Birdsong Creek Subdivision,Birdsong Creek Subdivision,,35.9911719,-88.0389238,,,,human,true,
Yarbro Cemetery,United States,Tennessee,Decatur County,Decaturville,Decaturville,,35.580904,-88.1486467,,,,human,true,
Yarbrough Cemetery,United States,Tennessee,Lawrence County,Seven (historical),Seven (historical),,35.270913,-87.2211252,,,,human,true,
Yarbrough Cemetery,United States,Tennessee,Hardeman County,Toone,Toone,,35.3820241,-88.9495052,,,,human,true,
Yates Cemetery,United States,Tennessee,Hickman County,Bon Aqua,Bon Aqua,,35.9700633,-87.3458452,,,,human,true,
Yoder Cemetery,United States,Tennessee,Lawrence County,Brace,Brace,,35.3503562,-87.3152927,,,,human,true,
York Cemetery,United States,Tennessee,Giles County,Goodspring,Goodspring,,35.1470255,-87.0919548,,,,human,true,
Zollicoffer Cemetery,United States,Tennessee,Maury County,Bigbyville,Bigbyville,,35.5411847,-87.087229,,,,human,true,
Adams Cemetery,United States,Tennessee,Giles County,Crescent View,Crescent View,,35.1428588,-87.0166744,,,,human,true,
Alexander Cemetery,United States,Tennessee,Lawrence County,Alexander Springs,Alexander Springs,,35.3745225,-87.2689025,,,,human,true,
Alexander Cemetery,United States,Tennessee,Madison County,Pinson,Pinson,,35.4431325,-88.7044983,,,,human,true,
Allen Cemetery,United States,Tennessee,Hickman County,Little Rock Mills,Little Rock Mills,,35.8717324,-87.2975107,,,,human,true,
Altom Cemetery,United States,Tennessee,Decatur County,Unity,Unity,,35.4170196,-88.128089,,,,human,true,
Ander Smith Cemetery,United States,Tennessee,Lawrence County,Gandy,Gandy,,35.1853584,-87.3841849,,,,human,true,
Anderson Cemetery,United States,Tennessee,Hardin County,Five Forks,Five Forks,,35.3670216,-88.2355923,,,,human,true,
Anderson Cemetery,United States,Tennessee,Hickman County,Swan Bluff,Swan Bluff,,35.7274284,-87.4207476,,,,human,true,
Anthony Cemetery,United States,Tennessee,Giles County,Turney,Turney,,35.1195259,-87.0419531,,,,human,true,
Arnold Cemetery,United States,Tennessee,Decatur County,Bible Hill,Bible Hill,,35.7211778,-88.1417041,,,,human,true,
Autrey Cemetery,United States,Tennessee,Henderson County,Pleasant Hill,Pleasant Hill,,35.6720131,-88.3322664,,,,human,true,
Bailey Cemetery,United States,Tennessee,Lawrence County,Pea Ridge,Pea Ridge,,35.2117468,-87.4611302,,,,human,true,
Bailey Cemetery,United States,Tennessee,Hardin County,Smiths Fork (historical),Smiths Fork (historical),,35.2586902,-88.0733643,,,,human,true,
Bailey Cemetery,United States,Tennessee,Decatur County,Bath Springs,Bath Springs,,35.4906286,-88.0753097,,,,human,true,
Baker Cemetery,United States,Tennessee,Maury County,Greenfield Bend,Greenfield Bend,,35.7017368,-87.2694548,,,,human,true,
Baker Cemetery,United States,Tennessee,Maury County,Mayberry (historical),Mayberry (historical),,35.8156227,-87.2291759,,,,human,true,
Barber Cemetery,United States,Tennessee,Perry County,Lobelville,Lobelville,,35.7683995,-87.7369668,,,,human,true,
Bartley Cemetery,United States,Tennessee,Hickman County,Mill Creek,Mill Creek,,35.8900652,-87.3591789,,,,human,true,
Bascom Cemetery,United States,Tennessee,Madison County,Windy City,Windy City,,35.6867384,-88.9122829,,,,human,true,
Bass Cemetery,United States,Tennessee,Hardeman County,Porters Creek,Porters Creek,,35.1509185,-88.8667243,,,,human,true,
Batts Cemetery,United States,Tennessee,Giles County,Pulaski,Pulaski,,35.2281352,-87.0291745,,,,human,true,
Baugh Cemetery,United States,Tennessee,Giles County,Harwell,Harwell,,35.1323034,-87.0122298,,,,human,true,
Bawcum Cemetery,United States,Tennessee,Decatur County,Akins Chapel,Akins Chapel,,35.7822873,-88.0861468,,,,human,true,
Bayse Cemetery,United States,Tennessee,Hardin County,Bucktown,Bucktown,,35.2723019,-88.2072575,,,,human,true,
Beale Cemetery,United States,Tennessee,Hickman County,Beale (historical),Beale (historical),,35.8311778,-87.271399,,,,human,true,
Beasley Cemetery,United States,Tennessee,Giles County,Turney,Turney,,35.1061928,-87.0430644,,,,human,true,
Beasley Cemetery,United States,Tennessee,Henderson County,Poplar Springs,Poplar Springs,,35.7872874,-88.2033739,,,,human,true,
Beaty Cemetery,United States,Tennessee,McNairy County,Forty Forks,Forty Forks,,35.2906361,-88.5678252,,,,human,true,
Beecham Cemetery,United States,Tennessee,Henderson County,Center Hill,Center Hill,,35.5236847,-88.4061564,,,,human,true,
Belew Cemetery,United States,Tennessee,Lawrence County,Chinubee,Chinubee,,35.1034146,-87.5130775,,,,human,true,
Beshears Cemetery,United States,Tennessee,Hardin County,Southside,Southside,,35.0495297,-88.3619871,,,,human,true,
Bethel Cemetery,United States,Tennessee,Lawrence County,Park Grove,Park Grove,,35.3070234,-87.3683497,,,,human,true,
Big Springs Cemetery,United States,Tennessee,Henderson County,Middle Fork,Middle Fork,,35.5456289,-88.4756043,,,,human,true,
Bills Cemetery,United States,Tennessee,Maury County,Lebanon Heights,Lebanon Heights,,35.5481286,-87.0180608,,,,human,true,
Bingham Cemetery,United States,Tennessee,Hickman County,Shady Grove,Shady Grove,,35.7320136,-87.2913996,,,,human,true,
Birdwell Cemetery,United States,Tennessee,Carroll County,Spanish Grove,Spanish Grove,,35.9358956,-88.2753219,,,,human,true,
Birkett Hill Cemetery,United States,Tennessee,Maury County,Isbell,Isbell,,35.5175745,-87.1208411,,,,human,true,
Black Cemetery,United States,Tennessee,Carroll County,Scott Hill,Scott Hill,,35.8836756,-88.4611621,,,,human,true,
Blackman Cemetery,United States,Tennessee,Maury County,Loco (historical),Loco (historical),,35.7714569,-87.0102819,,,,human,true,
Blackwell Cemetery,United States,Tennessee,Hickman County,Only,Only,,35.826732,-87.7125218,,,,human,true,
Blevins Cemetery,United States,Tennessee,Hardin County,Maddox,Maddox,,35.1845263,-88.2092031,,,,human,true,
Boikin Cemetery,United States,Tennessee,Crockett County,Mason Grove,Mason Grove,,35.7792372,-88.9625624,,,,human,true,
Bone Spring Cemetery,United States,Tennessee,Humphreys County,Buffalo,Buffalo,,35.8325648,-87.7989137,,,,human,true,
Booker Cemetery,United States,Tennessee,Dickson County,Beech Grove (historical),Beech Grove (historical),,35.9642301,-87.3911242,,,,human,true,
Boon Cemetery,United States,Tennessee,Hardin County,Crowtexas,Crowtexas,,35.2395244,-88.1236438,,,,human,true,
Boswell Cemetery,United States,Tennessee,Henderson County,Union Cross,Union Cross,,35.7403448,-88.417826,,,,human,true,
Bradford Cemetery,United States,Tennessee,Hardeman County,Toone,Toone,,35.3580512,-88.9458864,,,,human,true,
Bradford Cemetery,United States,Tennessee,Carroll County,Shiloh,Shiloh,,35.8539527,-88.2269863,,,,human,true,
Bradley Cemetery,United States,Tennessee,Decatur County,Sugar Tree,Sugar Tree,,35.8331196,-87.999199,,,,human,true,
Brazelton Cemetery,United States,Tennessee,Hardin County,Hinkle,Hinkle,,35.3867437,-88.3217067,,,,human,true,
Brewer Cemetery,United States,Tennessee,Wayne County,Star (historical),Star (historical),,35.1006375,-87.6780805,,,,human,true,
Brewer Cemetery,United States,Tennessee,Wayne County,Sorby (historical),Sorby (historical),,35.282856,-87.8494705,,,,human,true,
Brinkley Cemetery,United States,Tennessee,Carroll County,Shiloh,Shiloh,,35.8214534,-88.2005963,,,,human,true,
Bromley Cemetery,United States,Tennessee,Perry County,Flat Woods,Flat Woods,,35.4589625,-87.8086365,,,,human,true,
Brooks Cemetery,United States,Tennessee,Maury County,Latta (historical),Latta (historical),,35.7092364,-87.1208402,,,,human,true,
Brown Cemetery,United States,Tennessee,Hardin County,Big Ivy,Big Ivy,,35.1086937,-88.063922,,,,human,true,
Brown Cemetery,United States,Tennessee,Maury County,Stiversville,Stiversville,,35.4117426,-87.026673,,,,human,true,
Brown Cemetery,United States,Tennessee,Chester County,Mifflin,Mifflin,,35.5528511,-88.5517177,,,,human,true,
Brown Cemetery,United States,Tennessee,Dickson County,Redden (historical),Redden (historical),,35.941175,-87.4302918,,,,human,true,
Brown Cemetery,United States,Tennessee,Benton County,Chalklevel,Chalklevel,,35.9878387,-88.0725363,,,,human,true,
Bruce Cemetery,United States,Tennessee,Dickson County,Beech Grove (historical),Beech Grove (historical),,35.9736743,-87.3939021,,,,human,true,
Brush Creek Cemetery,United States,Tennessee,Lawrence County,Turkey Track,Turkey Track,,35.3950768,-87.553075,,,,human,true,
Buckley Cemetery,United States,Tennessee,Henderson County,Shady Hill,Shady Hill,,35.5861824,-88.3305985,,,,human,true,
Burnt Stand Cemetery,United States,Tennessee,Hardin County,Sand Mountain (historical),Sand Mountain (historical),,35.11425,-88.1922593,,,,human,true,
Butler Cemetery,United States,Tennessee,Madison County,Roy,Roy,,35.4979882,-88.791908,,,,human,true,
Byers Cemetery,United States,Tennessee,Hickman County,Crossroads,Crossroads,,35.7364573,-87.5233491,,,,human,true,
Byrd Cemetery,United States,Tennessee,Humphreys County,Hustburg,Hustburg,,35.9347844,-87.9383639,,,,human,true,
Cain Cemetery,United States,Tennessee,Henderson County,Wildersville,Wildersville,,35.7839547,-88.3528241,,,,human,true,
Campbell Cemetery,United States,Tennessee,Hickman County,Crossroads,Crossroads,,35.7209019,-87.5555725,,,,human,true,
Canady Cemetery,United States,Tennessee,Hickman County,Graham,Graham,,35.8739543,-87.4530699,,,,human,true,
Cantrell Cemetery,United States,Tennessee,Giles County,Highland Heights,Highland Heights,,35.1750806,-87.0633425,,,,human,true,
Capps Cemetery,United States,Tennessee,Benton County,Coxburg,Coxburg,,35.8997849,-88.044479,,,,human,true,
Carnell Cemetery,United States,Tennessee,Henderson County,Parker Crossroads,Parker Crossroads,,35.8067322,-88.3769917,,,,human,true,
Carothers Cemetery,United States,Tennessee,Hickman County,Elkins,Elkins,,35.793956,-87.5083486,,,,human,true,
Carpenter Cemetery,United States,Tennessee,Giles County,Bufords,Bufords,,35.3322999,-87.062508,,,,human,true,
Carpenter Cemetery,United States,Tennessee,Giles County,Rich,Rich,,35.3578552,-87.0825084,,,,human,true,
Carr Cemetery,United States,Tennessee,McNairy County,Sulphur Springs,Sulphur Springs,,35.0964747,-88.6917187,,,,human,true,
Carter Cemetery,United States,Tennessee,Giles County,Weakley,Weakley,,35.2709128,-87.1697345,,,,human,true,
Case Cemetery,United States,Tennessee,Giles County,Bethel,Bethel,,35.0234164,-87.0355645,,,,human,true,
Cason Cemetery,United States,Tennessee,Chester County,Hickory Corners,Hickory Corners,,35.3514683,-88.7050532,,,,human,true,
Catheys Cemetery,United States,Tennessee,Maury County,Taylorsville,Taylorsville,,35.6434051,-87.2811221,,,,human,true,
Cawthon Cemetery,United States,Tennessee,Carroll County,Smyrna,Smyrna,,35.9706177,-88.347825,,,,human,true,
Cecil Cemetery,United States,Tennessee,Maury County,Bigby (historical),Bigby (historical),,35.5836845,-87.2230655,,,,human,true,
Cedar Hill Cemetery,United States,Tennessee,Hickman County,Lyles,Lyles,,35.9378419,-87.3483453,,,,human,true,
Chaffin Cemetery,United States,Tennessee,Maury County,Southport,Southport,,35.4622975,-87.0819517,,,,human,true,
Chambers Cemetery,United States,Tennessee,McNairy County,Chambers,Chambers,,35.1020286,-88.3953206,,,,human,true,
Chandler Cemetery,United States,Tennessee,Hickman County,Sulphur Springs (historical),Sulphur Springs (historical),,35.7089573,-87.6214079,,,,human,true,
Channell Cemetery,United States,Tennessee,Decatur County,Bath Springs,Bath Springs,,35.4403522,-88.079754,,,,human,true,
Chappell Cemetery,United States,Tennessee,Dickson County,Redden (historical),Redden (historical),,35.9783964,-87.4183471,,,,human,true,
Chappell Cemetery,United States,Tennessee,Humphreys County,Hustburg,Hustburg,,35.9897833,-87.9528093,,,,human,true,
Cheairs Cemetery,United States,Tennessee,Hickman County,Lick Creek (historical),Lick Creek (historical),,35.8681214,-87.253343,,,,human,true,
Cheney Cemetery,United States,Tennessee,Decatur County,Bible Hill,Bible Hill,,35.7222888,-88.1261479,,,,human,true,
Cheney Cemetery,United States,Tennessee,Decatur County,Cherokee Heights,Cherokee Heights,,35.7539545,-88.0178104,,,,human,true,
Chester Cemetery,United States,Tennessee,Williamson County,Chester Estates,Chester Estates,,35.9658967,-87.1213953,,,,human,true,
Choate Cemetery,United States,Tennessee,Perry County,Linden,Linden,,35.6595127,-87.8897497,,,,human,true,
Christian Cemetery,United States,Tennessee,Dickson County,Beasley (historical),Beasley (historical),,35.9753409,-87.4989048,,,,human,true,
Chumney Cemetery,United States,Tennessee,Henderson County,Taylors Crossing,Taylors Crossing,,35.5425721,-88.2461496,,,,human,true,
Clayborne Cemetery,United States,Tennessee,Perry County,Pine View,Pine View,,35.7411771,-87.9594747,,,,human,true,
Cochran Cemetery,United States,Tennessee,Hickman County,Bon Aqua Junction,Bon Aqua Junction,,35.9014539,-87.3091777,,,,human,true,
Cole Cemetery,United States,Tennessee,Giles County,Aspen Hill,Aspen Hill,,35.0889709,-87.0350086,,,,human,true,
Coleman Cemetery,United States,Tennessee,McNairy County,Sulphur Springs,Sulphur Springs,,35.0950858,-88.687274,,,,human,true,
Coleman Cemetery,United States,Tennessee,Hickman County,Spot,Spot,,35.8883979,-87.6066855,,,,human,true,
Collier Cemetery,United States,Tennessee,Lewis County,Oak Grove,Oak Grove,,35.4606316,-87.5172404,,,,human,true,
Connelly Cemetery,United States,Tennessee,Hardin County,Grandview,Grandview,,35.373132,-88.1203107,,,,human,true,
Cooper Cemetery,United States,Tennessee,Henderson County,Chapel Hill,Chapel Hill,,35.5925719,-88.4936609,,,,human,true,
Corner Cemetery,United States,Tennessee,Williamson County,Craigfield,Craigfield,,35.9020094,-87.2041752,,,,human,true,
Cotham Cemetery,United States,Tennessee,Hickman County,Hornertown,Hornertown,,35.6278485,-87.613075,,,,human,true,
County Farm Cemetery,United States,Tennessee,Henderson County,Hinson Springs,Hinson Springs,,35.6084043,-88.4161578,,,,human,true,
Cox Cemetery,United States,Tennessee,Decatur County,Beacon,Beacon,,35.6292361,-88.188649,,,,human,true,
Crockett Cemetery,United States,Tennessee,Humphreys County,Hustburg,Hustburg,,35.9864501,-87.9422533,,,,human,true,
Cross Cemetery,United States,Tennessee,Maury County,Bigby (historical),Bigby (historical),,35.5678516,-87.2077874,,,,human,true,
Crossno Cemetery,United States,Tennessee,Wayne County,Mooney,Mooney,,35.4395185,-87.886138,,,,human,true,
Cude Cemetery,United States,Tennessee,Humphreys County,Dughill (historical),Dughill (historical),,35.9775618,-87.8753061,,,,human,true,
Dabbs Cemetery,United States,Tennessee,Lewis County,Buffalo Valley,Buffalo Valley,,35.4517417,-87.6314101,,,,human,true,
Dameron Cemetery,United States,Tennessee,Henderson County,Wildersville,Wildersville,,35.7861768,-88.3453238,,,,human,true,
Damron Cemetery,United States,Tennessee,McNairy County,Eastview,Eastview,,35.0673076,-88.5514364,,,,human,true,
Daniels Cemetery,United States,Tennessee,Maury County,Glendale,Glendale,,35.5197958,-87.0111162,,,,human,true,
Darden Cemetery,United States,Tennessee,Hickman County,Littlelot,Littlelot,,35.7750679,-87.3414006,,,,human,true,
Davana Cemetery,United States,Tennessee,Wayne County,Martins Mills,Martins Mills,,35.2145241,-87.9761399,,,,human,true,
Davidson Cemetery,United States,Tennessee,Decatur County,Cotham (historical),Cotham (historical),,35.7942316,-87.9672531,,,,human,true,
Davis Cemetery,United States,Tennessee,Decatur County,Lick Skillet,Lick Skillet,,35.5375721,-88.1800361,,,,human,true,
Davis Cemetery,United States,Tennessee,Hickman County,Bond,Bond,,35.7295134,-87.3983463,,,,human,true,
Davis Cemetery,United States,Tennessee,Hickman County,Tidwell,Tidwell,,35.9067316,-87.217231,,,,human,true,
DeBerry Cemetery,United States,Tennessee,Hardin County,Economy (historical),Economy (historical),,35.2136918,-88.1386448,,,,human,true,
Dicus Cemetery,United States,Tennessee,Wayne County,Mooney,Mooney,,35.3606317,-87.9125273,,,,human,true,
Dixon Cemetery,United States,Tennessee,Decatur County,Mount Lebanon,Mount Lebanon,,35.5817371,-88.0480875,,,,human,true,
Dodson Cemetery,United States,Tennessee,Maury County,Mowd (historical),Mowd (historical),,35.7106251,-87.0777837,,,,human,true,
Dodson Cemetery,United States,Tennessee,Maury County,New Hope,New Hope,,35.7395133,-87.095284,,,,human,true,
Dooley Cemetery,United States,Tennessee,Maury County,Dooley (historical),Dooley (historical),,35.5953499,-87.0461167,,,,human,true,
Doran Cemetery,United States,Tennessee,Hardin County,Austin,Austin,,35.1948306,-88.2291993,,,,human,true,
Dotson Cemetery,United States,Tennessee,Lawrence County,Mars Hill,Mars Hill,,35.247858,-87.2744602,,,,human,true,
Douglass Cemetery,United States,Tennessee,Henderson County,Union Cross,Union Cross,,35.7575668,-88.4706059,,,,human,true,
Dreden Cemetery,United States,Tennessee,Humphreys County,Polecat,Polecat,,35.9397845,-87.9158631,,,,human,true,
Dudley Cemetery,United States,Tennessee,Perry County,Lobelville,Lobelville,,35.8000655,-87.7714125,,,,human,true,
Duncan Cemetery,United States,Tennessee,Hickman County,Pleasantville,Pleasantville,,35.6339586,-87.7039109,,,,human,true,
Dunn Cemetery,United States,Tennessee,McNairy County,Beauty Hill,Beauty Hill,,35.2667477,-88.535879,,,,human,true,
Dunnagan Cemetery,United States,Tennessee,Hickman County,Bon Aqua,Bon Aqua,,35.9628413,-87.3564011,,,,human,true,
Eason Cemetery,United States,Tennessee,Hickman County,Graytown,Graytown,,35.7742345,-87.4269579,,,,human,true,
Eaton Cemetery,United States,Tennessee,Wayne County,Martins Mills,Martins Mills,,35.2184129,-87.9489172,,,,human,true,
Edge Cemetery,United States,Tennessee,Henderson County,Hickory Flats,Hickory Flats,,35.479519,-88.3617095,,,,human,true,
Elam Cemetery,United States,Tennessee,Gibson County,Graball,Graball,,35.8678442,-88.7145025,,,,human,true,
Elkins Cemetery,United States,Tennessee,Hickman County,Pleasantville,Pleasantville,,35.6822905,-87.7214111,,,,human,true,
Elkins Cemetery,United States,Tennessee,Hickman County,Whitfield,Whitfield,,35.7575673,-87.5905733,,,,human,true,
Elliott Cemetery,United States,Tennessee,Wayne County,Clifton Junction,Clifton Junction,,35.3467431,-87.9694727,,,,human,true,
Ervine Cemetery,United States,Tennessee,Maury County,Rankin,Rankin,,35.5645169,-87.0030603,,,,human,true,
Estes Cemetery,United States,Tennessee,Humphreys County,Hustburg,Hustburg,,35.9895053,-87.9841994,,,,human,true,
Eubanks Cemetery,United States,Tennessee,Henderson County,Christian Chapel,Christian Chapel,,35.7495105,-88.2342085,,,,human,true,
Factory Cemetery,United States,Tennessee,Maury County,Carpenters (historical),Carpenters (historical),,35.4672987,-87.2914014,,,,human,true,
Ferrel Cemetery,United States,Tennessee,Giles County,Anthony Hill,Anthony Hill,,35.1456368,-87.1216782,,,,human,true,
Field Cemetery,United States,Tennessee,Hickman County,Whitfield,Whitfield,,35.8189551,-87.5772398,,,,human,true,
Finch Cemetery,United States,Tennessee,Maury County,Fikes Mill,Fikes Mill,,35.6981258,-87.2225094,,,,human,true,
Fisher Cemetery,United States,Tennessee,Decatur County,Mount Lebanon,Mount Lebanon,,35.5667376,-88.073366,,,,human,true,
Fisher Cemetery,United States,Tennessee,Decatur County,Mount Lebanon,Mount Lebanon,,35.5709039,-88.0244753,,,,human,true,
Fitzgerald Cemetery,United States,Tennessee,Maury County,New Hope,New Hope,,35.7347911,-87.0472273,,,,human,true,
