name,country,state,county,city,street_address,zip_code,latitude,longitude,email,website,phone_number,type,is_operational,description
Dunkard Graveyard,United States,Washington,Klickitat County,Appleton,Appleton,,45.8876222,-121.2828527,,,,human,true,
Evergreen Memorial Gardens,United States,Washington,Clark County,Burton,Burton,,45.6301283,-122.5537786,,https://www.evergreenmemorialgardens.com/,,human,true,
Saint James Cemetery,United States,Washington,Clark County,Vancouver,Vancouver,,45.6410498,-122.6578592,,,,human,true,
Stevenson Cemetery,United States,WA,Skamania County,Stevenson,45302 State Route 14,98648,45.6995388,-121.8671267,,,,human,true,
La Center Cemetery,United States,Washington,Clark County,La Center,La Center,,45.8669571,-122.6546437,,,,human,true,
Salmon Creek Cemetery,United States,Washington,Clark County,Salmon Creek,Salmon Creek,,45.7042768,-122.6621699,,,,human,true,
Lewisville Cemetery,United States,Washington,Clark County,Charter Oak,Charter Oak,,45.8164918,-122.5481418,,,,human,true,
Camas Cemetery,United States,WA,Clark County,Camas,630 Northeast Oak Street,,45.5938303,-122.3955563,,,,human,true,
Fern Prairie Cemetery,United States,Washington,Clark County,Fern Prairie,Fern Prairie,,45.6234917,-122.3966583,,,,human,true,
Old Carson Cemetery,United States,WA,Skamania County,Carson,851 Metzger Road,98610,45.7376479,-121.8160099,,,,human,true,
Wind River Memorial Cemetery,United States,WA,Skamania County,Carson,802 Metzger Road,98610,45.7378878,-121.8143095,,,,human,true,
Iman Cemetery,United States,Washington,Skamania County,Stevenson,Stevenson,,45.6989966,-121.8991707,,,,human,true,
Wish-Ham Cemetery,United States,Washington,Klickitat County,Smithville,Smithville,,45.6309459,-121.1509717,,,,human,true,
Cascade Pioneer Cemetery,United States,Washington,Skamania County,Moffetts Hot Springs,Moffetts Hot Springs,,45.6464349,-121.9591101,,,,human,true,
Carson Eyman Cemetery,United States,WA,Skamania County,Carson,1451 Metzger Road,98610,45.7407064,-121.8260631,,,,human,true,
Northwood Park Cemetery,United States,Washington,Clark County,Baker,Baker,,45.7407678,-122.6546826,,,,human,true,
Sacred Heart Cemetery,United States,Washington,Clark County,Lewisville,Lewisville,,45.8021456,-122.5363487,,,,human,true,
Kerns-Bozorth Cemetery,United States,Washington,Cowlitz County,Woodland,197 East Scott Avenue,,45.9181162,-122.7436938,,,,human,true,
Park Hill Cemetery,United States,Washington,Clark County,McLoughlin Heights,McLoughlin Heights,,45.6263175,-122.6089653,,,,human,true,
Frank Abel Cemetery,United States,Washington,Clark County,Highland,Highland,,45.9390382,-122.6365765,,,,human,true,
Highland Cemetery,United States,Washington,Clark County,Highland,Highland,,45.9054701,-122.6386561,,,,human,true,
Saint John the Evangelist Catholic Cemetery,United States,Washington,Clark County,Saint John,Saint John,,45.6997998,-122.6092258,,,,human,true,
Elim Cemetery South,United States,Washington,Clark County,Brush Prairie,Brush Prairie,,45.736822,-122.5346483,,,,human,true,
Bethel Cemetery,United States,Washington,Clark County,Brush Prairie,Brush Prairie,,45.7368083,-122.5378991,,,,human,true,
Elim Cemetery North,United States,Washington,Clark County,Brush Prairie,Brush Prairie,,45.7376447,-122.5345862,,,,human,true,
Old City Cemetery,United States,Washington,Clark County,Officers Row,Officers Row,,45.6292288,-122.6424678,,,,human,true,
Brush Prarie Cemetary,United States,WA,Clark County,Vancouver,11329 Northeast 117th Avenue,98662,45.7043747,-122.5518273,,,,human,true,
Vancouver Barracks National Cemetery,United States,WA,Clark County,Vancouver,1455 East Fourth Plain Boulevard,98663,45.6397792,-122.6591475,,https://www.cem.va.gov/cems/nchp/VancouverBarracks.asp,+1-503-273-5250,human,true,
Saint Mary of Guadalupe Cemetery,United States,Washington,Clark County,West Pioneer,West Pioneer,,45.8262405,-122.6821667,,,,human,true,
Memory Memorial Park,United States,Washington,Clark County,Manor,Manor,,45.7269251,-122.6011079,,,,human,true,
Gardner Cemetery,United States,Washington,Clark County,Hayes,Hayes,,45.9317708,-122.6781335,,,,human,true,
Hayes Cemetery,United States,Washington,Clark County,Hayes,Hayes,,45.9319671,-122.6784857,,,,human,true,
Washougal Memorial Cemetery,United States,Washington,Clark County,Washougal,Washougal,,45.5885185,-122.3346062,,,,human,true,
Ridgefield Cemetery,United States,Washington,Clark County,Ridgefield,Ridgefield,,45.8127578,-122.735768,,,,human,true,
Sara Union Cemetery,United States,Washington,Clark County,Sara,Sara,,45.7541206,-122.7140213,,,,human,true,
Bethel Cemetery at Ridgefield,United States,Washington,Clark County,Lambert,Lambert,,45.7935465,-122.6935287,,,,human,true,
Lone Pine Cemetery,United States,Washington,Cowlitz County,Woodland Park,Woodland Park,,45.9986926,-122.5042896,,,,human,true,
Pioneer Cemetery,United States,Washington,Clark County,Pioneer,Pioneer,,45.8224759,-122.6405305,,,,human,true,
Sunnyside Cemetery,United States,Washington,Clark County,Washougal,Washougal,,45.6148156,-122.3492665,,,,human,true,
Chelatchie Prarie Cemetery,United States,Washington,Clark County,Chelatchie,Chelatchie,,45.9319859,-122.3790559,,,,human,true,
Crawford Cemetery,United States,Washington,Clark County,Crawford,Crawford,,45.7987873,-122.4662839,,,,human,true,
High Prairie Pioneer Cemetery,United States,Washington,Klickitat County,Pitt,Pitt,,45.7378637,-121.1542721,,,,human,true,
Frankton Cemetery,United States,Washington,Skamania County,Hood,Hood,,45.7076,-121.5600477,,,,human,true,
Klickitat County Cemetery District No. 1,United States,Washington,Klickitat County,White Salmon,White Salmon,,45.7485839,-121.4788547,,,,human,true,
Underwood Cemetery,United States,Washington,Skamania County,Underwood Heights,Underwood Heights,,45.7395409,-121.5273432,,,,human,true,
St. John Lutheran Cemetery,United States,Washington,Clark County,Salmon Creek,Salmon Creek,,45.7042823,-122.6628433,,,,human,true,
St. Martin Cemetery,United States,WA,Skamania County,Carson,31 Saint Martin's Springs Road,98610,45.7268502,-121.8002317,,,,human,true,
Mountain View Cemetery,United States,Washington,Clark County,View,View,,45.902146,-122.5516552,,,,human,true,
Gravel Point Cemetery,United States,Washington,Clark County,Hockinson,Hockinson,,45.7697616,-122.4753043,,,,human,true,
Lyle Cemetery,United States,Washington,Klickitat County,Lyle,Lyle,,45.720501,-121.3281638,,,,human,true,
Mount Adams Cemetery,United States,Washington,Klickitat County,Glenwood,Glenwood,,45.9927541,-121.3348921,,,,human,true,
Trout Lake Cemetery,United States,Washington,Klickitat County,Trout Lake,Trout Lake,,45.9956033,-121.4752816,,,,human,true,
Fourth Plain Cemetery,United States,WA,Clark County,Vancouver,7200 Northeast 126th Court,98682,45.67462,-122.5425877,,,,human,true,
Fisher Cemetery,United States,Washington,Clark County,Fisher,Fisher,,45.5890908,-122.5023338,,,,human,true,
Livingston Cemetery,United States,Washington,Clark County,Livingston,Livingston,,45.6871249,-122.4340257,,,,human,true,
Amboy Cemetery,United States,Washington,Clark County,Amboy,Amboy,,45.9276293,-122.4619815,,,,human,true,
Finn Hill Cemetery,United States,WA,Clark County,Brush Prairie,17905 Northeast 192nd Avenue,98606,45.7518087,-122.4737569,,,,human,true,
Mountain View Cemetery,United States,Washington,Klickitat County,Goldendale,Goldendale,,45.8305495,-120.8207194,,,,human,true,
Sixprong Cemetery,United States,Washington,Klickitat County,Sixprong,Sixprong,,45.8809584,-120.0239262,,,,human,true,
Centerville Cemetery,United States,Washington,Klickitat County,Centerville,Centerville,,45.7311036,-120.9069228,,,,human,true,
Cleveland Cemetary,United States,Washington,Klickitat County,Cleveland,Cleveland,,45.9731724,-120.3482207,,https://www.findagrave.com/cemetery/2184026/cleveland-cemetery,,human,true,
Blackwolf Cemetery,United States,Washington,Klickitat County,Goodnoe Hills,Goodnoe Hills,,45.7950284,-120.4606522,,https://www.findagrave.com/cemetery/2259751/blackwolf-cemetery,,human,true,
Abernathy Cemetery,United States,Washington,Cowlitz County,Oak Point,Oak Point,,46.1907086,-123.1717116,,,,human,true,
Snow Cemetery,United States,Washington,Lewis County,Vader,Vader,,46.4551066,-123.0095665,,,,human,true,
Grasseth Cemetery,United States,Washington,Wahkiakum County,Eagle Cliff,Eagle Cliff,,46.1823323,-123.2153996,,,,human,true,
Miller Cemetery,United States,Washington,Mason County,Agate,Agate,,47.2139841,-123.027927,,,,human,true,
Longview Memorial Park Cemetery,United States,Washington,Cowlitz County,West Longview,West Longview,,46.1606195,-123.0224097,,,,human,true,
Shelton Memorial Park,United States,Washington,Mason County,Pines Mobile Home Park,Pines Mobile Home Park,,47.2180046,-123.125047,,,,human,true,
Fern Hill Cemetery,United States,Washington,Pacific County,Menlo,Menlo,,46.6338868,-123.6611492,,,,human,true,
Fern Hill Cemetery,United States,WA,Grays Harbor County,Aberdeen,2212 Roosevelt Street,98520,46.9943039,-123.7980219,,,,human,true,
Ocean Park Cemetery,United States,Washington,Pacific County,Ocean Park,Ocean Park,,46.4898912,-124.0423342,,,,human,true,
Grand Mound Cemetery,United States,WA,Thurston County,Rochester,6625 183rd Avenue Southwest,98579,46.8211885,-123.0209362,,,,human,true,
Oddfellows Cemetary,United States,Washington,Grays Harbor County,Viking West Mobile Home Park,Viking West Mobile Home Park,,47.0102632,-123.3824784,,,,human,true,
Masonic Cemetery,United States,Washington,Grays Harbor County,Oak Acres Mobile Home Park,Oak Acres Mobile Home Park,,47.002023,-123.4355459,,,,human,true,
McCleary Cemetary,United States,WA,Grays Harbor County,McCleary,816 West Simpson Avenue,98557,47.0559855,-123.2763835,,,,human,true,
Wynoochee Cemetery,United States,Washington,Grays Harbor County,Alder Grove,Alder Grove,,46.9785926,-123.6237069,,,,human,true,
Forks Cemetery,United States,Washington,Clallam County,Willow Place Mobile Home Park,Willow Place Mobile Home Park,,47.9580968,-124.3693444,,,,human,true,
Sharon Cemetery,United States,WA,Grays Harbor County,Oakville,966 South Bank Road,98568,46.9284696,-123.3238961,,,,human,true,
Benn Cemetery,United States,Washington,Grays Harbor County,Oakville,Oakville,,46.8304485,-123.2245519,,,,human,true,
Oakville Pioneer Cemetary,United States,Washington,Grays Harbor County,Oakville,Oakville,,46.8322696,-123.2228972,,,,human,true,
Delphi Pioneer Cemetary,United States,Washington,Thurston County,Delphi,Delphi,,46.9668564,-123.0345073,,,,human,true,
Pe Ell Cemetery,United States,Washington,Lewis County,Pe Ell,Pe Ell,,46.5733836,-123.3013177,,,,human,true,
Forest Lawn Cemetery,United States,Washington,Lewis County,Pe Ell,Pe Ell,,46.5647312,-123.3014209,,,,human,true,
Saint Josephs Catholic Cemetery,United States,Washington,Lewis County,Pe Ell,Pe Ell,,46.5647753,-123.3031161,,,,human,true,
Sylvan Cemetery,United States,Washington,Lewis County,Doty,Doty,,46.6462739,-123.2669214,,,,human,true,
Quileute Cemetery,United States,Washington,Clallam County,La Push,La Push,,47.904951,-124.6253574,,,,human,true,
Cathlamet Pioneer Cemetery,United States,Washington,Wahkiakum County,Cathlamet,Cathlamet,,46.2025945,-123.3811693,,,,human,true,
Fern Hill Cemetery,United States,Washington,Wahkiakum County,Sleepy Hollow,Sleepy Hollow,,46.2892284,-123.4565448,,,,human,true,
Lone Fir Cemetery,United States,Washington,Pacific County,El Mar Estates Mobile Home Park,El Mar Estates Mobile Home Park,,46.3623456,-124.0176173,,,,human,true,
Forest Hill Cemetery,United States,Washington,Grays Harbor County,Cosmopolis,Cosmopolis,,46.9510428,-123.7793166,,,,human,true,
Turnow Cemetery,United States,Washington,Mason County,Deckerville,Deckerville,,47.1298094,-123.476758,,,,human,true,
Mount Solo Cemetery,United States,Washington,Cowlitz County,West Longview,West Longview,,46.1565937,-123.0179084,,,,human,true,
Bunker Hill Cemetery,United States,Washington,Cowlitz County,Bunker Hill,Bunker Hill,,46.199406,-123.1420317,,,,human,true,
Taholah Cemetery,United States,Washington,Grays Harbor County,Taholah,Taholah,,47.353566,-124.2920933,,,,human,true,
Oak Point Cemetery,United States,Washington,Cowlitz County,Oak Point,Oak Point,,46.1885147,-123.1899573,,,,human,true,
Sunset Memorial Park,United States,Washington,Grays Harbor County,Hoquiam,Hoquiam,,46.9889776,-123.890951,,,,human,true,
Odd Fellows Cemetery,United States,Washington,Pacific County,Willapa Bayview Estates Mobile Home Park,Willapa Bayview Estates Mobile Home Park,,46.6642882,-123.7539441,,,,human,true,
Vesta Cemetary,United States,Washington,Grays Harbor County,Vesta,Vesta,,46.830224,-123.590139,,,,human,true,
Satsop Cemetery,United States,Washington,Grays Harbor County,Satsop,Satsop,,47.0051934,-123.4945931,,,,human,true,
Mima Prairie Pioneer Cemetery,United States,WA,Thurston County,Olympia,15025 Mima Road Southwest,98512,46.8720333,-123.0612362,,https://www.co.thurston.wa.us/history/docs/markers/Mima-Prairie-Pioneer-Cemetery.pdf,,human,true,
Georgetown Cemetery,United States,Washington,Pacific County,Dexter by the Sea,Dexter by the Sea,,46.7219957,-124.0150376,,,,human,true,
Quillayute Cemetery,United States,Washington,Clallam County,Quillayute,Quillayute,,47.9426476,-124.5416192,,,,human,true,
Peaceful Hill Cemetery,United States,Washington,Pacific County,Naselle,Naselle,,46.367741,-123.8005302,,,,human,true,
Greenwood Cemetery,United States,Washington,Wahkiakum County,Cathlamet,Cathlamet,,46.2129716,-123.3808529,,,,human,true,
Claquato Cemetery,United States,Washington,Lewis County,Claquato,Claquato,,46.6459819,-123.0234654,,,,human,true,
Finnish Cemetery,United States,Washington,Grays Harbor County,Chehalis Village,Chehalis Village,,46.7566238,-123.1930085,,,,human,true,
John's River Cemetery,United States,Washington,Grays Harbor County,Rustemeyer Mobile Home Park,Rustemeyer Mobile Home Park,,46.8933298,-123.9796178,,,,human,true,
Fletcher Cemetery,United States,Washington,Jefferson County,Hoh,Hoh,,47.7494138,-124.4038689,,,,human,true,
Bay Center Cemetary,United States,Washington,Pacific County,Bay Center Junction,Bay Center Junction,,46.5980672,-123.9351451,,,,human,true,
Washington Cemetery,United States,Washington,Pacific County,Raymond,Raymond,,46.6995478,-123.7334843,,,,human,true,
Washington Cemetery,United States,Washington,Pacific County,Raymond,Raymond,,46.6997442,-123.7330103,,,,human,true,
St. Joseph's Catholic Cemetary,United States,Washington,Grays Harbor County,Oak Acres Mobile Home Park,Oak Acres Mobile Home Park,,47.0042208,-123.4565093,,,,human,true,
Saint John's Cemetary,United States,Washington,Grays Harbor County,Wishkah,Wishkah,,47.1208699,-123.7766496,,,,human,true,
Gig Harbor Cemetery,United States,Washington,Pierce County,Gig Harbor,Gig Harbor,,47.351764,-122.5717963,,,,human,true,
Jackson Cemetery,United States,Washington,Cowlitz County,Castle Rock,Castle Rock,,46.2692774,-122.9390035,,,,human,true,
Rosin Cemetery,United States,Washington,Cowlitz County,Silver Lake,Silver Lake,,46.3225967,-122.8613382,,,,human,true,
Tracyton Cemetery,United States,Washington,Kitsap County,Fairview,Fairview,,47.6184281,-122.6623658,,,,human,true,
Georges Cemetery,United States,Washington,Pierce County,Spring Valley Mobile Home Park,Spring Valley Mobile Home Park,,47.261489,-122.328455,,,,human,true,
Dewatto Cemetery,United States,Washington,Kitsap County,Holly,Holly,,47.4981488,-122.9932087,,,,human,true,
Peterson Cemetery,United States,Washington,Yakima County,Cliffdell,Cliffdell,,46.9215075,-121.0434143,,,,human,true,
Rainier Cemetery,United States,Washington,Pierce County,Ohop Bob,Ohop Bob,,46.8870473,-122.3287262,,,,human,true,
Ravensdale Cemetery,United States,Washington,King County,Ravensdale,Ravensdale,,47.3576013,-121.9862253,,,,human,true,
Paradise Valley Cemetery,United States,Washington,Snohomish County,Lost Lake Mobile Home Park,Lost Lake Mobile Home Park,,47.7755373,-122.0763478,,,,human,true,
Calvary Catholic Cemetery,United States,Washington,King County,Bryant,Bryant,,47.6666879,-122.2929004,,,,human,true,
Tacoma Cemetery,United States,Washington,Pierce County,Manitou,Manitou,,47.2119681,-122.4791406,,,,human,true,
Lake View Cemetery,United States,Washington,King County,Stevens,Stevens,,47.6341412,-122.3152908,,http://www.lakeviewcemeteryassociation.com/,,human,true,
Mountain View Cemetery,United States,Washington,King County,Lakeland,Lakeland,,47.3065466,-122.2591996,,,,human,true,
Gethsemane Cemetery,United States,Washington,Pierce County,Spring Valley Mobile Home Park,Spring Valley Mobile Home Park,,47.264309,-122.332948,,,,human,true,
Home Of Peace Cemetery,United States,Washington,Pierce County,Lakewood,Lakewood,,47.1778376,-122.5091075,,,,human,true,
Mountain View Memorial Park,United States,Washington,Pierce County,Monta Vista,Monta Vista,,47.1820461,-122.4922855,,https://www.mountainviewtacoma.com/,+1 253-948-9895,human,true,
Calvary Cemetery,United States,Washington,Pierce County,Manitou,Manitou,,47.1925334,-122.5049801,,,,human,true,
Woodbine Cemetery,United States,Washington,Pierce County,Puyallup,Puyallup,,47.1703709,-122.3015207,,,,human,true,
Sumner Cemetery,United States,Washington,Pierce County,Twin Flags Mobile Home Community,Twin Flags Mobile Home Community,,47.2032849,-122.2657418,,,,human,true,
Pioneer Cemetery,United States,Washington,King County,Auburn,Auburn,,47.3151577,-122.2236316,,,,human,true,
Woodinville Memorial Mead,United States,Washington,King County,Woodinville,Woodinville,,47.7549659,-122.163845,,,,human,true,
New Tacoma Cemetery,United States,Washington,Pierce County,University Place,University Place,,47.2025812,-122.561485,,,,human,true,
Vashon Cemetery,United States,Washington,King County,Vashon,Vashon,,47.4282169,-122.4809876,,,,human,true,
Marymoor Park Pet Garden,United States,Washington,King County,Campton,Campton,,47.660018,-122.114997,,https://directory.kingcounty.gov/ServiceDetail.asp?ServiceID=7308;https://kingcountyparks.org/2009/12/09/sunset-snapshot-marymoors-pet-garden/,,pet,true,
Forest Lawn Cemetery,United States,WA,King County,Seattle,6701 30th Avenue Southwest,98126,47.54154,-122.3680794,,https://www.dignitymemorial.com/forest-lawn-funeral-home-seattle/en-us/index.page,,human,true,
Restlawn Memorial Gardens,United States,Washington,Snohomish County,Firdale,Firdale,,47.7827187,-122.3737533,,,,human,true,
Buena Vista Cemetery,United States,Washington,Kitsap County,Port Gamble Tribal Community,Port Gamble Tribal Community,,47.8558118,-122.587012,,,,human,true,
Mount Pleasant Cemetery,United States,WA,King County,Seattle,520 West Raye Street,98119,47.6452695,-122.3654726,,,,human,true,
Machzikay Hadath Cemetery,United States,Washington,King County,Ronald,Ronald,,47.7514711,-122.3434846,,,,human,true,
Crown Hill Cemetery,United States,WA,King County,Seattle,8712 12th Avenue Northwest,98117,47.6933338,-122.3700144,,https://crownhillcemetery.us/,,human,true,
Holyrood Cemetery,United States,WA,King County,Shoreline,205 NE 205th St,98155,47.774009,-122.3271621,,,,human,true,
Floral Hills Cemetery,United States,Washington,Snohomish County,Thunderbird Mobile Home Park,Thunderbird Mobile Home Park,,47.8267898,-122.2416797,,,,human,true,
Riverton Crest Cemetery,United States,Washington,King County,Riverton,Riverton,,47.4792573,-122.2903342,,,,human,true,
Washington Memorial Park,United States,Washington,King County,SeaTac,SeaTac,,47.454931,-122.2960489,,,,human,true,
Novelty Hills Cemetery,United States,Washington,King County,Novelty,Novelty,,47.7017898,-121.965209,,,,human,true,
Cypress Lawn Memorial Park,United States,Washington,Snohomish County,Mobile Country Club,Mobile Country Club,,47.917952,-122.2115046,,,,human,true,
Carnation Cemetery,United States,Washington,King County,Carnation,Carnation,,47.65243,-121.9111309,,,,human,true,
Evergreen Cemetery,United States,Washington,Snohomish County,Lowell,Lowell,,47.9600297,-122.2033427,,,,human,true,
Greenwood Cemetery,United States,Washington,King County,Hi - Land Mobile Manor,Hi - Land Mobile Manor,,47.4867144,-122.1716356,,,,human,true,
Acacia Memorial Park,United States,Washington,King County,Briarcrest,Briarcrest,,47.7387918,-122.2952989,,,,human,true,
Grand Army of the Republic Cemetery,United States,Washington,Snohomish County,Penny Lynn Mobile Home Park,Penny Lynn Mobile Home Park,,47.9205898,-122.1149061,,,,human,true,
Grand Army of the Republic Cemetery,United States,Washington,King County,Broadway,Broadway,,47.6364575,-122.3163196,,https://fgar.org/,,human,true,
Woodlawn Cemetery,United States,Washington,Snohomish County,Penny Lynn Mobile Home Park,Penny Lynn Mobile Home Park,,47.9231673,-122.1294594,,,,human,true,
Hillcrest Burial Park,United States,WA,King County,Walnut Grove Mobile Home Park,1005 Reiten Road,98030,47.3697088,-122.2170563,,,,human,true,
Fall City Cemetery,United States,Washington,King County,Fall City,Fall City,,47.5610838,-121.8915829,,,,human,true,
Cedar Lawns Memorial Park,United States,Washington,King County,Campton,Campton,,47.6699507,-122.0987276,,,,human,true,
Saar's Pioneer Cemetery,United States,Washington,King County,Willo Vista Mobile Estates,Willo Vista Mobile Estates,,47.4128446,-122.2193467,,,,human,true,
Comet Lodge Cemetery,United States,Washington,King County,Mid-Beacon Hill,Mid-Beacon Hill,,47.5469959,-122.305227,,,,human,true,
Sumner Pioneer Cemetery,United States,Washington,Pierce County,Twin Flags Mobile Home Community,Twin Flags Mobile Home Community,,47.2048716,-122.262008,,,,human,true,
Black Diamond Cemetery,United States,WA,King County,Black Diamond,24431 Morgan Street,98010,47.3108613,-122.0166688,,,,human,true,
Sunset Hills Memorial Park,United States,Washington,King County,Robinswood,Robinswood,,47.597733,-122.1538619,,,,human,true,
Winlock Cemetery,United States,Washington,Lewis County,Winlock,Winlock,,46.4879109,-122.9317571,,,,human,true,
Winlock Cemetery,United States,Washington,Lewis County,Winlock,Winlock,,46.4892264,-122.9326518,,,,human,true,
Fort Lawton Post Cemetery,United States,WA,King County,Seattle,Discovery Park Boulevard,98199,47.6599501,-122.4057285,,https://www.cem.va.gov/cems/nchp/FtLawtonPost.asp,+1-425-413-9614,human,true,
Bothell Pioneer Cemetery,United States,Washington,King County,Lazy Wheels Mobile Park,Lazy Wheels Mobile Park,,47.758767,-122.1950789,,https://www.bothellwa.gov/1667/Pioneer-Cemetery,,human,true,
Tahoma National Cemetery,United States,WA,King County,Kent,18600 SE 240th Street,98042,47.3923938,-122.0961722,,https://www.cem.va.gov/CEM/cems/nchp/tahoma.asp,+1-425-413-9614,human,true,
Edmonds Cemetery,United States,Washington,Snohomish County,Esperance,Esperance,,47.7932139,-122.3681019,,,,human,true,
Olympic Memorial Garden Cemetery,United States,Washington,Thurston County,Tumwater,Tumwater,,46.9968789,-122.923488,,,,human,true,
Hillside Cemetery,United States,Washington,King County,Issaquah,Issaquah,,47.5294298,-122.0459738,,,,human,true,
Yelm Cemetery,United States,Washington,Thurston County,Four Corners,Four Corners,,46.9203202,-122.5573658,,,,human,true,
Forest Cemetary,United States,WA,Thurston County,Tenino,18010 Northcraft Road Southeast,98589,46.8254431,-122.84889,,,,human,true,
Mount Tabor Cemetery,United States,Washington,Thurston County,Olympia,Olympia,,47.0439828,-122.8663873,,,,human,true,
Mountain View Cemetery,United States,Washington,Lewis County,Fords Prairie,Fords Prairie,,46.7286927,-122.9881115,,,,human,true,
Greenwood Memorial Park,United States,Washington,Lewis County,Fords Prairie,Fords Prairie,,46.7365813,-122.983942,,,,human,true,
Greenwood Cemetary,United States,Washington,Lewis County,Chehalis,Chehalis,,46.649883,-122.9398821,,,,human,true,
Fern Hill Cemetary,United States,Washington,Lewis County,Newaukum,Newaukum,,46.6357427,-122.9414319,,,,human,true,
Toledo Cemetary,United States,Washington,Lewis County,Toledo,Toledo,,46.4425716,-122.850083,,,,human,true,
Oddfellows Cemetary,United States,Washington,Cowlitz County,Castle Rock,Castle Rock,,46.2757178,-122.8916892,,,,human,true,
Whittle and Hubbard Cemetery,United States,Washington,Cowlitz County,Castle Rock,Castle Rock,,46.2739691,-122.926693,,,,human,true,
Anderson Island Cemetery,United States,Washington,Pierce County,Johnson Landing,Johnson Landing,,47.1587193,-122.7016182,,,,human,true,
Fox Island Cemetery,United States,Washington,Pierce County,Fox Island,Fox Island,,47.250158,-122.6362768,,,,human,true,
Little Falls Cemetary,United States,Washington,Lewis County,Vader,Vader,,46.4115123,-122.9896631,,,,human,true,
Carbonado Cemetary,United States,Washington,Pierce County,Carbonado,Carbonado,,47.082811,-122.0599455,,,,human,true,
Stiltner Memorial Cemetery,United States,Washington,Lewis County,Morton,Morton,,46.5617406,-122.2693187,,,,human,true,
Morton Cemetary,United States,Washington,Lewis County,Morton,Morton,,46.5538071,-122.2853315,,,,human,true,
Ross Cemetery,United States,Washington,Pierce County,Mock City,Mock City,,47.0296503,-122.6249186,,,,human,true,
Saint Francis Xavier Cemetery,United States,Washington,Lewis County,Cowlitz,Cowlitz,,46.4666191,-122.8222882,,,,human,true,
Buckley Cemetery,United States,Washington,Pierce County,Buckley,Buckley,,47.1694849,-122.0240271,,,,human,true,
St. Patrick Cemetery,United States,WA,King County,Kent,4255 South 204th Street,98032,47.4185365,-122.2800124,,https://mycatholiccemetery.org/,+1-253-838-2240,human,true,
Hillcrest Cemetery,United States,Washington,Pierce County,Meridian,Meridian,,47.2136317,-122.694813,,,,human,true,
Hansville Cemetery,United States,Washington,Kitsap County,Hansville,Hansville,,47.9079191,-122.5448756,,,,human,true,
Hills of Eternity Cemetery,United States,WA,King County,Seattle,520 West Raye Street,98119,47.6441147,-122.3642138,,http://www.tdhs-nw.org/index.php/directions,,human,true,
Alder Cemetery,United States,Washington,Pierce County,Alder,Alder,,46.7922734,-122.2891317,,https://www.interment.net/data/us/wa/pierce/alder/index.htm,,human,true,
Cowlitz View Memorial Gardens,United States,Washington,Cowlitz County,Kelso,Kelso,,46.1540256,-122.896532,,,,human,true,
Quilcene Cemetery,United States,WA,Jefferson,Quilcene,481 Cemetery Road,98376,47.8305552,-122.8940759,,,,human,true,
Eatonville Cemetary,United States,Washington,Pierce County,Eatonville,Eatonville,,46.8706785,-122.2727302,,,,human,true,
Redmond Pioneer Cemetery,United States,WA,King County,Redmond,7175 180th Avenue Northeast,98052,47.6697731,-122.1007058,,,,human,true,
Calvary Catholic Cemetery,United States,Washington,Thurston County,Tumwater,Tumwater,,47.0124723,-122.893543,,,,human,true,
Odd Fellows Memorial Park,United States,Washington,Thurston County,Tumwater,Tumwater,,47.013453,-122.8953658,,,,human,true,
Masonic Memorial Park,United States,Washington,Thurston County,Tumwater,Tumwater,,47.0152445,-122.8954678,,,,human,true,
Kirkland Cemetery,United States,Washington,King County,Rose Hill,Rose Hill,,47.6763099,-122.1793372,,https://www.kirklandwa.gov/Government/Departments/Parks-and-Community-Services/Find-a-Park/Kirkland-Cemetery,,human,true,
Suise Creek Cemetery,United States,Washington,King County,Lake Meridian Estates Mobile Home Park,Lake Meridian Estates Mobile Home Park,,47.3728185,-122.1632299,,,,human,true,
Klickitat Cemetery,United States,Washington,Lewis County,Mossyrock,Mossyrock,,46.5322685,-122.5140824,,,,human,true,
Mount Olivet Cemetery,United States,Washington,King County,Highlands Park,Highlands Park,,47.482735,-122.1879736,,,,human,true,
Washington Soldiers Home Cemetery,United States,WA,Pierce County,Orting,19327 Orting Kapowsin Highway East,98360,47.0807745,-122.2263402,,,,human,true,
Orting Cemetery,United States,Washington,Pierce County,Deer Run Mobile Home Park,Deer Run Mobile Home Park,,47.0790066,-122.2318496,,,,human,true,
Lone Hill Cemetery,United States,Washington,Lewis County,Cowlitz,Cowlitz,,46.4559632,-122.7703915,,,,human,true,
Preston Cemetery,United States,Washington,King County,Preston,Preston,,47.5266029,-121.9308146,,,,human,true,
Kalama Cemetery,United States,Washington,Cowlitz County,Kalama,Kalama,,46.0238576,-122.8366937,,,,human,true,
Mount Pleasant Cemetery,United States,Washington,Cowlitz County,Carrolls,Carrolls,,46.0535737,-122.8320846,,,,human,true,
Meridian Cemetery,United States,Washington,King County,Soos Creek Mobile Home Estates,Soos Creek Mobile Home Estates,,47.356575,-122.1342973,,,,human,true,
Evergreen Cemetery,United States,Washington,Lewis County,Packwood,Packwood,,46.628107,-121.6758184,,,,human,true,
Franklin Cemetery,United States,Washington,King County,Franklin,Franklin,,47.2932641,-121.9680171,,https://www.findagrave.com/cemetery/2153581/franklin-cemetery,,human,true,
Herzl Memorial Park,United States,Washington,King County,Richmond Highlands,Richmond Highlands,,47.7510429,-122.3549893,,,,human,true,
White Lake Cemetery,United States,WA,King County,Auburn,1305 Dogwood Street Southeast,98092,47.2965272,-122.1930635,,,,human,true,
Hillside Cemetery,United States,Washington,King County,Issaquah,Issaquah,,47.5290478,-122.0519225,,,,human,true,
Maury Island Cemetery,United States,Washington,King County,Mileta,Mileta,,47.3741314,-122.4272802,,,,human,true,
Hillgrove Cemetery,United States,Washington,King County,North Hill,North Hill,,47.4224424,-122.3127802,,,,human,true,
Duvall Pioneer Cemetery,United States,Washington,King County,Duvall,Duvall,,47.7477814,-121.9853304,,,,human,true,
Rainier Cemetery,United States,WA,Thurston County,Rainier,12601 State Route 507,98576,46.8981653,-122.677112,,,,human,true,
American Moslem Foundation House of Mercy,United States,Washington,King County,Cascade Mobile Villa,Cascade Mobile Villa,,47.3738248,-122.1419714,,http://americanmoslemfdtn.org/,,human,true,
Paradise Valley Cemetery,United States,Washington,Snohomish County,Lost Lake Mobile Home Park,Lost Lake Mobile Home Park,,47.7756372,-122.0763641,,,,human,true,
Maple Valley Hobart Cemetery,United States,Washington,King County,Atkinson,Atkinson,,47.4147776,-122.0056925,,,,human,true,
Masonic Cemetery,United States,WA,Pierce County,Lakewood,11902 Masonic Road Southwest,98498,47.1497595,-122.5750627,,,,human,true,
Newcastle Historic Cemetery,United States,Washington,King County,Newport Hills,Newport Hills,,47.5318782,-122.1682615,,,,human,true,
Shoestring Cemetery,United States,Washington,Lewis County,Alpha,Alpha,,46.6109905,-122.6038173,,,,human,true,
Western State Hospital Memorial Cemetery,United States,Washington,Pierce County,Interlaken,Interlaken,,47.1731634,-122.5578971,,,,human,true,
Fort Steilacoom Pioneer Cemetery,United States,Washington,Pierce County,Lake City,Lake City,,47.1787178,-122.5682495,,,,human,true,
First Lutheran Church of Poulsbo Cemetery,United States,Washington,Kitsap County,Seabird Mobile Home Park,Seabird Mobile Home Park,,47.734448,-122.6428393,,,,human,true,
Machias Community Cemetery,United States,Washington,Snohomish County,Machias,Machias,,47.9847877,-122.0485789,,,,human,true,
Fir Lane Memorial Park and Funeral,United States,Washington,Pierce County,Fox Chase Mobile Home Park,Fox Chase Mobile Home Park,,47.0957932,-122.4183468,,,,human,true,
Forest Lawn Cemetery,United States,WA,Kitsap County,Bremerton,5409 Kitsap Way,98312,47.5693544,-122.6887257,,,+1-360-373-3132,human,true,
Woodlawn Memorial Park,United States,Washington,Kitsap County,Carrington Mobile Home Park,Carrington Mobile Home Park,,47.5726253,-122.6894137,,,,human,true,
Napavine Cemetery,United States,Washington,Lewis County,Napavine,Napavine,,46.582358,-122.9037507,,,,human,true,
Pet Memorial at New Tacoma Cemetery,United States,Washington,Pierce County,University Place,University Place,,47.1995042,-122.5651864,,,,pet,true,
Enumclaw Evergreen Memorial Park,United States,Washington,King County,Circle H Mobile Home Park,Circle H Mobile Home Park,,47.2269301,-122.0242198,,,,human,true,
Tribal Cemetery,United States,Washington,Pierce County,Fife,Fife,,47.237571,-122.3986441,,,,human,true,
Pet Cemetery,United States,Washington,King County,Midway,Midway,,47.3895593,-122.2851287,,,,pet,true,
Silver Lake Cemetery,United States,Washington,Cowlitz County,Toutle,Toutle,,46.3199084,-122.7718883,,,,human,true,
Camp Lewis Post Cemetery,United States,Washington,Pierce County,Hillside,Hillside,,47.0617712,-122.5841207,,https://armycemeteries.army.mil/Cemeteries/Camp-Lewis-Post-Cemetery,,human,true,
Woodlawn Cemetery,United States,Washington,Thurston County,Lacey,Lacey,,47.0094081,-122.8059603,,,,human,true,
Krain Cemetery,United States,Washington,King County,Krain,Krain,,47.2431304,-122.0018981,,,,human,true,
Salkum Cemetery,United States,Washington,Lewis County,Salkum,Salkum,,46.5278528,-122.6185986,,,,human,true,
Alpha Cemetery,United States,Washington,Lewis County,Lacamas,Lacamas,,46.6166726,-122.6668771,,,,human,true,
Oakwood Hill Cemetery,United States,Washington,Pierce County,Manitou,Manitou,,47.2093144,-122.4775395,,,,human,true,
Independent Order of Odd Fellows Cemetery,United States,Washington,Snohomish County,Wagner,Wagner,,47.8640065,-121.9409211,,,,human,true,
Monroe Memorial Park,United States,Washington,Snohomish County,Wagner,Wagner,,47.8623717,-121.9415153,,,,human,true,
Fraola Cemetery,United States,Washington,Kitsap County,Banner,Banner,,47.468122,-122.5653475,,,,human,true,
Trinity Cemetery,United States,WA,Pierce County,Tacoma,13614 8th Avenue East,98445,47.1328605,-122.4224071,,,,human,true,
Mount Carmel Cemetery,United States,Washington,Snohomish County,Fobes Hill,Fobes Hill,,47.9604853,-122.1247074,,,,human,true,
Rose Valley Cemetery,United States,Washington,Cowlitz County,Rose Valley,Rose Valley,,46.0965196,-122.8471899,,,,human,true,
Pioneer Cemetery,United States,Washington,Snohomish County,Mukilteo,Mukilteo,,47.943713,-122.3074066,,,,human,true,
The Memorial Garden,United States,Washington,King County,Vermontville (historical),Vermontville (historical),,47.4671763,-122.4597649,,,,human,true,
Leschi Cemetery,United States,WA,Thurston County,Olympia,11620 Leschi Cemetery Road Southeast,98513,47.0310161,-122.6895294,,,,human,true,
Rosedale Cemetary,United States,Washington,Pierce County,Rosedale,Rosedale,,47.3300017,-122.6434231,,,,human,true,
Lot Owned: PIONEER GREENWOOD CEMETERY,United States,Washington,Lewis County,Chehalis,Chehalis,,46.6509063,-122.9376647,,,,human,true,
Kalama Pet Cemetery,United States,Washington,Cowlitz County,Kalama,Kalama,,46.0210172,-122.835373,,,,pet,true,
Washington Lawn Cemetery,United States,Washington,Lewis County,Centralia,Centralia,,46.7211067,-122.961585,,,,human,true,
Henry Smith Cemetery,United States,Washington,Pierce County,Jack Travis Estates Mobile Home Park,Jack Travis Estates Mobile Home Park,,47.0006108,-122.4536471,,,,human,true,
Jeschke Cemetery,United States,Washington,Pierce County,Jack Travis Estates Mobile Home Park,Jack Travis Estates Mobile Home Park,,47.0026208,-122.4600339,,,,human,true,
Seabeck Cemetery,United States,Washington,Kitsap County,Seabeck,Seabeck,,47.6341171,-122.8319619,,,,human,true,
Island Center Cemetery,United States,Washington,Kitsap County,Fletcher Bay,Fletcher Bay,,47.6459207,-122.5644246,,https://www.findagrave.com/cemetery/564981/island-center-cemetery,,human,true,
Hillcrest Cemetery,United States,Washington,Kitsap County,West Blakely,5535 Old Mill Road Northeast,,47.6129385,-122.533609,,https://hillcrestcemetery.org/,,human,true,
Kane Cemetery,United States,Washington,Kitsap County,Port Madison,Port Madison,,47.7051512,-122.5163837,,,,human,true,
Rosin Cemetery,United States,Washington,Cowlitz County,Silver Lake,Silver Lake,,46.3225926,-122.8611964,,,,human,true,
Mt. Si Memorial Cemetery,United States,Washington,King County,Mount Si Mobile Home Park,Mount Si Mobile Home Park,,47.4862397,-121.7666195,,,,human,true,
Stockport Cemetery,United States,Washington,Cowlitz County,Pleasant Hill,Pleasant Hill,,46.2120189,-122.8988787,,,,human,true,
Seabold Cemetery,United States,Washington,Kitsap County,Seabold,Seabold,,47.7022417,-122.556928,,,,human,true,
New Sequalitchew Cemetery,United States,Washington,Pierce County,DuPont,DuPont,,47.1048968,-122.6446224,,,,human,true,
Catlin Cemetery,United States,Washington,Cowlitz County,West Kelso,West Kelso,,46.1511254,-122.9182118,,,,human,true,
UNION / CALVARY CEMETERY,United States,WA,Thurston County,Tumwater,5925 Littlerock Road Southwest,98512,46.9950221,-122.9226666,,,,human,true,
Breidablik Evergreen Cemetery,United States,Washington,Kitsap County,Breidablick,Breidablick,,47.8024492,-122.652168,,,,human,true,
Pederson Family Cemetery,United States,Washington,Mason County,Victor,14411 East Victor Road,98528,47.3895264,-122.8006319,,,,human,true,
Dunn Cemetery,United States,Washington,Lewis County,Mossyrock,Mossyrock,,46.5410607,-122.4549852,,,,human,true,
Buckingham Cemetery,United States,Washington,Douglas County,Mansfield,Mansfield,,47.8668104,-119.6297702,,,,human,true,
Jameson Cemetery,United States,Washington,Douglas County,Jameson (historical),Jameson (historical),,47.6862714,-119.6640902,,,,human,true,
Slack Cemetery,United States,Washington,Douglas County,Alstown,Alstown,,47.5281877,-119.9192224,,,,human,true,
Brays Landing Cemetery,United States,Washington,Chelan County,Winesap,Winesap,,47.736243,-120.1692435,,,,human,true,
Site of the 1945 Lake Chelan School Bus Accident,United States,Washington,Chelan County,Sunnybank,Sunnybank,,47.8615263,-120.1686371,,,,human,true,
Blewett Cemetary,United States,Washington,Chelan County,Blewett (historical),Blewett (historical),,47.4211248,-120.6603503,,https://www.wags-web.org/?page_id=2525,,human,true,
Wenatchee Cemetery,United States,Washington,Chelan County,West Wenatchee,West Wenatchee,,47.4509738,-120.3475454,,,,human,true,
Evergreen Memorial Park,United States,Washington,Douglas County,Broadway,Broadway,,47.4218266,-120.2663818,,,,human,true,
Calvary Cemetery,United States,Washington,Yakima County,South Broadway,South Broadway,,46.5778612,-120.5385227,,,,human,true,
Tahoma Cemetery,United States,Washington,Yakima County,South Broadway,South Broadway,,46.5753129,-120.5369896,,,,human,true,
Sunnyslope Cemetery,United States,Washington,Chelan County,Sunnyslope,Sunnyslope,,47.4790911,-120.3463899,,,,human,true,
Laurel Hill Memorial Cemetery,United States,Washington,Kittitas County,South Cle Elum,South Cle Elum,,47.1963275,-120.9608132,,,,human,true,
Cashmere Cemetery,United States,Washington,Chelan County,Hay Canyon Mobile Home Park,Hay Canyon Mobile Home Park,,47.5189063,-120.48738,,,,human,true,
Peshastin Cemetery,United States,Washington,Chelan County,Peshastin,Peshastin,,47.5830579,-120.6084127,,,,human,true,
Meninik Cemetery,United States,Washington,Yakima County,Ashue,Ashue,,46.197854,-120.4759611,,https://www.findagrave.com/cemetery/76921/meninick-cemetery,,human,true,
Mountain View Cemetery,United States,WA,Chelan County,Leavenworth,12874 Cemetery Road,98826,47.5542696,-120.6786241,,,,human,true,
Sunset Memorial Gardens,United States,Washington,Benton County,Richland,Richland,,46.2805926,-119.309544,,,,human,true,
Riverview Heights Cemetery,United States,Washington,Benton County,South Highlands,South Highlands,,46.1972136,-119.1392928,,,,human,true,
Terrace Heights Memorial Park,United States,Washington,Yakima County,Terrace Heights,Terrace Heights,,46.6090375,-120.4595613,,,,human,true,
Farmer Cemetery,United States,Washington,Douglas County,Farmer,Farmer,,47.6269246,-119.8138577,,,,human,true,
Valley View Memorial Park,United States,Washington,Grant County,Soap Lake,Soap Lake,,47.3860321,-119.4698634,,,,human,true,
City View Cemetery,United States,Washington,Franklin County,Pasco,Pasco,,46.2483119,-119.0875726,,,,human,true,
Columbia Memorial Gardens,United States,Washington,Franklin County,Pasco West,Pasco West,,46.2284342,-119.1225289,,,,human,true,
Resthaven Cemetery,United States,Washington,Benton County,Richland,Richland,,46.2865302,-119.2809004,,,,human,true,
Bess Hampton Cemetery,United States,Washington,Adams County,Othello,Othello,,46.8184411,-119.1370953,,,,human,true,
Hartline Cemetary,United States,Washington,Grant County,Hartline,Hartline,,47.6842203,-119.0954251,,,,human,true,
Orondo Community Cemetery,United States,Washington,Chelan County,Entiat (historical),Entiat (historical),,47.6485396,-120.2150121,,,,human,true,
Ephrata Cemetery,United States,Washington,Grant County,Ephrata,Ephrata,,47.3179923,-119.5590757,,,,human,true,
Quincy Valley Cemetery,United States,Washington,Grant County,Quincy,Quincy,,47.2349504,-119.8636847,,,,human,true,
Wilson Creek Cemetery,United States,Washington,Grant County,Wilson Creek,Wilson Creek,,47.4310031,-119.1301864,,,,human,true,
Mabton Cemetery,United States,Washington,Yakima County,Mabton,Mabton,,46.2283981,-119.9877675,,,,human,true,
Grandview Cemetery,United States,Washington,Yakima County,Grandview,Grandview,,46.2648518,-119.8915486,,,,human,true,
Sunnyside Memorial Gardens,United States,Washington,Yakima County,Sunnyside,Sunnyside,,46.3445847,-120.0108613,,,,human,true,
Sunnyside Cemetery,United States,Washington,Yakima County,Sunnyside,Sunnyside,,46.3464466,-120.0108715,,,,human,true,
Lower Valley Memorial Gardens,United States,Washington,Yakima County,Sunnyside,Sunnyside,,46.3447868,-120.013839,,,,human,true,
Independent Order of Odd Fellows Cemetery,United States,Washington,Kittitas County,Ellensburg,Ellensburg,,47.0112515,-120.5208913,,,,human,true,
Pleasant Valley Cemetery,United States,Washington,Grant County,Corfu,Corfu,,46.926962,-119.4518461,,,,human,true,
Eltopia Cemetery,United States,Washington,Franklin County,Eltopia,Eltopia,,46.4604748,-119.0234871,,,,human,true,
Evergreen Cemetery,United States,Washington,Benton County,Benton City,Benton City,,46.2861813,-119.4949999,,,,human,true,
Adams Cemetery,United States,Washington,Adams County,Novara,Novara,,46.8704281,-119.1335884,,,,human,true,
Waterville Cemetery,United States,Washington,Douglas County,Waterville,Waterville,,47.640947,-120.0675332,,,,human,true,
Welsh Cemetery,United States,Washington,Grant County,Hanson,Hanson,,47.714065,-119.0456154,,,,human,true,
Elmwood Cemetery,United States,Washington,Yakima County,Toppenish,Toppenish,,46.3665029,-120.3346937,,,,human,true,
Holy Rosary Cemetery,United States,Washington,Yakima County,Artesian,Artesian,,46.5527264,-120.3600205,,,,human,true,
Outlook Cemetery,United States,Washington,Yakima County,Outlook,Outlook,,46.3207886,-120.0825854,,,,human,true,
Zillah Cemetery,United States,Washington,Yakima County,Zillah,Zillah,,46.404207,-120.2725351,,,,human,true,
Winnier Cemetery,United States,Washington,Yakima County,Toppenish,Toppenish,,46.3589886,-120.3192054,,,,human,true,
Toppenish Creek Cemetery,United States,Washington,Yakima County,Alfalfa,Alfalfa,,46.310499,-120.2769487,,,,human,true,
Saint Marys Cemetery,United States,Washington,Yakima County,White Swan,White Swan,,46.3760698,-120.7404402,,,,human,true,
Naches Cemetery,United States,Washington,Yakima County,Naches,Naches,,46.7298746,-120.6907059,,,,human,true,
Reservation Memorial Park,United States,Washington,Yakima County,Harrah,Harrah,,46.4490993,-120.5374251,,,,human,true,
1910 Indian Shaker Church Cemetery,United States,Washington,Yakima County,Rupple,Rupple,,46.388994,-120.6621794,,,,human,true,
Colwash Cemetery,United States,Washington,Yakima County,White Swan,White Swan,,46.3211211,-120.7889873,,https://www.findagrave.com/cemetery/76745/colwash-cemetery,,human,true,
Riverview Cemetery,United States,Washington,Chelan County,Chelan,Chelan,,47.833588,-119.9961921,,,,human,true,
Holy Cross Cemetery,United States,Washington,Kittitas County,Ellensburg,Ellensburg,,47.0098452,-120.5676239,,,,human,true,
Hamilton Memorial Cemetery,United States,Washington,Douglas County,Broadway,Broadway,,47.4331378,-120.2496094,,http://www.hamiltoncemeterywa.com/,,human,true,
Valley View Cemetery,United States,Washington,Douglas County,Patterson (historical),Patterson (historical),,47.4730578,-120.2996036,,,,human,true,
Guardian Angels Cemetery,United States,Washington,Grant County,Moses Lake,Moses Lake,,47.1249651,-119.234675,,,,human,true,
Pioneer Memorial Services,United States,Washington,Grant County,Wheeler,Wheeler,,47.1153255,-119.182873,,,,human,true,
Swauk Prairie Cemetery,United States,Washington,Kittitas County,Lauderdale Junction,Lauderdale Junction,,47.2018736,-120.7426599,,,,human,true,
Saint Johns Cemetery,United States,Washington,Grant County,Hanson,Hanson,,47.7862028,-119.040476,,,,human,true,
Entiat Cemetery,United States,Washington,Chelan County,Farris,Farris,,47.6753741,-120.3061755,,,,human,true,
Chelan Fraternal Cemetery,United States,Washington,Chelan County,Chelan,Chelan,,47.8498123,-120.0091052,,,,human,true,
Douglas Lutheran Cemetery,United States,Washington,Douglas County,Okanogan City (historical),Okanogan City (historical),,47.6188502,-119.9633847,,,,human,true,
Leavenworth Cemetery,United States,Washington,Chelan County,Leavenworth,Leavenworth,,47.6091386,-120.6457817,,,,human,true,
Black Rock Cemetery,United States,Washington,Yakima County,Blackrock (historical),Blackrock (historical),,46.5111155,-119.9986457,,,,human,true,
Wenas Cemetery,United States,Washington,Yakima County,Naches,Naches,,46.7742308,-120.6261257,,,,human,true,
Sloutier Cemetery,United States,Washington,Yakima County,Wiley City,Wiley City,,46.5230135,-120.6734922,,,,human,true,
Smina Cemetery,United States,Washington,Yakima County,Ashue,Ashue,,46.2369286,-120.4290726,,,,human,true,
West Hills Memorial Gardens,United States,Washington,Yakima County,Harwood,Harwood,,46.581193,-120.6665499,,,,human,true,
Highland Cemetery,United States,Washington,Douglas County,Baird (historical),Baird (historical),,47.6119777,-119.5063511,,,,human,true,
Independent Order of Odd Fellows Cemetery,United States,Washington,Klickitat County,Bickleton,Bickleton,,46.0129792,-120.304716,,https://www.findagrave.com/cemetery/76866/ioof-cemetery,,human,true,
Onepennee Cemetery,United States,Washington,Klickitat County,Cleveland,Cleveland,,46.054989,-120.3889822,,,,human,true,
Holland Cemetery,United States,Washington,Yakima County,Moxee City,Moxee City,,46.5763614,-120.3873259,,,,human,true,
Emeunot Cemetery,United States,Washington,Yakima County,Wiley City,Wiley City,,46.5244152,-120.6626125,,,,human,true,
Evangelical Emanuel Cemetery,United States,Washington,Douglas County,Farmer,Farmer,,47.5762529,-119.8131133,,,,human,true,
Sampson Cemetery,United States,Washington,Klickitat County,Cleveland,Cleveland,,46.1275955,-120.5324054,,,,human,true,
Danish Cemetery,United States,Washington,Douglas County,Saint Andrews,Saint Andrews,,47.6854932,-119.4377824,,,,human,true,
Schultz Memorial Cemetery,United States,Washington,Grant County,Ruff,Ruff,,47.2101507,-119.0007554,,,,human,true,
Stemilt Hill Cemetery,United States,Washington,Chelan County,Wenatchee Heights,Wenatchee Heights,,47.3331373,-120.2611079,,,,human,true,
Beaver Cemetery,United States,Washington,Klickitat County,Bickleton,Bickleton,,46.0995688,-120.2885328,,https://www.findagrave.com/cemetery/76708/beaver-cemetery,,human,true,
Wah-Lal-La-Kite Cemetery,United States,Washington,Yakima County,Tietonview Grange,Tietonview Grange,,46.523976,-120.7442918,,,,human,true,
South Side Cemetery,United States,Washington,Chelan County,Wagnersburg,Wagnersburg,,47.5064249,-120.1950646,,,,human,true,
Mold Cemetery,United States,Washington,Douglas County,Mold,Mold,,47.7432726,-119.3188418,,,,human,true,
Saint Andrews Cemetery,United States,Washington,Douglas County,Saint Andrews,Saint Andrews,,47.6785324,-119.4156012,,,,human,true,
Toweatmy Cemetery,United States,Washington,Yakima County,Venner,Venner,,46.1792932,-120.5068184,,https://www.findagrave.com/cemetery/77086/toweatmy-cemetery,,human,true,
Glade Cemetery,United States,Washington,Klickitat County,Bluelight,Bluelight,,46.0779367,-120.0932265,,,,human,true,
Saluskin Cemetery,United States,Washington,Yakima County,Wiley City,Wiley City,,46.5262366,-120.7055271,,,,human,true,
Badger Mountain Cemetery,United States,Washington,Douglas County,Waterville,Waterville,,47.608947,-120.0478394,,,,human,true,
McCoy Cemetery,United States,Washington,Yakima County,Zillah,Zillah,,46.3834885,-120.2769745,,,,human,true,
Yemowat Cemetery,United States,Washington,Yakima County,Ahtanum,Ahtanum,,46.5472417,-120.574585,,,,human,true,
Yesmowit Cemetery,United States,Washington,Yakima County,White Swan,White Swan,,46.4008907,-120.8168878,,https://www.findagrave.com/cemetery/77130/yesmowit-cemetery,,human,true,
Fletcher Cemetery,United States,Washington,Douglas County,Lamoine,Lamoine,,47.7430454,-119.9431086,,,,human,true,
Pioneer Cemetery,United States,Washington,Yakima County,Union Gap,Union Gap,,46.5575407,-120.471432,,,,human,true,
Thorp Cemetery,United States,Washington,Kittitas County,Thorp,Thorp,,47.0501477,-120.6724133,,https://www.findagrave.com/cemetery/77084/thorp-cemetery,,human,true,
Country View Cemetery,United States,Washington,Franklin County,Basin City,Basin City,,46.5768387,-119.1483451,,,,human,true,
Horse Heaven Cemetery,United States,Washington,Benton County,Horse Heaven,Horse Heaven,,46.1574216,-119.4756146,,,,human,true,
Royal Memorial Gardens,United States,Washington,Grant County,Royal City,Royal City,,46.9134169,-119.6188457,,,,human,true,
Mansfield Cemetery,United States,Washington,Douglas County,Mansfield,Mansfield,,47.8087934,-119.6512228,,,,human,true,
Toppenish Creek Cemetery,United States,Washington,Yakima County,White Swan,White Swan,,46.3256539,-120.7206547,,https://www.findagrave.com/cemetery/2198457/toppenish-creek-cemetery,,human,true,
Coulee City Cemetery,United States,Washington,Grant County,Banks Lake South,Banks Lake South,,47.6263395,-119.2748799,,,,human,true,
St. Andrews Lutheran Church Cemetery,United States,Washington,Douglas County,Saint Andrews,Saint Andrews,,47.6854582,-119.431968,,,,human,true,
St. Hubert Catholic Cemetery,United States,Washington,Douglas County,Saint Hubert (historical),Saint Hubert (historical),,47.5989973,-119.747299,,,,human,true,
Autrey Cemetery,United States,WA,Asotin County,Mountain View,Mountain View,,46.0518164,-117.3373902,,,,human,true,
Bundy Hollow Cemetery,United States,Washington,Columbia County,Dumas,Dumas,,46.2295836,-118.0388297,,,,human,true,
Mount Olivet Cemetery,United States,Washington,Whitman County,Parvin,Parvin,,46.8737777,-117.2285092,,,,human,true,
Moys Cemetery,United States,Washington,Whitman County,Almota,Almota,,46.729945,-117.414429,,,,human,true,
Pioneer Memorial Park,United States,Washington,Columbia County,Mountain Top,Mountain Top,,46.2879437,-117.8074036,,,,human,true,
Rockdale Cemetery,United States,Washington,Lincoln County,Waukon,Waukon,,47.473215,-117.8774478,,,,human,true,
Williams Valley Hillside Cemetery,United States,Washington,Spokane County,Hazard,Hazard,,47.9210025,-117.5846723,,,,human,true,
Old Bones Cemetery,United States,Washington,Franklin County,Joso,Joso,,46.6040337,-118.2152423,,,,human,true,
Lake View Cemetery,United States,Washington,Lincoln County,Sprague,Sprague,,47.305786,-117.9961574,,,,human,true,
Mountain View Cemetery,United States,WA,Lincoln County,Davenport,37435 Mountain View Cemetery Road East,99122,47.6436818,-118.1747832,,https://www.davenportwa.us/index.asp?SEC=60F4331C-592B-4CFE-A7FA-FD9696710D59&Type=B_BASIC,+1-509-725-4352,human,true,
Chief Lot Cemetery,United States,Washington,Stevens County,Wellpinit,Wellpinit,,47.8858988,-117.9859515,,,,human,true,
Turner Cemetery,United States,Washington,Columbia County,Turner,Turner,,46.41616,-117.8445801,,,,human,true,
Covello Cemetery,United States,Washington,Columbia County,Covello,Covello,,46.390169,-117.8220415,,,,human,true,
Oakesdale Cemetery,United States,Washington,Whitman County,Oakesdale,Oakesdale,,47.137308,-117.2411262,,,,human,true,
Mount Hope Cemetery,United States,Washington,Walla Walla County,Garrett,Garrett,,46.0439786,-118.3995277,,,,human,true,
Blue Mountain Memorial Garden,United States,Washington,Walla Walla County,College Place,College Place,,46.0475408,-118.3694647,,,,human,true,
Fort Walla Walla Military Cemetery,United States,Washington,Walla Walla County,College Place,College Place,,46.0473816,-118.3647047,,,,human,true,
Waitsburg City Cemetery,United States,Washington,Walla Walla County,Waitsburg,Waitsburg,,46.263326,-118.1460268,,,,human,true,
Mountain View Cemetery,United States,Washington,Walla Walla County,Langdon,Langdon,,46.0428632,-118.3302865,,,,human,true,
Creston Cemetery,United States,Washington,Lincoln County,Creston,Creston,,47.7628253,-118.5261143,,,,human,true,
Almira Cemetery,United States,WA,Lincoln County,Almira,Maxwell Road East,99103,47.7042805,-118.957163,,,,human,true,
Fairmount Memorial Park,United States,Washington,Spokane County,Balboa,Balboa,,47.704986,-117.4889675,,,,human,true,
Greenwood Memorial Terrace,United States,Washington,Spokane County,Browne's Addition,Browne's Addition,,47.6601054,-117.4706095,,,,human,true,
Mt. Nebo Cemetary,United States,Washington,Spokane County,Browne's Addition,Browne's Addition,,47.6650603,-117.4700527,,,,human,true,
Fort George Wright Cemetery,United States,Washington,Spokane County,Northwest,Northwest,,47.6822007,-117.4800085,,,,human,true,
Odessa Cemetery,United States,Washington,Lincoln County,Odessa,Odessa,,47.3309051,-118.7098218,,,,human,true,
Holy Cross Cemetery,United States,Washington,Spokane County,Town and Country,Town and Country,,47.7241092,-117.4183024,,,,human,true,
Marshall Cemetery,United States,Washington,Spokane County,Marshall,Marshall,,47.5725787,-117.5303843,,,,human,true,
Moran Cemetery,United States,Washington,Spokane County,Moran Prarie,Moran Prarie,,47.5955279,-117.3697362,,,,human,true,
Pines Cemetery,United States,Washington,Spokane County,Opportunity,Opportunity,,47.6424378,-117.2425773,,,,human,true,
Woodlawn Cemetery,United States,Washington,Spokane County,Yardley,Yardley,,47.6490157,-117.3144531,,,,human,true,
Emanuel Lutheran Cemetary,United States,Washington,Adams County,Ritzville,Ritzville,,47.1212649,-118.3650116,,,,human,true,
Ritzville Memorial Cemetery,United States,Washington,Adams County,Ritzville,Ritzville,,47.1319216,-118.3941745,,,,human,true,
Vineland Cemetery,United States,WA,Asotin County,Clarkston Heights,Clarkston Heights,,46.4098905,-117.0828489,,,,human,true,
Anatone Cemetery,United States,Washington,Asotin County,Anatone,Anatone,,46.1402168,-117.1329974,,,,human,true,
Saint Boniface Catholic Cemetery,United States,Washington,Whitman County,Uniontown,Uniontown,,46.5392761,-117.0806611,,,,human,true,
Colton Cemetery,United States,Washington,Whitman County,Colton,Colton,,46.5655225,-117.1341087,,,,human,true,
Johnson Cemetery,United States,Washington,Whitman County,Johnson,Johnson,,46.6246051,-117.1345163,,,,human,true,
Saint Gall Cemetery,United States,Washington,Whitman County,Colton,Colton,,46.5762143,-117.1271806,,,,human,true,
Odd Fellows Cemetery,United States,Washington,Whitman County,Pullman,Pullman,,46.7314237,-117.1911967,,,,human,true,
Pullman City Cemetery,United States,Washington,Whitman County,Pullman Junction,Pullman Junction,,46.7102668,-117.1745203,,,,human,true,
Colfax Cemetery,United States,Washington,Whitman County,Colfax,Colfax,,46.8888972,-117.3508313,,,,human,true,
Whitman County Cemetery District #2,United States,Washington,Whitman County,Garfield,Garfield,,47.0000981,-117.1499758,,,,human,true,
Farmington Cemetery,United States,Washington,Whitman County,Farmington,Farmington,,47.0774215,-117.0409908,,,,human,true,
Goldenrod Cemetery,United States,Washington,Whitman County,Tekoa,Tekoa,,47.2117258,-117.0744282,,,,human,true,
Waverly Cemetery,United States,Washington,Spokane County,Waverly,Waverly,,47.343225,-117.237804,,,,human,true,
Fairfield Cemetery,United States,Washington,Spokane County,Fairfield,Fairfield,,47.3698179,-117.1430098,,,,human,true,
Fairview Cemetery,United States,Washington,Spokane County,Rockford,Rockford,,47.442384,-117.1321831,,,,human,true,
Greenwood Cemetery,United States,Washington,Whitman County,Palouse,Palouse,,46.904285,-117.0694417,,,,human,true,
Albion Cemetery,United States,Washington,Whitman County,Albion,Albion,,46.7866331,-117.2524634,,,,human,true,
Spangle Cemetery,United States,Washington,Spokane County,Spangle,Spangle,,47.420856,-117.3784852,,,,human,true,
Sprague Catholic Cemetery,United States,Washington,Lincoln County,Sprague,47901 Catholic Cemetery Road East,99032,47.3199295,-117.9552256,,,,human,true,
Macabee Cemetery,United States,Washington,Lincoln County,Sprague,46009 McAbee Road East,99032,47.3064234,-117.9959077,,,,human,true,
Wilbur Cemetary,United States,Washington,Lincoln County,Wilbur,Wilbur,,47.7784297,-118.7015572,,,,human,true,
Hillcrest Cemetary,United States,Washington,Lincoln County,Harrington,Harrington,,47.4738339,-118.2491768,,,,human,true,
Reardan Cemetery,United States,Washington,Lincoln County,Reardan,510 South Elm Street,99029,47.6651002,-117.872395,,,,human,true,
Connell Cemetery,United States,Washington,Franklin County,Connell,Connell,,46.6776108,-118.8806321,,,,human,true,
Milan Cemetery,United States,Washington,Spokane County,Milan,Milan,,47.959099,-117.342109,,,,human,true,
Lance Hill Cemetery,United States,Washington,Spokane County,Amber,Amber,,47.3982939,-117.7358174,,,,human,true,
West End Catholic Cemetery,United States,Washington,Stevens County,Enterprise,Enterprise,,47.9727486,-118.2103834,,,,human,true,
Kansas Prairie Cemetery,United States,Washington,Adams County,Beatrice,Beatrice,,46.9086059,-118.8142512,,,,human,true,
Lind Cemetery,United States,Washington,Adams County,Lind,Lind,,46.9840564,-118.6202459,,,,human,true,
ASOTIN CREEK (Bracken) CEMETERY,United States,Washington,Asotin County,Silcott,Silcott,,46.4096986,-117.2133862,,,,human,true,
Asotin Cemetery,United States,WA,Asotin County,Asotin,Asotin,,46.3290883,-117.054879,,,,human,true,
Pitts Cemetery,United States,Washington,Whitman County,Fallon,Fallon,,46.8366695,-117.1604791,,,,human,true,
Saint Annes Cemetery,United States,Washington,Spokane County,Medical Lake,Medical Lake,,47.5904914,-117.6870025,,,,human,true,
Bethel Cemetery,United States,Washington,Whitman County,Steptoe,Steptoe,,47.0055364,-117.3475135,,,,human,true,
Jesuit Cemetery of the Oregon Province,United States,Washington,Spokane County,Orchard Prairie,Orchard Prairie,,47.7359184,-117.3409697,,,,human,true,
Orchard Prairie Cemetery,United States,Washington,Spokane County,Orchard Prairie,Orchard Prairie,,47.739825,-117.3260471,,,,human,true,
Peone Cemetery,United States,Washington,Spokane County,Orchard Prairie,Orchard Prairie,,47.7768497,-117.3048314,,,,human,true,
Pleasant Valley Cemetery,United States,Washington,Whitman County,Huntley,Huntley,,47.0778901,-117.5361138,,,,human,true,
Saint Michael mission cemetery,United States,Washington,Spokane County,Orchard Prairie,Orchard Prairie,,47.730592,-117.3279936,,,,human,true,
Dusty Cemetery,United States,Washington,Whitman County,Dusty,Dusty,,46.8105053,-117.6445838,,,,human,true,
Sassin Cemetery,United States,Washington,Lincoln County,Canby,Canby,,47.4485352,-118.01603,,,,human,true,
Lakes Memorial Cemetery,United States,Washington,Spokane County,Lakeland Village,Lakeland Village,,47.56504,-117.6994123,,,,human,true,
West Greenwood Cemetery,United States,Washington,Spokane County,Hite,Hite,,47.7378641,-117.747089,,,,human,true,
Medical Lake Cemetery,United States,Washington,Spokane County,Deep Creek,Deep Creek,,47.6135028,-117.7086111,,,,human,true,
Mountain View Cemetery,United States,Washington,Whitman County,Endicott,Endicott,,46.9359758,-117.6861637,,,,human,true,
Winona Cemetery,United States,Washington,Whitman County,Winona,Winona,,46.9477616,-117.8292153,,,,human,true,
LaCrosse Cemetery,United States,Washington,Whitman County,La Crosse,La Crosse,,46.820794,-117.8877887,,,,human,true,
Independent Order of Odd Fellows Cemetery,United States,Washington,Walla Walla County,Waitsburg,Waitsburg,,46.2670487,-118.1468304,,,,human,true,
Valley Chapel Cemetery,United States,Washington,Walla Walla County,Mojonnier,Mojonnier,,46.0205052,-118.4413048,,,,human,true,
Eden Valley Cemetery,United States,Washington,Whitman County,Lairds,Lairds,,46.9406382,-117.1486164,,,,human,true,
Fairview Cemetery,United States,Washington,Spokane County,Cheney,Cheney,,47.482934,-117.60363,,,,human,true,
Wild Rose Cemetery,United States,Washington,Spokane County,Hazard,Hazard,,47.8608703,-117.4972234,,,,human,true,
Latah Evergreen Cemetery,United States,Washington,Spokane County,Latah,Latah,,47.2960021,-117.163454,,,,human,true,
Pine City Cemetery,United States,Washington,Whitman County,Pine City,Pine City,,47.1951992,-117.5153026,,,,human,true,
Saint Josephs Cemetery,United States,Washington,Spokane County,Greenacres,Greenacres,,47.6990869,-117.1638535,,,,human,true,
Cloverland Cemetery,United States,WA,Asotin County,Cloverland,Cloverland,,46.2473466,-117.2302169,,,,human,true,
Craige Cemetery,United States,WA,Asotin County,Craige,Craige,,46.1182908,-117.0235246,,,,human,true,
Mountain View Cemetery,United States,WA,Asotin County,Mountain View,Mountain View,,46.0343185,-117.3561302,,,,human,true,
Lake Cemetery,United States,WA,Asotin County,Cloverland,Cloverland,,46.2161599,-117.2400186,,,,human,true,
Theon Cemetery,United States,WA,Asotin County,Theon (historical),Theon (historical),,46.1664962,-117.1021089,,,,human,true,
Pioneer Cemetery,United States,Washington,Garfield County,Peola,Peola,,46.3085066,-117.4766817,,,,human,true,
Mayview Cemetery,United States,Washington,Garfield County,Mayview,Mayview,,46.6103212,-117.4479786,,https://www.findagrave.com/cemetery/76917/mayview-cemetery,,human,true,
Lone Pine Cemetery,United States,Washington,Whitman County,Lone Pine,Lone Pine,,47.2253642,-117.1497847,,,,human,true,
Kirby Cemetery,United States,Washington,Garfield County,Kirby,Kirby,,46.5191726,-117.3884434,,,,human,true,
Holy Rosary Cemetery,United States,Washington,Garfield County,Pomeroy,Pomeroy,,46.4738112,-117.6205798,,,,human,true,
Grisham Cemetery,United States,Washington,Whitman County,Lamont,Lamont,,47.1749104,-117.8749706,,,,human,true,
Davis Cemetery,United States,Washington,Whitman County,Union Center,Union Center,,46.7613115,-117.3489885,,,,human,true,
Caylor Cemetery,United States,Washington,Whitman County,Lamont,Lamont,,47.1481724,-117.8329829,,,,human,true,
Stipe Cemetery,United States,Washington,Whitman County,Diamond,Diamond,,46.9539337,-117.4686483,,,,human,true,
Spalding Cemetery,United States,Washington,Whitman County,Almota,Almota,,46.7055651,-117.4643932,,,,human,true,
Pataha Flat Cemetery,United States,Washington,Garfield County,Pataha,Pataha,,46.4125423,-117.5465612,,,,human,true,
Onecho Cemetery,United States,Washington,Whitman County,Almota,Almota,,46.7502391,-117.4788554,,,,human,true,
Saltese Cemetery,United States,WA,Spokane County,Spokane,East 32nd Avenue,99016,47.6272923,-117.1670406,,,,human,true,
Dartford Cemetary,United States,Washington,Spokane County,Dartford,Dartford,,47.7844443,-117.4209053,,,,human,true,
Rosewood Cemetery,United States,Washington,Spokane County,Rahm,Rahm,,47.3470587,-117.1734917,,,,human,true,
Latah Cemetery,United States,Washington,Spokane County,Latah,Latah,,47.2820712,-117.127064,,,,human,true,
Rosalia Cemetery,United States,Washington,Spokane County,North Pine,North Pine,,47.2599623,-117.3664089,,,,human,true,
Mount Hope Cemetery,United States,Washington,Spokane County,Mount Hope,Mount Hope,,47.4475214,-117.2380686,,,,human,true,
Spokane Evergreen Cemetery,United States,Washington,Spokane County,Mead,Mead,,47.7497209,-117.3620789,,,,human,true,
Mica Peak Cemetery,United States,Washington,Spokane County,Saxby,Saxby,,47.5075894,-117.0773372,,,,human,true,
Mica Creek Cemetery,United States,Washington,Spokane County,Coey,Coey,,47.5215277,-117.1106778,,,,human,true,
Evergreen Cemetery,United States,Washington,Spokane County,Freeman,Freeman,,47.5185733,-117.1891451,,,,human,true,
Wood Memorial Cemetery,United States,Washington,Spokane County,Valleyford,Valleyford,,47.5072652,-117.2700593,,,,human,true,
Dixie Cemetery,United States,Washington,Walla Walla County,Dixie,Dixie,,46.1439282,-118.1525259,,,,human,true,
Pioneer Cemetery,United States,Washington,Columbia County,Long,Long,,46.3018865,-118.007303,,,,human,true,
Dayton City Cemetery,United States,Washington,Columbia County,Dayton,Dayton,,46.3153637,-117.962959,,,,human,true,
Thornton Cemetery,United States,Washington,Whitman County,Thornton,Thornton,,47.1146343,-117.3808083,,,,human,true,
Wheat Ridge Cemetery,United States,Washington,Lincoln County,Wilbur,Wilbur,,47.6420504,-118.7215001,,,,human,true,
Lakeview Cemetery,United States,Washington,Franklin County,Kahlotus,Kahlotus,,46.6472213,-118.5543182,,,,human,true,
Delight Cemetery,United States,Washington,Franklin County,Harder,Harder,,46.7955859,-118.5463893,,,,human,true,
Paradise Flats Cemetery,United States,Washington,Franklin County,Schlomer,Schlomer,,46.7223769,-118.9415319,,,,human,true,
Wayside Cemetery,United States,Washington,Spokane County,Hamann Corner,Hamann Corner,,47.8606522,-117.4339007,,,,human,true,
Edwall Cemetery,United States,Washington,Lincoln County,Edwall,Edwall,,47.4966373,-117.9658927,,,,human,true,
Owsley Cemetery,United States,Washington,Columbia County,Marengo,Marengo,,46.4741644,-117.7250451,,,,human,true,
Lafollette Cemetery,United States,Washington,Lincoln County,Bagdad Junction,Bagdad Junction,,47.8300987,-118.9169182,,,,human,true,
Bemis Cemetery,United States,Washington,Adams County,Bemis,Bemis,,46.9242407,-118.3017013,,,,human,true,
Pleasant Prairie Cemetery,United States,Washington,Spokane County,Hutton Settlement,Hutton Settlement,,47.7302587,-117.2764551,,,,human,true,
Pleasant View Cemetery,United States,Washington,Lincoln County,Mondovi,Mondovi,,47.6876884,-118.0002451,,,,human,true,
Pleasant View Cemetery,United States,Washington,Stevens County,Ford,Ford,,47.9264699,-117.7773777,,,,human,true,
Kelly Cemetery,United States,Washington,Spokane County,Deer Park,Deer Park,,47.9597114,-117.4682049,,,,human,true,
Tolonen Cemetery,United States,Washington,Lincoln County,Govan,Govan,,47.5948665,-118.829699,,,,human,true,
Ammaus Cemetery,United States,Washington,Adams County,Moody,Moody,,47.2456069,-118.8742902,,,,human,true,
Paha Cemetery,United States,Washington,Adams County,Paha,Paha,,47.0322833,-118.4922065,,,,human,true,
Spring Creek Cemetery,United States,Washington,Lincoln County,Reardan,51953 Spring Creek Grange Road East,99029,47.7310803,-117.8643798,,,,human,true,
Woodland Cemetery,United States,Washington,Spokane County,Deer Park,Deer Park,,47.9551946,-117.4920953,,,,human,true,
Ivy Cemetery,United States,Washington,Walla Walla County,Prescott,Prescott,,46.3055578,-118.3310567,,,,human,true,
Mica Cemetery,United States,Washington,Spokane County,Mica,Mica,,47.5432632,-117.2158967,,,,human,true,
Chattaroy Cemetery,United States,Washington,Spokane County,Chattaroy,Chattaroy,,47.8817832,-117.3462273,,,,human,true,
Michigan Prairie Cemetery,United States,Washington,Franklin County,Myers,Myers,,46.7507368,-118.6618682,,,,human,true,
New England Cemetary,United States,WA,Spokane County,Cheney,1131 West 1st Street,99004,47.4763214,-117.5946224,,,,human,true,
Farr Cemetery,United States,Washington,Whitman County,Pullman,Pullman,,46.7267021,-117.1911896,,,,human,true,
Washington State Veterans Cementary,United States,Washington,Spokane County,Espanola,Espanola,,47.5899299,-117.712957,,,,human,true,
Washtucna Pioneer Memorial Cemetary,United States,Washington,Adams County,Washtucna,Washtucna,,46.7675529,-118.3038322,,,,human,true,
South Pines Cemetery,United States,Washington,Spokane County,Chester,Chester,,47.6271544,-117.2256108,,,,human,true,
Chester Community Cemetery,United States,Washington,Spokane County,Chester,Chester,,47.6140238,-117.2492583,,,,human,true,
Green Mound Cemetery,United States,Washington,Spokane County,Cheney,Cheney,,47.5155405,-117.574576,,,,human,true,
Riggs Cemetery,United States,Washington,Whitman County,Rosalia,Rosalia,,47.2480369,-117.3429242,,,,human,true,
Cunningham Cemetery,United States,Washington,Adams County,Cunningham,Cunningham,,46.815296,-118.8104305,,,,human,true,
Marlin Cemetery,United States,Washington,Grant County,Marlin,Marlin,,47.4040459,-118.9926686,,,,human,true,
Pleasant Valley Cemetery,United States,Washington,Lincoln County,Wheeler Corner,Wheeler Corner,,47.5508789,-117.9942188,,,,human,true,
Tumtum Cemetery,United States,Washington,Stevens County,Tumtum,Tumtum,,47.8953904,-117.6868196,,,,human,true,
Lentz Cemetery,United States,Washington,Grant County,Marlin,Marlin,,47.4504289,-118.8983273,,,,human,true,
Uniontown Community Cemetery,United States,WA,Whitman County,Uniontown,N Dennison St,99179,46.5384205,-117.0804773,,,,human,true,
Julia Brown Cemetery,United States,WA,Stevens County,Fruitland,6090 WA-25,99129,47.9948569,-118.2835543,,https://www.findagrave.com/cemetery/2361155/julia-brown-cemetery,,human,true,
Downs Cemetery,United States,Washington,Lincoln County,Downs,Downs,,47.3630129,-118.3929488,,https://www.findagrave.com/cemetery/2348236/downs-cemetery,,human,true,
Freedensfeld Cemetery,United States,Washington,Lincoln County,Odessa,Odessa,,47.4800104,-118.6987211,,http://www.wagenweb.org/lincoln/obitsfreedensfeldcem.htm,,human,true,
Ruark (New Century) Cemetery,United States,Washington,Garfield County,Mayview,Mayview,,46.6028493,-117.4377564,,http://files.usgwarchives.net/wa/garfield/cemeteries/ruark.txt,,human,true,
Whelan Cemetary,United States,Washington,Whitman County,Whelan,Whelan,,46.7786873,-117.1169706,,,,human,true,
Moses Cemetery,United States,Washington,Stevens County,Ford,Ford,,47.9365201,-117.8312847,,,,human,true,
Old Cemetery,United States,Washington,Clallam County,Ozette,Ozette,,48.0725685,-124.6605036,,,,human,true,
Old Clallam Bay Cemetery,United States,Washington,Clallam County,Aview Mobile Home Park,Aview Mobile Home Park,,48.2395226,-124.2610499,,,,human,true,
English Camp Cemetery,United States,Washington,San Juan County,Yacht Haven,Yacht Haven,,48.5829891,-123.1413759,,,,human,true,
Lasqueti Community Cemetery,United States,Washington,Clallam County,Midway,Midway,,49.477613,-124.2434547,,,,human,true,
Stuart Island Cemetery,United States,Washington,San Juan County,Prevost,Prevost,,48.677878,-123.2197344,,,,human,true,
Ye'yumnuts,United States,Washington,San Juan County,Prevost,Prevost,,48.7901638,-123.6963096,,,,human,true,
Ross Bay Cemetery,United States,Washington,San Juan County,Yacht Haven,1495 Fairfield Road,,48.4107085,-123.3407243,,,,human,true,
Chinese Cemetery at Harling Point,United States,Washington,San Juan County,Yacht Haven,2144 Crescent Road,,48.4069364,-123.3228596,,https://www.oakbay.ca/explore-oak-bay/points-interest/chinese-cemetery,,human,true,
Boundary Bay Cemetery,United States,Washington,Whatcom County,Maple Beach,Maple Beach,,49.0179326,-123.0664331,,,,human,true,
Ocean View Burial Park,United States,Washington,Whatcom County,Maple Beach,4000 Imperial Street,,49.2188196,-123.0166868,,https://www.dignitymemorial.com/en-ca/funeral-homes/burnaby-bc/ocean-view-funeral-home/3644,+1-604-435-6688,human,true,
Mount Angeles Memorial Park,United States,Washington,Clallam County,Roll Inn Mobile Home Park,Roll Inn Mobile Home Park,,48.102451,-123.3853469,,,,human,true,
Pacific Heritage Cemetery,United States,Washington,Whatcom County,Maple Beach,Maple Beach,,49.268962,-123.0106098,,https://www.pacificheritagecemetery.com/,,human,true,
Royal Oak Burial Park,United States,Washington,San Juan County,Yacht Haven,Yacht Haven,,48.5060965,-123.3795067,,,,human,true,
St. Mark's Cemetery I,United States,Washington,San Juan County,Prevost,Prevost,,48.8681384,-123.5294567,,,,human,true,
Capilano View Cemetery,United States,Washington,Whatcom County,Maple Beach,Maple Beach,,49.3377045,-123.1212697,,,,human,true,
Courtenay Civic Cemetery,United States,Washington,Clallam County,Midway,4768 North Island Highway,,49.7108829,-124.9907209,,,,human,true,
St. Luke's Historic Cemetery,United States,Washington,San Juan County,Yacht Haven,Yacht Haven,,48.4633497,-123.3371164,,,,human,true,
Beth Israel Memorial Park,United States,Washington,Whatcom County,Maple Beach,Maple Beach,,49.2693702,-123.0047546,,https://www.bethisraelvan.ca/about-us/our-cemetery/,,human,true,
Greenwood Cemetery,United States,Washington,Clallam County,Midway,Josephine Street,,49.2685195,-124.8304689,,,,human,true,
St. Peter's Cemetery,United States,Washington,Clallam County,Midway,6240 Moore Road,,49.2687299,-124.8489977,,,,human,true,
Brethour Family Cemetery,United States,Washington,San Juan County,Prevost,Prevost,,48.6456421,-123.4165172,,,,human,true,
Saturna Cemetery,United States,Washington,San Juan County,Prevost,Prevost,,48.7897612,-123.1641391,,,,human,true,
Waldron Cemetery,United States,Washington,San Juan County,Waldron,Waldron,,48.7081886,-123.0248967,,,,human,true,
Chinese Cemetery,United States,Washington,San Juan County,Prevost,Prevost,,49.1813434,-123.9731271,,,,human,true,
Bowen Road Cemetery,United States,Washington,San Juan County,Nanaimo,555 Bowen Road,,49.1697736,-123.9539415,,https://www.nanaimo.ca/city-services/cemetery,,human,true,
Point Roberts Cemetery,United States,Washington,Whatcom County,Maple Beach,Maple Beach,,48.9806448,-123.0299344,,,,human,true,
Hillcrest Chinese Cemetery,United States,Washington,San Juan County,Prevost,Prevost,,48.7935775,-123.7939315,,,,human,true,
Westholme Cemetery,United States,Washington,San Juan County,Prevost,Prevost,,48.882537,-123.6876755,,,,human,true,
Colwood Pioneer Cemetery,United States,Washington,Clallam County,Lower Elwha,Lower Elwha,,48.438603,-123.4877758,,,,human,true,
First Memorial Funeral Services,United States,Washington,San Juan County,Yacht Haven,Yacht Haven,,48.5043979,-123.3837991,,,,human,true,
George Family Cemetery,United States,Washington,Clallam County,Port Crescent,Port Crescent,,48.3880262,-123.6944453,,,,human,true,
Jewish Cemetery,United States,Washington,San Juan County,Yacht Haven,2750 Cedar Hill Road,,48.4396751,-123.3456025,,,,human,true,
Muirside - Muir Family Cemetery,United States,Washington,Clallam County,Port Crescent,Port Crescent,,48.3726952,-123.7330261,,,,human,true,
Pauquachin First Nation / Cole Bay Cemetery,United States,Washington,San Juan County,Prevost,Prevost,,48.6297237,-123.4575873,,,,human,true,
Sooke Harbour Cemetery,United States,Washington,Clallam County,Port Crescent,Port Crescent,,48.386803,-123.691383,,,,human,true,
Scia'new Cemetery,United States,Washington,Clallam County,Lower Elwha,Lower Elwha,,48.3470352,-123.5892553,,,,human,true,
Halalt First Nation Cemetery,United States,Washington,San Juan County,Prevost,Prevost,,48.8780511,-123.6887484,,,,human,true,
Ladysmith Cemetery,United States,Washington,San Juan County,Prevost,Prevost,,48.999203,-123.8324436,,,,human,true,
Maple Bay Pioneer Methodist Cemetery,United States,Washington,San Juan County,Prevost,Prevost,,48.8201672,-123.6513864,,,,human,true,
Mountain View Cemetery,United States,Washington,San Juan County,Prevost,Prevost,,48.8044436,-123.7356272,,,,human,true,
Shawnigan Lake Cemetery,United States,Washington,San Juan County,Prevost,Prevost,,48.6450934,-123.6251031,,,,human,true,
Alberni Valley Memorial Gardens,United States,Washington,Clallam County,Midway,2300 Alberni Highway,,49.2640654,-124.752336,,,,human,true,
Makah Tribe Cemetery,United States,Washington,Clallam County,Neah Bay,Neah Bay,,48.366147,-124.5811245,,,,human,true,
Kulleet Bay Cemetery,United States,Washington,San Juan County,Prevost,Prevost,,49.0133475,-123.7898954,,,,human,true,
Cedar Valley Memorial Gardens,United States,Washington,San Juan County,Prevost,2347 Cedar Road,V9X 1K3,49.088775,-123.8524677,,https://www.arbormemorial.ca/en/cedarvalley,+1 250-722-2244,human,true,
Purdy-Cunningham Memorial Cemetery,United States,Washington,San Juan County,Prevost,Prevost,,48.8724124,-123.5250953,,,,human,true,
St. Mark's Cemetery II,United States,Washington,San Juan County,Prevost,Prevost,,48.8685581,-123.5297946,,,,human,true,
Chemainus Cemetery,United States,Washington,San Juan County,Prevost,9485 Chemainus Road,,48.9130555,-123.7083864,,,,human,true,
Pender Island Cemetery,United States,Washington,San Juan County,Prevost,Prevost,,48.7923465,-123.2858118,,,,human,true,
Seaview Cemetery,United States,Washington,Whatcom County,Point Roberts,Point Roberts,,49.4064978,-123.5651854,,,,human,true,
Elphinstone Pioneer Cemetery,United States,Washington,Whatcom County,Point Roberts,Point Roberts,,49.4228782,-123.5306479,,http://www.gibsonsvisitorinfo.com/things-to-do-outside-in-gibsons-bc/walks-in-gibsons-bc/elphinstone-pioneer-cemetery/,,human,true,
St. Peter's Cemetery,United States,Washington,San Juan County,Prevost,Prevost,,49.1628619,-123.9490634,,,,human,true,
Yates Memorial Cemetery,United States,Washington,Clallam County,Midway,Midway,,49.3026555,-124.3308666,,,,human,true,
Qualicum Beach Cemetery,United States,Washington,Clallam County,Midway,Midway,,49.3413346,-124.4513242,,,,human,true,
Saint Andrew's Cemetery,United States,Washington,Clallam County,Midway,Midway,,49.7036295,-124.9897276,,,,human,true,
Cranberry Cemetery,United States,Washington,Clallam County,Midway,Midway,,49.8735303,-124.5354655,,,,human,true,
Gabriola Community Cemetery,United States,Washington,Whatcom County,Point Roberts,2001 South Road,,49.1311264,-123.765212,jjhooper@shaw.ca,https://gabcemetery.wixsite.com/gabriolacemetery,+1 250-247-8815,human,true,
Veterans Cemetery,United States,Washington,San Juan County,Yacht Haven,Yacht Haven,,48.4415056,-123.4131206,,,,human,true,
River's Edge Memorial Garden,United States,Washington,Clallam County,Clallam Bay,Clallam Bay,,48.8287115,-124.0459812,,,,human,true,
Sequim View Cemetery,United States,Washington,Clallam County,Clasen Cove Estates Mobile Home Park,Clasen Cove Estates Mobile Home Park,,48.1023481,-123.1055269,,,,human,true,
Jamestown Cemetery,United States,Washington,Clallam County,Jamestown,Jamestown,,48.1238044,-123.0927549,,,,human,true,
Jewish Section,United States,Washington,Whatcom County,Maple Beach,Maple Beach,,49.2376522,-123.0909477,,,,human,true,
Old Section,United States,Washington,Whatcom County,Maple Beach,Maple Beach,,49.2386857,-123.0920063,,,,human,true,
Saint Francis Catholic Cemetery,United States,Washington,San Juan County,Oaks Mobile Home Park,Oaks Mobile Home Park,,48.515246,-123.0405276,,,,human,true,
Valley Cemetery,United States,Washington,San Juan County,Oaks Mobile Home Park,Oaks Mobile Home Park,,48.5136629,-123.0398865,,,,human,true,
English Camp British Military Cemetery,United States,Washington,San Juan County,Yacht Haven,Yacht Haven,,48.5829949,-123.1413849,,,,human,true,
Tla’amin Cemetery,United States,Washington,Clallam County,Midway,Midway,,49.900614,-124.6115587,,,,human,true,
Ye'yumnuts,United States,Washington,San Juan County,Prevost,Prevost,,48.7896725,-123.6962463,,,,human,true,
Kulshan Cemetery,United States,Washington,Whatcom County,Blaine,Blaine,,48.9795567,-122.7093403,,,,human,true,
Indian Cemetery,United States,Washington,Skagit County,Mansford,Mansford,,48.3128207,-121.5076291,,,,human,true,
Forest Lawn Cemetery,United States,Washington,Whatcom County,Maple Beach,3789 Royal Oak Avene,,49.2464928,-122.9922636,,https://www.dignitymemorial.com/en-ca/funeral-homes/burnaby-bc/forest-lawn-funeral-home/3605,+1-604-299-7720,human,true,
North Delta Cemetery,United States,Washington,Whatcom County,Maple Beach,Maple Beach,,49.1622201,-122.9235571,,,,human,true,
Carman United Church Cemetery,United States,Washington,Whatcom County,Warnick,Warnick,,49.1108103,-121.9485722,,,,human,true,
Saint Mary's Cemetery,United States,Washington,Whatcom County,Warnick,Warnick,,49.1108154,-121.9495023,,,,human,true,
Vedder View Gardens Cemetery,United States,Washington,Whatcom County,Maple Falls,Maple Falls,,49.1125979,-121.9888481,,,,human,true,
Victory Memorial Park,United States,Washington,Whatcom County,Surrey,14831 28 Avenue,,49.0547289,-122.8094179,,https://www.dignitymemorial.com/en-ca/funeral-homes/surrey-bc/victory-memorial-park-funeral-centre/3745,+1-604-536-6522,human,true,
Sunnyside Lawn Cemetary,United States,Washington,Whatcom County,Semiahmoo,14850 28 Avenue,,49.0522617,-122.8083197,cemeteryinfo@surrey.ca,https://www.surrey.ca/services-payments/cemeteries,+1-604-598-5770,human,true,
St. Peter's Cemetery,United States,Washington,Whatcom County,Maple Beach,Maple Beach,,49.2228828,-122.9002474,,https://rccav.org/,,human,true,
Chilliwack Cemetery,United States,Washington,Whatcom County,Warnick,Warnick,,49.1839801,-121.9050394,,,,human,true,
Sq'éwlets Cemetery,United States,Washington,Whatcom County,Columbia,Columbia,,49.2431814,-121.9973272,,,,human,true,
Kent Municipal Cemetery,United States,Washington,Whatcom County,Boundary,Boundary,,49.2371677,-121.80345,,,,human,true,
Ch'iyàqtel Cemetery,United States,Washington,Whatcom County,Warnick,Warnick,,49.1146699,-121.9393897,,,,human,true,
Port Coquitlam Cemetery,United States,Washington,Whatcom County,Blaine,Blaine,,49.2863105,-122.7657625,,,,human,true,
Lummi Cemetery,United States,Washington,Whatcom County,Lummi,Lummi,,48.7796544,-122.6095228,,,,human,true,
Bay View Cemetery,United States,Washington,Skagit County,Bay View,Bay View,,48.4986825,-122.4759552,,,,human,true,
Schara Tzedeck Cemetery,United States,Washington,Whatcom County,New Westminster,2345 Marine Drive,V3M 6R8,49.1995613,-122.9555957,,,,human,true,
Hazelwood Cemetery,United States,Washington,Whatcom County,Sumas,34070 Hazelwood Avenue,,49.0626237,-122.2816582,,https://www.abbotsford.ca/city-services/cemeteries,,human,true,
Greenhills Memorial Cemetery,United States,Washington,Skagit County,Burlington,1183 North Gardner Road,98233,48.4850155,-122.3071259,,,,human,true,
Valley View Cemetery,United States,Washington,Whatcom County,Boundary,6065 Cemetery Road,,49.2602173,-121.8179484,,,,human,true,
Seabird Island Cemetery,United States,Washington,Whatcom County,Boundary,Boundary,,49.2794034,-121.7235563,,,,human,true,
Saxon Cemetery,United States,Washington,Whatcom County,Saxon,Saxon,,48.6883894,-122.1807739,,,,human,true,
Langley Woodmen Cemetery,United States,Washington,Island County,Langley,Langley,,48.0276449,-122.4072465,,,,human,true,
Coquitlam Cemetery,United States,Washington,Whatcom County,Semiahmoo,Semiahmoo,,49.2542958,-122.8791265,,,,human,true,
St. Mary Star of the Sea Catholic Cemetery,United States,Washington,Jefferson County,Port Townsend,Port Townsend,,48.1303406,-122.7785492,,,,human,true,
Red Men Cemetery,United States,Washington,Jefferson County,Sea Breeze Mobile Home Park,Sea Breeze Mobile Home Park,,48.1180251,-122.7835773,,https://www.findagrave.com/cemetery/1992714/redmens-cemetery,,human,true,
Laurel Grove Cemetery,United States,Washington,Jefferson County,Sea Breeze Mobile Home Park,Sea Breeze Mobile Home Park,,48.1169206,-122.7857848,,,,human,true,
Riverview Cemetery,United States,Washington,Whatcom County,Blaine,Blaine,,49.2600773,-122.7995686,,,,human,true,
Marysville Cemetery,United States,Washington,Snohomish County,Twin Cedar Mobile Park,Twin Cedar Mobile Park,,48.0771007,-122.1740065,,,,human,true,
Semiahmoo First Nations Cemetery,United States,Washington,Whatcom County,Semiahmoo,Semiahmoo,,49.0158608,-122.7866293,,,,human,true,
Mount Vernon Cemetery,United States,WA,Skagit County,Mount Vernon,1200 East Fir Street,98273,48.426913,-122.3271453,,,,human,true,
Tsleil-Waututh Cemetery,United States,Washington,Whatcom County,Maple Beach,Maple Beach,,49.3083136,-122.9906294,,,,human,true,
Lyman Cemetery,United States,Washington,Skagit County,Lyman,31154 West Main Street,98263,48.5266915,-122.0674542,,,,human,true,
Darrington Cemetery,United States,Washington,Snohomish County,Cascade Kamloops Trout Farm Mobile Home Park,Cascade Kamloops Trout Farm Mobile Home Park,,48.2590263,-121.6161451,,,,human,true,
Swinomish Indian Cemetery,United States,Washington,Skagit County,La Conner,La Conner,,48.3892135,-122.5044002,,,,human,true,
Pleasant Ridge Cemetery,United States,Washington,Skagit County,Mount Vernon,17666 Valentine Road,98273,48.3924549,-122.447408,,http://pleasantridgecemetery.com/,,human,true,
Langley Lawn Cemetery,United States,Washington,Whatcom County,Blaine,Blaine,,49.0813034,-122.6498818,,,,human,true,
Mt. Lehman Cemetary,United States,Washington,Whatcom County,Northwood,Northwood,,49.1182067,-122.4004185,,,,human,true,
Hamilton Cemetery,United States,Washington,Skagit County,Hamilton Junction,Hamilton Junction,,48.5362605,-122.0047521,,,,human,true,
Hamilton Indian Cemetery,United States,Washington,Skagit County,Hamilton Junction,Hamilton Junction,,48.5339608,-121.9974238,,,,human,true,
Clear Lake Cemetary,United States,Washington,Skagit County,Clear Lake,Clear Lake,,48.4673933,-122.2339664,,,,human,true,
Lynden Cemetery,United States,WA,Whatcom County,Lynden,1975 Front Street,98264,48.9381393,-122.4839041,,,,human,true,
Monumenta Cemetery,United States,WA,Whatcom County,Lynden,1980 Front Street,98264,48.9402519,-122.4839111,,,,human,true,
American Legion Cemetery,United States,Washington,Snohomish County,Granite Falls,Granite Falls,,48.0904896,-121.9817176,,,,human,true,
Memorial Park,United States,Washington,Skagit County,Burlington Mobile Park,Burlington Mobile Park,,48.4375295,-122.3175011,,,,human,true,
Fort Worden Post Cemetery,United States,WA,Jefferson County,Port Townsend,1300-1398 W Street,98368,48.1332855,-122.7735992,,https://www.cem.va.gov/cems/nchp/FtWorden.asp,+1-425-413-9614,human,true,
Gardiner Cemetery,United States,WA,Jefferson,Gardiner,137 Gardiner Cemetery Road,98382,48.0473366,-122.9185885,,,,human,true,
Olga-Doe Bay Cemetery,United States,Washington,San Juan County,Olga,Olga,,48.6268404,-122.8246343,,,,human,true,
Woodlawn Cemetery,United States,Washington,San Juan County,West Beach,West Beach,,48.6784631,-122.9497712,,,,human,true,
Van Zandt Cemetery,United States,Washington,Whatcom County,Van Zandt,Van Zandt,,48.7854798,-122.2139847,,,,human,true,
Bethany Lutheran Cemetery,United States,Washington,Whatcom County,Nugents Corner,Nugents Corner,,48.843903,-122.2862912,,,,human,true,
Hopewell Cemetery,United States,WA,Whatcom County,Everson,3400 Hopewell Road,98247,48.8840053,-122.3035436,,,,human,true,
Arlington Cemetery,United States,Washington,Snohomish County,Hidden Glen Mobile Home Park,Hidden Glen Mobile Home Park,,48.1791127,-122.1432897,,,,human,true,
Union Cemetery,United States,Washington,Skagit County,Parkwood Mobile Village,1450 Wicker Road,,48.5091116,-122.2139346,,https://www.ci.sedro-woolley.wa.us/departments/parks_and_recreation/cemetery.php,+1-360-856-1751,human,true,
Greenwood Cemetery,United States,WA,Whatcom County,Lynden,605 East Wiser Lake Road,98264,48.9092789,-122.4580148,,,,human,true,
Sunnyside Cemetery,United States,Washington,Island County,Port Arthur (historical),Port Arthur (historical),,48.206001,-122.7058294,,,,human,true,
Bayview Cemetery,United States,Washington,Whatcom County,Lakeway,Lakeway,,48.7499424,-122.4413085,,,,human,true,
Maple Leaf Cemetery,United States,Washington,Island County,Oak Harbor,Oak Harbor,,48.3102586,-122.6325687,,,,human,true,
Maclure Road Mennonite Cemetery,United States,Washington,Whatcom County,Abbotsford,33965 MacLure Road,V2S 5Z5,49.0610578,-122.2836243,,https://www.maclureroadmennonitecemetery.com/,,human,true,
Musselwhite Cemetery,United States,Washington,Whatcom County,Sumas,35301 Old Yale Road,,49.04199,-122.24429,,hhttps://www.abbotsford.ca/city-services/cemeteries,,human,true,
Congregation Beth Israel Cemetery,United States,Washington,Whatcom County,Roosevelt,Roosevelt,,48.75325,-122.4417636,,https://bethisraelbellingham.org/,,human,true,
St. Benedict,United States,Washington,Whatcom County,Sumas,Sumas,,49.1540983,-122.2720022,,,,human,true,
Nooksack Cemetery,United States,Washington,Whatcom County,Nooksack,Nooksack,,48.9250244,-122.3104366,,,,human,true,
Aberdeen Cemetery,United States,Washington,Whatcom County,Northwood,Northwood,,49.0576771,-122.437202,,,,human,true,
Yarrow Mennonite Cemetery,United States,Washington,Whatcom County,Yarrow,41637 Hare Avenue,,49.0871665,-122.0726451,,,,human,true,
Hazelwood Cemetery,United States,Washington,Whatcom County,Sumas,3356 Park Lane,V2S 7W3,49.0621349,-122.2792223,,http://www.abbotsford.ca/leisure/parks/cemeteries.htm#Hazelwood,,human,true,
Maple Ridge Cemetery,United States,Washington,Whatcom County,Maple Ridge,21404 Dewdney Trunk Road,V2X5C2,49.2190578,-122.6287017,cemetery@mapleridge.ca,,+1-604-467-7307,human,true,
Oblates of Mary Immaculate Cemetary,United States,Washington,Whatcom County,Sumas,Sumas,,49.1393149,-122.2830057,,,,human,true,
Pioneer Cemetery,United States,Washington,Island County,Terrys Corner,Terrys Corner,,48.2432535,-122.4521974,,,,human,true,
Lummi Island Cemetary,United States,Washington,Whatcom County,Beach,Beach,,48.7139557,-122.6943524,,,,human,true,
Hazelmere Cemetery,United States,Washington,Whatcom County,Surrey,19198 16 Avenue,,49.030446,-122.6919339,cemeteryinfo@surrey.ca,https://www.surrey.ca/services-payments/cemeteries,+1-604-598-5770,human,true,
Blaine Cemetery,United States,WA,Whatcom County,Blaine,4175 H Street Road,98264,48.9929406,-122.708216,,,,human,true,
Yale Pioneer Cemetery,United States,Washington,Whatcom County,Boundary,Boundary,,49.5566903,-121.4439349,,,,human,true,
Hope Pioneer Cemetery,United States,Washington,Whatcom County,Boundary,Boundary,,49.3856041,-121.4403866,,,,human,true,
British Columbia Penitentiary Cemetery - Boot Hill,United States,Washington,Whatcom County,Maple Beach,Maple Beach,,49.2168688,-122.8990812,,,,human,true,
St. Helen’s Anglican Church,United States,Washington,Whatcom County,Semiahmoo,Semiahmoo,,49.1990379,-122.8680538,,https://www.waymarking.com/waymarks/wm111F4_St_Helens_Anglican_Church_Graveyard_Surrey_BC,,human,true,
St. Oswald's Anglican Church Cemetery,United States,Washington,Whatcom County,Blaine,Blaine,,49.1767493,-122.695679,,,,human,true,
Surrey Centre Cemetery,United States,Washington,Whatcom County,Surrey,16671 Old McLellan Road,,49.1097675,-122.7614573,cemeteryinfo@surrey.ca,https://www.surrey.ca/services-payments/cemeteries,+1-604-598-5770,human,true,
Murrayville Cemetery,United States,Washington,Whatcom County,Blaine,21405 44 Avenue,,49.0833602,-122.6306249,,,,human,true,
Northern State Hospital Cemetery,United States,Washington,Skagit County,Sedro-Woolley,25751 Helmick Road,98284,48.5335549,-122.1932475,,,,human,true,
Bow Cemetery,United States,Washington,Skagit County,Bow,Bow,,48.5552416,-122.4018861,,,,human,true,
Mission Beach Cemetery,United States,Washington,Snohomish County,Mission Beach,Mission Beach,,48.0497334,-122.2716541,,,,human,true,
St Marys Cemetery,United States,Washington,Snohomish County,Twin Cedar Mobile Park,Twin Cedar Mobile Park,,48.0752203,-122.1754211,,,,human,true,
Woodlawn Cemetery,United States,WA,Whatcom County,Ferndale,5977 Northwest Drive,98248,48.8575175,-122.5434879,,,,human,true,
Preist Point,United States,Washington,Snohomish County,Snug Harbor Mobile Home Park,Snug Harbor Mobile Home Park,,48.0325289,-122.2324812,,,,human,true,
Tenmile Cemetery,United States,WA,Whatcom County,Lynden,6268 Medcalf Road,98264,48.8687291,-122.4521674,,,,human,true,
Haynie Cemetery,United States,Washington,Whatcom County,Custer,Custer,,48.9638039,-122.6605339,,,,human,true,
Yale First Nation Reserve Cemetery,United States,Washington,Whatcom County,Boundary,Boundary,,49.5628765,-121.4219927,,,,human,true,
Forest Park Cemetery,United States,WA,Skagit County,Concrete,44826 Compton Lane,98237,48.5329218,-121.77079,,,,human,true,
Enterprise Cemetery,United States,WA,Whatcom County,Ferndale,7041 Vista Drive,,48.8963589,-122.6272656,,http://enterprisecemetery.com,,human,true,
Shxwhá:y Village Cemetery,United States,Washington,Whatcom County,Maple Falls,Maple Falls,,49.1624133,-122.0021606,,,,human,true,
Edens Cemetery,United States,WA,Skagit County,Guemes Island,6310 Guemes Island Road,98221,48.5532161,-122.625736,,,,human,true,
Hatzic Cemetery,United States,Washington,Whatcom County,Sumas,Sumas,,49.1593383,-122.2582498,,,,human,true,
Suiattle Cemetery,United States,Washington,Skagit County,Mansford,Mansford,,48.2840844,-121.4073975,,,,human,true,
Sound View Cemetery,United States,Washington,Jefferson County,Nordland,Nordland,,48.0456419,-122.6839782,,,,human,true,
Grandview Cemetery,United States,Washington,Skagit County,Anacortes,Anacortes,,48.4878553,-122.6046606,,,,human,true,
Green Acres Memorial Park,United States,Washington,Whatcom County,Manthey's Country Mobile Home Park,Manthey's Country Mobile Home Park,,48.8495367,-122.5369106,,,,human,true,
Pleasant View Cemetery,United States,Washington,Snohomish County,Norman,Norman,,48.196993,-122.268844,,,,human,true,
Kendall Cemetery,United States,Washington,Whatcom County,Nooksack Salmon Hatchery,Nooksack Salmon Hatchery,,48.893969,-122.1479514,,,,human,true,
Fern Hill Cemetery,United States,Washington,Skagit County,Howards Corner,Howards Corner,,48.4577009,-122.5841631,,,,human,true,
Upper Skagit Cemetary,United States,Washington,Skagit County,Hamilton Junction,Hamilton Junction,,48.5355695,-122.0183141,,,,human,true,
Surrey Centre Cemetery,United States,Washington,Whatcom County,Blaine,Blaine,,49.1085267,-122.7611,,,,human,true,
Bakerview Memorial Cemetary,United States,Washington,Whatcom County,Delta,920 272 Street,,49.0196255,-122.4678908,,https://bakerviewmemorial.ca/,,human,true,
Fort Langley Cemetery,United States,Washington,Whatcom County,Delta,Delta,,49.1675274,-122.5825665,,https://www.tol.ca/en/cemeteries.aspx,,human,true,
Temple Sholom Cemetary,United States,Washington,Whatcom County,Surrey,14965 28 Avenue,,49.053798,-122.8077698,info@templesholom.ca,https://www.templesholom.ca/about-us/cemetery/,+1-604-266-7190,human,true,
Heritage Gardens Cemetary,United States,Washington,Whatcom County,Blaine,19082 16 Avenue,,49.0301834,-122.6938089,info@hgcemetery.com,https://heritagegardenscemetery.com/,+1-604-538-0074,human,true,
Nooksack Jobe Cemetary,United States,Washington,Whatcom County,Northwood,Northwood,,48.9591428,-122.4072219,,,,human,true,
Shaw Island Cemetery,United States,Washington,San Juan County,Shaw Island,Shaw Island,,48.573077,-122.9498387,,,,human,true,
Immanuel Lutheran Cemetary,United States,Washington,Whatcom County,Lawrence,Lawrence,,48.8536109,-122.2877094,,,,human,true,
South Poplar Cemetery,United States,Washington,Whatcom County,Clearbrook,Clearbrook,,49.0144127,-122.3158222,,,,human,true,
Hillsdale Cemetery,United States,Washington,Whatcom County,Edgewater Resort and Trailer Park,Edgewater Resort and Trailer Park,,48.9538327,-122.7249379,,https://hillsdalecemetery.com/,,human,true,
Fir Conway Luthern Church Cemetery,United States,Washington,Skagit County,Milltown,Milltown,,48.3078651,-122.334086,,,,human,true,
Goshen Cemetery,United States,Washington,Whatcom County,Goshen,Goshen,,48.8558516,-122.3368276,,,,human,true,
Case Nooksack Cemetery,United States,WA,Whatcom County,Deming,4452 Valley Highway,98244,48.8038708,-122.1964548,,,,human,true,
Mount Hope Cemetery,United States,Washington,Whatcom County,Deming,Deming,,48.8248666,-122.2046193,,,,human,true,
kʷikʷəƛ̓əm setɬamékmən Cemetery,United States,Washington,Whatcom County,Blaine,Blaine,,49.250174,-122.7943941,,,,human,true,
Albion Indian Reserve Cemetery #5,United States,Washington,Whatcom County,Delta,Delta,,49.1744104,-122.5286623,,,,human,true,
The Hudson's Bay Company Pioneer Cemetery,United States,Washington,Whatcom County,Delta,Delta,,49.1688344,-122.5772868,,https://www.tol.ca/en/cemeteries.aspx,,human,true,
Whonnock Cemetery,United States,Washington,Whatcom County,Maple Ridge,27292 96 Avenue,V2W1L4,49.1764335,-122.4658778,cemetery@mapleridge.ca,,+1-604-467-7307,human,true,
Our Saviors Lutheran Church Cemetery,United States,Washington,Snohomish County,East Stanwood,East Stanwood,,48.2347259,-122.3411768,,,,human,true,
Lakeside Cemetery,United States,WA,Whatcom County,Lynden,2402 Pangborn Road,,48.9824095,-122.3571994,,https://www.findagrave.com/cemetery/760865/lakeside-cemetery,,human,true,
Nooksack Jobe Cemetary,United States,Washington,Whatcom County,Northwood,Northwood,,48.9589855,-122.4081948,,,,human,true,
Fircrest Cemetery,United States,WA,Island County,Oak Harbor,771 North Oak Harbor Road,98277,48.3048595,-122.6591594,,,,human,true,
Indian Cemetery,United States,Washington,Douglas County,Rocky Butte,Rocky Butte,,48.0876459,-119.7000563,,,,human,true,
Riverview Cemetery,United States,Washington,Okanogan County,Country Estates Mobile Home Park,Country Estates Mobile Home Park,,48.415708,-119.4836595,,,,human,true,
Golden Cemetery,United States,Washington,Okanogan County,Enterprise,Enterprise,,48.9012661,-119.5214599,,,,human,true,
Ruby Cemetery,United States,Washington,Okanogan County,Ruby,Ruby,,48.5084826,-119.7233969,,,,human,true,
Paul's Tomb,United States,Washington,Okanogan County,Nighthawk,Nighthawk,,49.9253439,-119.4765132,,,,human,true,
Kelowna Memorial Park Cemetery,United States,Washington,Okanogan County,Kelowna,1991 Bernard Avenue,V1Y 9V7,49.886539,-119.451198,,https://www.kelowna.ca/city-services/memorial-park-cemetery/about,+1-250-862-5518,human,true,
Lakeview Cemetery,United States,Washington,Okanogan County,Nighthawk,Nighthawk,,49.5185721,-119.5759365,,,,human,true,
Cawston Community Cemetery,United States,Washington,Okanogan County,Nighthawk,Nighthawk,,49.1874959,-119.7502761,,,,human,true,
Keremeos Cemetery,United States,Washington,Okanogan County,Nighthawk,Nighthawk,,49.232429,-119.8240158,,,,human,true,
Hedley Cemetery,United States,Washington,Okanogan County,Nighthawk,Nighthawk,,49.3451568,-120.0680042,,,,human,true,
Fairview Cemetery,United States,Washington,Okanogan County,Nighthawk,Nighthawk,,49.4866375,-119.5909644,,,,human,true,
Beaver Creek Cemetery,United States,Washington,Okanogan County,Twisp,Twisp,,48.3266151,-120.058284,,,,human,true,
Rock Creek Cemetery,United States,Washington,Okanogan County,Chesaw,Chesaw,,49.0567161,-119.0034064,,,,human,true,
Bridesville Cemetery,United States,Washington,Okanogan County,Molson,Molson,,49.0368967,-119.1371233,,,,human,true,
Osoyoos Lakeview Cemetery,United States,Washington,Okanogan County,Oroville,Oroville,,49.0639914,-119.5190987,,,,human,true,
Sullivan Cemetery,United States,Washington,Okanogan County,Winthrop,Winthrop,,48.4741513,-120.1716251,,,,human,true,
Okanogan Cemetery,United States,Washington,Okanogan County,Okanogan,Okanogan,,48.3552634,-119.6075694,,,,human,true,
Omak Memorial Cemetery,United States,Washington,Okanogan County,Log Cabin Mobile Home Park,Log Cabin Mobile Home Park,,48.3871536,-119.5564684,,,,human,true,
Okanogan Memorial Gardens,United States,Washington,Okanogan County,Okanogan,Okanogan,,48.3911834,-119.5703091,,,,human,true,
Locust Grove Cemetery,United States,Washington,Okanogan County,Brewster,Brewster,,48.1111559,-119.7750389,,,,human,true,
Pateros Cemetery,United States,Washington,Okanogan County,Pateros,Pateros,,48.0516001,-119.9106715,,,,human,true,
Fort Okanogan Memorial Cemetery,United States,Washington,Okanogan County,Monse,Monse,,48.158963,-119.6643106,,,,human,true,
Mountain View Cemetery,United States,Washington,Okanogan County,Loomis,Loomis,,48.81534,-119.611016,,,,human,true,
Chesaw Cemetery,United States,Washington,Okanogan County,Chesaw,Chesaw,,48.9300202,-119.0544243,,https://www.findagrave.com/cemetery/1975789/chesaw-cemetery,,human,true,
Conconully Cemetery,United States,Washington,Okanogan County,Conconully,Conconully,,48.5440627,-119.7414342,,,,human,true,
Lakeview Memorial Gardens,United States,Washington,Okanogan County,Molson,Molson,,49.9758331,-119.3914908,,,,human,true,
St. Theresa's Catholic Cemetery,United States,Washington,Okanogan County,Molson,Molson,,49.9188484,-119.4088153,,,,human,true,
Peachland Cemetery,United States,Washington,Okanogan County,Nighthawk,Nighthawk,,49.7527336,-119.7658616,,,,human,true,
Princeton Cemetery,United States,Washington,Whatcom County,Barron,Barron,,49.449566,-120.4963854,,,,human,true,
Oliver Cemetery,United States,Washington,Okanogan County,Nighthawk,Nighthawk,,49.1772333,-119.5690333,,,,human,true,
Glenrosa Cemetery,United States,Washington,Okanogan County,Nighthawk,Nighthawk,,49.8419231,-119.6726764,,,,human,true,
